[
  {
    "url": "https://www.foodpantries.org/li/ak_99556_anchor-point-food-pantry",
    "name": "Anchor Point Food Pantry",
    "address": "34361 Old Sterling Hwy.",
    "city": "Anchor Point",
    "state": "AK",
    "zip": "99556",
    "phone": "(907) 299-8437",
    "fax": null,
    "email": null,
    "website": "http://www.freefood.org/",
    "hours": "Fridays from 4:00pm - 6:00pm.\r\nOnce a month they provide a box of commodities.\r\nThey have other programs throughout the year.\nVolunteering Information:Please contact us and express your desire to volunteer.  Volunteers must be able to relate to all people with empathy, respect and honesty.  To be effective, we exercise the attitude of kindness and cheerfulness, not that of duty.",
    "description": null,
    "requirements": null,
    "scraped_at": "2025-10-27T16:14:34.069714",
    "latitude": 59.7343918,
    "longitude": -151.7744954,
    "geocoded_address": "Old Sterling Highway, Anchor Point, Kenai Peninsula Borough, Alaska, United States of America",
    "id": 1
  },
  {
    "url": "https://www.foodpantries.org/li/ak_Mobile_food_Pantry_Fairview_recreation_center",
    "name": "Mobile Food Pantry - Fairview Recreation Center",
    "address": "1121 E 10th Ave",
    "city": "Anchorage",
    "state": "AK",
    "zip": "99501",
    "phone": "(907) 343-4130",
    "fax": "(907) 343-4069",
    "email": null,
    "website": "http://www.freefood.org/",
    "hours": "The 2nd and 3rd Sat of the month\r\n2:00pm (registration at 1pm)\n\r\nFor more information, please call. \nCounty or Counties Served: Anchorage",
    "description": null,
    "requirements": null,
    "scraped_at": "2025-10-27T16:14:37.083262",
    "latitude": 61.212715,
    "longitude": -149.8622792,
    "geocoded_address": "1121, East 10th Avenue, Fairview, Anchorage, Alaska, 99501, United States of America",
    "id": 2
  },
  {
    "url": "https://www.foodpantries.org/li/ak_mobile_food_pantry_first_christian_methodist_episcopal_church",
    "name": "Mobile Food Pantry  First Christian Methodist Episcopal Church",
    "address": "3600 Macinnes Street",
    "city": "Anchorage",
    "state": "AK",
    "zip": "99508",
    "phone": "(907) 563-7044",
    "fax": null,
    "email": null,
    "website": "http://www.freefood.org/",
    "hours": "1st and 4th Sat of the month 2:00 pm (registration at 1:00 pm).Volunteers:Are always neededFor more information, please call. \nCounty or Counties Served: Anchorage",
    "description": null,
    "requirements": null,
    "scraped_at": "2025-10-27T16:14:40.253048",
    "latitude": 61.2163129,
    "longitude": -149.894852,
    "geocoded_address": "Anchorage, Alaska, United States of America",
    "note": "Geocoded to city center (exact address not found)",
    "id": 3
  },
  {
    "url": "https://www.foodpantries.org/li/ak_mobile_food_pantry_jewel_lake_church_of_the_nazarene",
    "name": "Mobile Food Pantry Jewel Lake Church Of The Nazarene",
    "address": "4025 W 88th Ave",
    "city": "Anchorage",
    "state": "AK",
    "zip": "99502",
    "phone": "(907) 243-2344",
    "fax": null,
    "email": null,
    "website": "http://jlcn.org",
    "hours": "Saturday\r\n 10:00am (registration at 9am)\n\r\nFor more information, please call. \nCounty or Counties Served: Anchorage",
    "description": null,
    "requirements": null,
    "scraped_at": "2025-10-27T16:14:43.725237",
    "latitude": 61.1411711,
    "longitude": -149.9539098,
    "geocoded_address": "4025, West 88th Avenue, Anchorage, Alaska, 99502, United States of America",
    "id": 4
  },
  {
    "url": "https://www.foodpantries.org/li/Ak-mobile_food_pantry_lutheran_church_of_hope",
    "name": "Mobile Food Pantry  Lutheran Church Of Hope",
    "address": "1847 W Northern Lights Blvd",
    "city": "Anchorage",
    "state": "AK",
    "zip": "99517",
    "phone": null,
    "fax": null,
    "email": null,
    "website": "http://www.freefood.org/",
    "hours": "Tue 5pm (registration starts at 4pm).\r\n                                    \r\n                                                                        \n* Important: Please call the food pantries to confirm that the hours have not changed. We do our best to provide full information and details, but food pantries often change their hours without notifying us. We do not want you to waste your time visiting a pantry that is not open.",
    "description": null,
    "requirements": null,
    "scraped_at": "2025-10-27T16:14:46.651604",
    "latitude": 61.195376,
    "longitude": -149.919268,
    "geocoded_address": "1847, West Northern Lights Boulevard, Anchorage, Alaska, 99517, United States of America",
    "id": 5
  },
  {
    "url": "https://www.foodpantries.org/li/Ak-mobile_food_pantry_mountain_view_boys_girls_club",
    "name": "Food Bank of Alaska",
    "address": "2121 Spar Ave.",
    "city": "Anchorage",
    "state": "AK",
    "zip": "99501",
    "phone": "(907) 272-3663",
    "fax": "(907) 277-7368",
    "email": null,
    "website": "http://www.freefood.org/",
    "hours": "Monday - Saturday8:00am - 4:00pm\nCounty or Counties Served: Anchorage",
    "description": null,
    "requirements": null,
    "scraped_at": "2025-10-27T16:14:49.005468",
    "latitude": 61.2225508,
    "longitude": -149.8423961,
    "geocoded_address": "2121, Spar Avenue, Anchorage, Alaska, 99501, United States of America",
    "id": 6
  },
  {
    "url": "https://www.foodpantries.org/li/Ak-mobile_food_pantry_muldoon_community_assembly",
    "name": "Mobile Food Pantry - Muldoon Community Assembly",
    "address": "7041 Debarr Rd",
    "city": "Anchorage",
    "state": "AK",
    "zip": "99504",
    "phone": null,
    "fax": null,
    "email": null,
    "website": "http://www.freefood.org/",
    "hours": "Wed 9:30am (registration at 8:30am).",
    "description": null,
    "requirements": null,
    "scraped_at": "2025-10-27T16:14:51.654486",
    "latitude": 61.209804,
    "longitude": -149.7498905,
    "geocoded_address": "7041, DeBarr Road, Anchorage, Alaska, 99504, United States of America",
    "id": 7
  },
  {
    "url": "https://www.foodpantries.org/li/Ak-mobile_food_pantry_the_adelaide",
    "name": "Mobile Food Pantry - The Adelaide",
    "address": "201 E 9th Ave",
    "city": "Anchorage",
    "state": "AK",
    "zip": "99501",
    "phone": null,
    "fax": null,
    "email": null,
    "website": "http://www.freefood.org/",
    "hours": "Alternate Wed 2pm (1/12, 1/26, 2/9, 2/23, 3/9, 3/23); registration starts at 1pm.",
    "description": null,
    "requirements": null,
    "scraped_at": "2025-10-27T16:14:53.743951",
    "latitude": 61.213708,
    "longitude": -149.880977,
    "geocoded_address": "201, East 9th Avenue, Anchorage, Alaska, 99501, United States of America",
    "id": 8
  },
  {
    "url": "https://www.foodpantries.org/li/Ak-lions_clubs_of_alaska",
    "name": "Lions Clubs Of Alaska",
    "address": "4233 Mountain View Dr",
    "city": "Anchorage",
    "state": "AK",
    "zip": "99508",
    "phone": null,
    "fax": null,
    "email": null,
    "website": "http://www.freefood.org/",
    "hours": "9:30am to 12:00pm, 2nd and 3rd Saturdays (verification needed) 9:30 to 12:00pm, 4th Saturday of the month (Senior and Children food boxes distributed)Fees:No Fee for ServiceIntake:Telephone to ApplyEligibility:Low-Income, for government surplus foodServices:Food Pantries, Government Surplus Food Distribution Sites",
    "description": null,
    "requirements": null,
    "scraped_at": "2025-10-27T16:14:58.956826",
    "latitude": 61.2243032,
    "longitude": -149.8020782,
    "geocoded_address": "4233, Mountain View Drive, Mountain View, Anchorage, Alaska, 99508, United States of America",
    "id": 9
  },
  {
    "url": "https://www.foodpantries.org/li/Ak-spenard_lions_club_anchorage",
    "name": "Spenard Lions Club - Anchorage",
    "address": "2108 Roosevelt Dr",
    "city": "Anchorage",
    "state": "AK",
    "zip": "99517",
    "phone": null,
    "fax": null,
    "email": null,
    "website": "http://www.freefood.org/",
    "hours": "9:30am to 12:00pm, 2nd and 3rd Saturdays (verification needed) 9:30 to 12:00pm, 4th Saturday of the month (Senior and Children food boxes distributed)Fees:No Fee for ServiceIntake:Telephone to ApplyEligibility:Low-Income, for government surplus foodServices:Food Pantries, Government Surplus Food Distribution Sites",
    "description": null,
    "requirements": null,
    "scraped_at": "2025-10-27T16:15:01.568189",
    "latitude": 61.1818775,
    "longitude": -149.918718,
    "geocoded_address": "2108, Roosevelt Drive, Spenard, Roosevelt Park, Anchorage, Alaska, 99517, United States of America",
    "id": 10
  },
  {
    "url": "https://www.foodpantries.org/li/ak-Mother_lawrence_foundation",
    "name": "Mother Lawrence Foundation",
    "address": "3609 Richmond Ave.",
    "city": "Anchorage",
    "state": "AK",
    "zip": "99508",
    "phone": "(907) 272-0989",
    "fax": null,
    "email": null,
    "website": "http://www.freefood.org/",
    "hours": "Monday-Friday 2:00pm - 4:00pmSaturday12:00pm - 2:00pmSunday5:00pm - 6:30pmFees:No ChargeÂ \nCounty or Counties Served: Anchorage",
    "description": null,
    "requirements": null,
    "scraped_at": "2025-10-27T16:15:04.284510",
    "latitude": 61.2251394,
    "longitude": -149.8138565,
    "geocoded_address": "3609, Richmond Avenue, Mountain View, Anchorage, Alaska, 99508, United States of America",
    "id": 11
  },
  {
    "url": "https://www.foodpantries.org/li/Ak-mountain_view_baptist_church",
    "name": "Mountain View Baptist Church",
    "address": "4301 Mountain View Drive",
    "city": "Anchorage",
    "state": "AK",
    "zip": "99508",
    "phone": "(907) 279-1244",
    "fax": null,
    "email": null,
    "website": "http://www.freefood.org/",
    "hours": "The Second and Fourth Tuesday\r\n9:30am - 11:30am(November and December)",
    "description": null,
    "requirements": "Bring Picture ID, Rent Receipt, Documentation of Children\r\nFor more information, please call.",
    "scraped_at": "2025-10-27T16:15:07.287958",
    "latitude": 61.224452,
    "longitude": -149.800725,
    "geocoded_address": "4301, Mountain View Drive, Mountain View, Anchorage, Alaska, 99508, United States of America",
    "id": 12
  },
  {
    "url": "https://www.foodpantries.org/li/Ak-new_hope_on_the_last_frontier",
    "name": "New Hope Compassionate Ministry Food Pantry",
    "address": "1220 E Street",
    "city": "Anchorage",
    "state": "AK",
    "zip": "99501",
    "phone": "(907) 274-4673",
    "fax": null,
    "email": null,
    "website": "http://www.freefood.org/",
    "hours": "Every Tuesday 10:30 AM  1:00 PMDoors open at 9:30 AMParking lot opens to clients at 8:30 AMDoor open and registration begins at 9:00am, also have a clothing room available on Tuesdays from 10:30am to 2:00pm. Requirements: Bring your IDBring your own shopping bagsOnly 1 person per household\r\n                                    \r\n                                    County or Counties Served: Anchorage",
    "description": null,
    "requirements": "Bring your IDBring your own shopping bagsOnly 1 person per household\r\n                                    \r\n                                    County or Counties Served: Anchorage",
    "scraped_at": "2025-10-27T16:15:10.088931",
    "latitude": 61.2103994,
    "longitude": -149.891615,
    "geocoded_address": "1220, E Street, South Addition, Anchorage, Alaska, 99501, United States of America",
    "id": 13
  },
  {
    "url": "https://www.foodpantries.org/li/Ak-salvation_army_alaska_division",
    "name": "Salvation Army - McKinnell House",
    "address": "1712 A Stret",
    "city": "Anchorage",
    "state": "AK",
    "zip": "99501",
    "phone": "(907) 277-2593",
    "fax": null,
    "email": null,
    "website": "http://www.freefood.org/",
    "hours": "Monday - Friday8:00am - 5:00pmFor more information, please call. \nCounty or Counties Served: Anchorage",
    "description": null,
    "requirements": null,
    "scraped_at": "2025-10-27T16:15:13.876917",
    "latitude": 61.2163129,
    "longitude": -149.894852,
    "geocoded_address": "Anchorage, Alaska, United States of America",
    "note": "Geocoded to city center (exact address not found)",
    "id": 14
  },
  {
    "url": "https://www.foodpantries.org/li/Ak-shiloh_baptist_family_services",
    "name": "Shiloh Baptist Family Services",
    "address": "1928 Juneau St",
    "city": "Anchorage",
    "state": "AK",
    "zip": "99501",
    "phone": null,
    "fax": null,
    "email": null,
    "website": "http://www.freefood.org/",
    "hours": "Sat 8am-10am.",
    "description": null,
    "requirements": null,
    "scraped_at": "2025-10-27T16:15:17.341366",
    "latitude": 61.2155876,
    "longitude": -149.8649272,
    "geocoded_address": "Juneau Street, Fairview, Anchorage, Alaska, 88591, United States of America",
    "id": 15
  },
  {
    "url": "https://www.foodpantries.org/li/Ak-emergency_food_bank_st_benedicts_outreach",
    "name": "Emergency Food Bank St Benedict''s Outreach",
    "address": "8110 Jewel Lake Road",
    "city": "Anchorage",
    "state": "AK",
    "zip": "99502",
    "phone": null,
    "fax": null,
    "email": null,
    "website": "http://www.freefood.org/",
    "hours": "Call number any time of the day and leave a message containing contact name, contact phone number and the amount of people.",
    "description": null,
    "requirements": null,
    "scraped_at": "2025-10-27T16:15:19.949042",
    "latitude": 61.147089,
    "longitude": -149.9528556,
    "geocoded_address": "Saint Benedict Catholic Church, 8110, Jewel Lake Road, Anchorage, Alaska, 99502, United States of America",
    "id": 16
  },
  {
    "url": "https://www.foodpantries.org/li/Ak-st_christophers_episcopal_church",
    "name": "St. Christopher''s Episcopal Church",
    "address": "7208 Duben Ave",
    "city": "Anchorage",
    "state": "AK",
    "zip": "99504",
    "phone": null,
    "fax": null,
    "email": null,
    "website": "http://www.freefood.org/",
    "hours": "Thu 10am-12noon.Area served:ZIP code 99504 only.",
    "description": null,
    "requirements": null,
    "scraped_at": "2025-10-27T16:15:22.247187",
    "latitude": 61.220477,
    "longitude": -149.7462679,
    "geocoded_address": "7208, Duben Avenue, Homesite Park, Anchorage, Alaska, 99504, United States of America",
    "id": 17
  },
  {
    "url": "https://www.foodpantries.org/li/shiloh_food_pantry_99501",
    "name": "Shiloh Food Pantry",
    "address": "855 E. 20th Ave.",
    "city": "Anchorage",
    "state": "AK",
    "zip": "99501",
    "phone": "(907) 276-6673",
    "fax": null,
    "email": null,
    "website": "http://www.freefood.org/",
    "hours": "Saturday 8:00am - 10:00amFor more information, please call.\nCounty or Counties Served: Anchorage",
    "description": null,
    "requirements": null,
    "scraped_at": "2025-10-27T16:15:24.482605",
    "latitude": 61.2019066,
    "longitude": -149.8662183,
    "geocoded_address": "855, East 20th Avenue, Rogers Park, Anchorage, Alaska, 99501, United States of America",
    "id": 18
  },
  {
    "url": "https://www.foodpantries.org/li/north_anchorage_church_of_god_99508",
    "name": "North Anchorage Church Of God",
    "address": "1711 Bragaw Street",
    "city": "Anchorage",
    "state": "AK",
    "zip": "99508",
    "phone": "(907) 338-2316",
    "fax": null,
    "email": null,
    "website": "http://www.freefood.org/",
    "hours": "Monday to Friday: 9:30 am to 4:00 pm \r\nService Area: \r\nMunicipality of Anchorage. \r\nDocumentation Required: \r\nPicture ID & Driver's license.",
    "description": null,
    "requirements": null,
    "scraped_at": "2025-10-27T16:15:28.335238",
    "latitude": 61.2058596,
    "longitude": -149.808178,
    "geocoded_address": "1711, South Bragaw Street, Anchorage, Alaska, 99508, United States of America",
    "id": 19
  },
  {
    "url": "https://www.foodpantries.org/li/mother_lawrence_foundation_99508",
    "name": "Mother Lawrence Foundation",
    "address": "3609 Richmond Avenue",
    "city": "Anchorage",
    "state": "AK",
    "zip": "99508",
    "phone": "(907) 272-0989",
    "fax": null,
    "email": null,
    "website": "http://www.freefood.org/",
    "hours": "2nd and 4th Tuesdays: 9:30am - 11:30am (Closed on the 4th Tuesday during November and December)\nGo To Details Page For More Information",
    "description": null,
    "requirements": null,
    "scraped_at": "2025-10-27T16:15:30.928218",
    "latitude": 61.2251394,
    "longitude": -149.8138565,
    "geocoded_address": "3609, Richmond Avenue, Mountain View, Anchorage, Alaska, 99508, United States of America",
    "id": 20
  },
  {
    "url": "https://www.foodpantries.org/li/mobile_food_pantry_the_adelaide_99501",
    "name": "Mobile Food Pantry - The Adelaide",
    "address": "201 E 9th Avenue",
    "city": "Anchorage",
    "state": "AK",
    "zip": "99501",
    "phone": "(907) 272-3663",
    "fax": null,
    "email": null,
    "website": "http://www.freefood.org/",
    "hours": "Alternate Wednesdays: 2pm until the food runs out. Registration starts at 1pm\r\n                                    \r\n                                                                        \n* Important: Please call the food pantries to confirm that the hours have not changed. We do our best to provide full information and details, but food pantries often change their hours without notifying us. We do not want you to waste your time visiting a pantry that is not open.",
    "description": null,
    "requirements": null,
    "scraped_at": "2025-10-27T16:15:33.330787",
    "latitude": 61.213708,
    "longitude": -149.880977,
    "geocoded_address": "201, East 9th Avenue, Anchorage, Alaska, 99501, United States of America",
    "id": 21
  },
  {
    "url": "https://www.foodpantries.org/li/mobile_food_pantry_muldoon_community_assembly_99504",
    "name": "Mobile Food Pantry - Muldoon Community Assembly",
    "address": "1005 Ermine Street",
    "city": "Anchorage",
    "state": "AK",
    "zip": "99504",
    "phone": "(907) 272-3663",
    "fax": "(907) 277-7368",
    "email": null,
    "website": "http://www.freefood.org/",
    "hours": "Wednesday9:30am until the food runs out. Registration starts at 8:30amFor more information, please call. \nCounty or Counties Served: Anchorage",
    "description": null,
    "requirements": null,
    "scraped_at": "2025-10-27T16:15:38.346606",
    "latitude": 61.2126668,
    "longitude": -149.7503116,
    "geocoded_address": "1005, Ermine Street, Anchorage, Alaska, 99504, United States of America",
    "id": 22
  },
  {
    "url": "https://www.foodpantries.org/li/mobile_food_pantry_mountain_view_boys_and_girls_club_99508",
    "name": "Mobile Food Pantry - Mountain View Boys and Girls Club",
    "address": "2300 W 36th Ave.",
    "city": "Anchorage",
    "state": "AK",
    "zip": "99508",
    "phone": "(907) 297-5437",
    "fax": null,
    "email": null,
    "website": "https://bgcalaska.org",
    "hours": "Friday 2:00pm until the food runs out.Registration starts at 1:00pmFor more information, please call. \nVolunteering Information:https://bgcalaska.org/volunteer \nCounty or Counties Served: Anchorage",
    "description": null,
    "requirements": null,
    "scraped_at": "2025-10-27T16:15:40.383838",
    "latitude": 61.1879775,
    "longitude": -149.9263155,
    "geocoded_address": "2300, West 36th Avenue, Spenard, Anchorage, Alaska, 99517, United States of America",
    "id": 23
  },
  {
    "url": "https://www.foodpantries.org/li/mobile_food_pantry_lutheran_church_of_hope_99517",
    "name": "Mobile Food Pantry - Lutheran Church Of Hope",
    "address": "1847 W Northern Lights Boulevard",
    "city": "Anchorage",
    "state": "AK",
    "zip": "99517",
    "phone": "(907) 277-0818",
    "fax": "(907) 278-2737",
    "email": null,
    "website": "http://www.freefood.org/",
    "hours": "Tuesday 5:00pm (until the food runs out.) Registration starts at 4:00pm.\r\n                                    \r\n                                    County or Counties Served: Anchorage",
    "description": null,
    "requirements": null,
    "scraped_at": "2025-10-27T16:15:43.403949",
    "latitude": 61.195376,
    "longitude": -149.919268,
    "geocoded_address": "1847, West Northern Lights Boulevard, Anchorage, Alaska, 99517, United States of America",
    "id": 24
  },
  {
    "url": "https://www.foodpantries.org/li/mobile_food_pantry_jewel_lake_church_of_the_nazarene_99502",
    "name": "Mobile Food Pantry - Jewel Lake Church Of The Nazarene",
    "address": "4025 W 88th Avenue",
    "city": "Anchorage",
    "state": "AK",
    "zip": "99502",
    "phone": "(907) 272-3663",
    "fax": null,
    "email": null,
    "website": "http://www.freefood.org/",
    "hours": "Saturday: 10am until the food runs out; Registration at 9am\r\n                                    \r\n                                                                        \n* Important: Please call the food pantries to confirm that the hours have not changed. We do our best to provide full information and details, but food pantries often change their hours without notifying us. We do not want you to waste your time visiting a pantry that is not open.",
    "description": null,
    "requirements": null,
    "scraped_at": "2025-10-27T16:15:45.573256",
    "latitude": 61.1411711,
    "longitude": -149.9539098,
    "geocoded_address": "4025, West 88th Avenue, Anchorage, Alaska, 99502, United States of America",
    "id": 25
  },
  {
    "url": "https://www.foodpantries.org/li/mobile_food_pantry_first_christian_methodist_episcopal_chu_99508",
    "name": "Mobile Food Pantry - First Christian Methodist Episcopal Chu",
    "address": "3600 Macinnes Street",
    "city": "Anchorage",
    "state": "AK",
    "zip": "99508",
    "phone": "(907) 272-3663",
    "fax": null,
    "email": null,
    "website": "http://www.freefood.org/",
    "hours": "1st and 4th Saturday of Month: 2pm. Registration starts at 1pm.\r\n                                    \r\n                                                                        \n* Important: Please call the food pantries to confirm that the hours have not changed. We do our best to provide full information and details, but food pantries often change their hours without notifying us. We do not want you to waste your time visiting a pantry that is not open.",
    "description": null,
    "requirements": null,
    "scraped_at": "2025-10-27T16:15:50.273695",
    "latitude": 61.2163129,
    "longitude": -149.894852,
    "geocoded_address": "Anchorage, Alaska, United States of America",
    "note": "Geocoded to city center (exact address not found)",
    "id": 26
  },
  {
    "url": "https://www.foodpantries.org/li/mobile_food_pantry_centennial_village_chickaloon_landing_99504",
    "name": "Food Bank Of Alaska",
    "address": "8901 Peck Avenue",
    "city": "Anchorage",
    "state": "AK",
    "zip": "99504",
    "phone": "(907) 272-3663",
    "fax": null,
    "email": null,
    "website": "http://www.freefood.org/",
    "hours": "One Wednesday per Month 2:00pmRegistration starts at 1pm.\r\n                                    \r\n                                    County or Counties Served: Anchorage",
    "description": null,
    "requirements": null,
    "scraped_at": "2025-10-27T16:15:53.447157",
    "latitude": 61.2223486,
    "longitude": -149.7455381,
    "geocoded_address": "Peck Avenue, Homesite Park, Anchorage, Alaska, 99504, United States of America",
    "id": 27
  },
  {
    "url": "https://www.foodpantries.org/li/emergency_food_bank:_st_benedicts_outreach_99502",
    "name": "Emergency Food Bank: St Benedict's Outreach",
    "address": "8110 Jewel Lake Road",
    "city": "Anchorage",
    "state": "AK",
    "zip": "99502",
    "phone": "(907) 273-1596",
    "fax": null,
    "email": null,
    "website": "http://www.freefood.org/",
    "hours": "Saturday: 10am until the food runs out; Registration at 9am\nGo To Details Page For More Information",
    "description": null,
    "requirements": null,
    "scraped_at": "2025-10-27T16:15:55.803541",
    "latitude": 61.147089,
    "longitude": -149.9528556,
    "geocoded_address": "Saint Benedict Catholic Church, 8110, Jewel Lake Road, Anchorage, Alaska, 99502, United States of America",
    "id": 28
  },
  {
    "url": "https://www.foodpantries.org/li/st_christophers_episcopal_church_99504",
    "name": "St Christopher's Episcopal Church",
    "address": "7208 Duben Avenue",
    "city": "Anchorage",
    "state": "AK",
    "zip": "99504",
    "phone": "(907) 333-5010",
    "fax": null,
    "email": null,
    "website": "http://www.freefood.org/",
    "hours": "Thursday: 10am - 12pm\r\n                                    \r\n                                                                        \n* Important: Please call the food pantries to confirm that the hours have not changed. We do our best to provide full information and details, but food pantries often change their hours without notifying us. We do not want you to waste your time visiting a pantry that is not open.",
    "description": null,
    "requirements": null,
    "scraped_at": "2025-10-27T16:16:02.778054",
    "latitude": 61.220477,
    "longitude": -149.7462679,
    "geocoded_address": "7208, Duben Avenue, Homesite Park, Anchorage, Alaska, 99504, United States of America",
    "id": 29
  },
  {
    "url": "https://www.foodpantries.org/li/new_hope_on_the_last_frontier_99501",
    "name": "New Hope On The Last Frontier",
    "address": "1220 E Street",
    "city": "Anchorage",
    "state": "AK",
    "zip": "99501",
    "phone": "(907) 274-4673",
    "fax": null,
    "email": null,
    "website": "http://www.freefood.org/",
    "hours": "Monday - Thursday 1:00pm - 4:00pm McKinnell House Desk Hours: Monday - Friday 8:00am - 5:00pm For more information, please call.",
    "description": null,
    "requirements": null,
    "scraped_at": "2025-10-27T16:16:04.829380",
    "latitude": 61.2103994,
    "longitude": -149.891615,
    "geocoded_address": "1220, E Street, South Addition, Anchorage, Alaska, 99501, United States of America",
    "id": 30
  },
  {
    "url": "https://www.foodpantries.org/li/mountain_view_baptist_church_99508",
    "name": "Mountain View Baptist Church",
    "address": "300 N Bragaw",
    "city": "Anchorage",
    "state": "AK",
    "zip": "99508",
    "phone": "(907) 279-4316",
    "fax": null,
    "email": null,
    "website": "http://www.freefood.org/",
    "hours": "2nd and 4th Tuesdays: 9:30am - 11:30am (Closed on the 4th Tuesday during November and December)\r\n                                    \r\n                                                                        \n* Important: Please call the food pantries to confirm that the hours have not changed. We do our best to provide full information and details, but food pantries often change their hours without notifying us. We do not want you to waste your time visiting a pantry that is not open.",
    "description": null,
    "requirements": null,
    "scraped_at": "2025-10-27T16:16:08.588751",
    "latitude": 61.226079,
    "longitude": -149.808558,
    "geocoded_address": "300, North Bragaw Street, Mountain View, Anchorage, Alaska, 99508, United States of America",
    "id": 31
  },
  {
    "url": "https://www.foodpantries.org/li/mobile_food_pantry_fairview_recreation_center_99501",
    "name": "Mobile Food Pantry - Fairview Recreation Center",
    "address": "1121 E 10th Avenue",
    "city": "Anchorage",
    "state": "AK",
    "zip": "99501",
    "phone": "(907) 272-3663",
    "fax": null,
    "email": null,
    "website": "http://www.freefood.org/",
    "hours": "2nd and 3rd Saturday of Month: 2pm. Registration starts at 1pm.\r\n                                    \r\n                                                                        \n* Important: Please call the food pantries to confirm that the hours have not changed. We do our best to provide full information and details, but food pantries often change their hours without notifying us. We do not want you to waste your time visiting a pantry that is not open.",
    "description": null,
    "requirements": null,
    "scraped_at": "2025-10-27T16:16:11.898233",
    "latitude": 61.212715,
    "longitude": -149.8622792,
    "geocoded_address": "1121, East 10th Avenue, Fairview, Anchorage, Alaska, 99501, United States of America",
    "id": 32
  },
  {
    "url": "https://www.foodpantries.org/li/lutheran_social_services_of_alaska_99503",
    "name": "Lutheran Social Services Of Alaska",
    "address": "1303 W 33rd Avenue",
    "city": "Anchorage",
    "state": "AK",
    "zip": "99503",
    "phone": "(907) 272-0643",
    "fax": "(907) 272-5728",
    "email": null,
    "website": "http://www.freefood.org/",
    "hours": "Tuesday, Thursday and Friday1pm - 4pm Wednesday5pm - 7pm(Closed Mondays and weekends.)For more information, please call. \nCounty or Counties Served: Anchorage",
    "description": null,
    "requirements": null,
    "scraped_at": "2025-10-27T16:16:15.774133",
    "latitude": 61.1904189,
    "longitude": -149.9078953,
    "geocoded_address": "1303, West 33rd Avenue, Spenard, Anchorage, Alaska, 99503, United States of America",
    "id": 33
  },
  {
    "url": "https://www.foodpantries.org/li/saint-francis-house",
    "name": "Catholic Social Services - Saint Francis House",
    "address": "3710 East 20th Ave",
    "city": "Anchorage",
    "state": "AK",
    "zip": "99508",
    "phone": null,
    "fax": null,
    "email": null,
    "website": "http://www.freefood.org/",
    "hours": "Monday through Thursday, 9-00 AM - 1-00 PM 4th Wednesday of the Month, 4-00 PM - 6-30 PM\r\n                                    \r\n                                                                        \n* Important: Please call the food pantries to confirm that the hours have not changed. We do our best to provide full information and details, but food pantries often change their hours without notifying us. We do not want you to waste your time visiting a pantry that is not open.",
    "description": null,
    "requirements": null,
    "scraped_at": "2025-10-27T16:16:18.496520",
    "latitude": 61.202579,
    "longitude": -149.8120082,
    "geocoded_address": "3710, East 20th Avenue, Anchorage, Alaska, 99508, United States of America",
    "id": 34
  },
  {
    "url": "https://www.foodpantries.org/li/downtown-soup-kitchen",
    "name": "Downtown Soup Kitchen",
    "address": "240 E 3rd Ave",
    "city": "Anchorage",
    "state": "AK",
    "zip": "99501",
    "phone": "(907) 277-4302",
    "fax": null,
    "email": null,
    "website": "http://www.freefood.org/",
    "hours": "Alternate Wednesdays: 2pm until the food runs out. Registration starts at 1pm\nGo To Details Page For More Information",
    "description": null,
    "requirements": null,
    "scraped_at": "2025-10-27T16:16:21.437710",
    "latitude": 61.2194502,
    "longitude": -149.8803477,
    "geocoded_address": "240, East 3rd Avenue, Anchorage, Alaska, 99501, United States of America",
    "id": 35
  },
  {
    "url": "https://www.foodpantries.org/li/ak_anchorage_first-congregational-church-food-pantry",
    "name": "First Congregational Church Food Pantry",
    "address": "2610 E Northern Lights Boulevard",
    "city": "Anchorage",
    "state": "AK",
    "zip": "99508",
    "phone": "(907) 272-8363",
    "fax": null,
    "email": null,
    "website": "https://www.fccak.org",
    "hours": "Monday to Friday: 9:30 am to 4:00 pm\r\nService Area:\r\nMunicipality of Anchorage. \r\nDocumentation Required:\r\nPicture ID & Driver's license.",
    "description": null,
    "requirements": null,
    "scraped_at": "2025-10-27T16:16:24.627777",
    "latitude": 61.196295,
    "longitude": -149.7949635,
    "geocoded_address": "2610, East Northern Lights Boulevard, Anchorage, Alaska, 99508, United States of America",
    "id": 36
  },
  {
    "url": "https://www.foodpantries.org/li/aniak_traditional_council_99557",
    "name": "Aniak Traditional Council",
    "address": "1 Community Hall Road",
    "city": "Aniak",
    "state": "AK",
    "zip": "99557",
    "phone": "(907) 675-4349",
    "fax": null,
    "email": null,
    "website": "http://www.freefood.org/",
    "hours": null,
    "description": null,
    "requirements": null,
    "scraped_at": "2025-10-27T16:16:27.437928",
    "latitude": 61.581597,
    "longitude": -159.5668118,
    "geocoded_address": "Community Hall Road, Aniak city, Unorganized Borough, Alaska, United States of America",
    "id": 37
  },
  {
    "url": "https://www.foodpantries.org/li/Ak-orutsaramuit_native_council_social_services",
    "name": "Orutsaramuit Native Council Social Services",
    "address": "Po Box 927",
    "city": "Bethel",
    "state": "AK",
    "zip": "99559",
    "phone": "(907) 543-2608",
    "fax": "(907) 543-2639",
    "email": null,
    "website": "http://www.freefood.org/",
    "hours": "Monday - Friday 8:30 am - 5:00 pmArea Served: Bethel Borough.For more information, please call. \nCounty or Counties Served: Bethel",
    "description": null,
    "requirements": null,
    "scraped_at": "2025-10-27T16:16:29.566469",
    "latitude": 60.7922222,
    "longitude": -161.755833,
    "geocoded_address": "Bethel, Unorganized Borough, Alaska, 99559, United States of America",
    "note": "Geocoded to city center (exact address not found)",
    "id": 38
  },
  {
    "url": "https://www.foodpantries.org/li/Ak-our_lady_of_the_lake_catholic_church",
    "name": "Our Lady Of The Lake Catholic Church",
    "address": "Mile 5.5 S Big Lake Rd",
    "city": "Big Lake",
    "state": "AK",
    "zip": "99652",
    "phone": null,
    "fax": null,
    "email": null,
    "website": "http://www.freefood.org/",
    "hours": "Call for an appointment.Area served:Big Lake, Houston.",
    "description": null,
    "requirements": null,
    "scraped_at": "2025-10-27T16:16:33.713913",
    "latitude": 61.5417461,
    "longitude": -149.830355,
    "geocoded_address": "Big Lake, Matanuska-Susitna Borough, Alaska, United States of America",
    "note": "Geocoded to city center (exact address not found)",
    "id": 39
  },
  {
    "url": "https://www.foodpantries.org/li/our_lady_of_the_lake_catholic_church_99652",
    "name": "Our Lady Of The Lake Catholic Church",
    "address": "Mile 5.5 S Big Lake Road",
    "city": "Big Lake",
    "state": "AK",
    "zip": "99652",
    "phone": "(907) 892-6492",
    "fax": null,
    "email": null,
    "website": "http://www.freefood.org/",
    "hours": "Pick up Food Wednesdays 6pm and Sunday: 6pm\nGo To Details Page For More Information",
    "description": null,
    "requirements": null,
    "scraped_at": "2025-10-27T16:16:37.630596",
    "latitude": 61.5417461,
    "longitude": -149.830355,
    "geocoded_address": "Big Lake, Matanuska-Susitna Borough, Alaska, United States of America",
    "note": "Geocoded to city center (exact address not found)",
    "id": 40
  },
  {
    "url": "https://www.foodpantries.org/li/ak_99918_coffman-cove-food-pantry",
    "name": "Coffman Cove Food Pantry",
    "address": "Ferry Terminal",
    "city": "Coffman Cove",
    "state": "AK",
    "zip": "99918",
    "phone": "(907) 329-2233",
    "fax": "(907) 329-2212",
    "email": null,
    "website": "http://www.freefood.org/",
    "hours": "The third Saturday every month.Volunteer:Contact us at coffmancovepantry@gmail.com For more information, please call.\nCounty or Counties Served: Prince Wales Ketchikan",
    "description": null,
    "requirements": null,
    "scraped_at": "2025-10-27T16:16:41.269144",
    "latitude": 56.0164341,
    "longitude": -132.8334913,
    "geocoded_address": "Coffeman Cove Ferry Terminal, Mountain View, Coffman Cove, Unorganized Borough, Alaska, 99918, United States of America",
    "id": 41
  },
  {
    "url": "https://www.foodpantries.org/li/bristol_bay_native_association_99576",
    "name": "Bristol Bay Native Association",
    "address": "1500 Kanakanak Road",
    "city": "Dillingham",
    "state": "AK",
    "zip": "99576",
    "phone": "(907) 842-3663",
    "fax": null,
    "email": null,
    "website": "http://www.freefood.org/",
    "hours": "Mondays through Fridays 1:30pm - 4:30pm\r\n                                    \r\n                                                                        \n* Important: Please call the food pantries to confirm that the hours have not changed. We do our best to provide full information and details, but food pantries often change their hours without notifying us. We do not want you to waste your time visiting a pantry that is not open.",
    "description": null,
    "requirements": null,
    "scraped_at": "2025-10-27T16:16:43.604089",
    "latitude": 59.043765,
    "longitude": -158.49332,
    "geocoded_address": "1500, Kanakanak Road, Nelsonville, Dillingham, Unorganized Borough, Alaska, 99576, United States of America",
    "id": 42
  },
  {
    "url": "https://www.foodpantries.org/li/Ak-douglas_community_united_methodist_church",
    "name": "Douglas Community United Methodist Church",
    "address": "1106 3rd St",
    "city": "Douglas",
    "state": "AK",
    "zip": "99824",
    "phone": null,
    "fax": null,
    "email": null,
    "website": "http://www.freefood.org/",
    "hours": "Mon Wed 1:30pm-3:30pm. Thu 4pm-6pm.Area served:Douglas.",
    "description": null,
    "requirements": null,
    "scraped_at": "2025-10-27T16:16:45.643488",
    "latitude": 58.2772536,
    "longitude": -134.3958806,
    "geocoded_address": "1106, 3rd Street, Juneau, Alaska, 99824, United States of America",
    "id": 43
  },
  {
    "url": "https://www.foodpantries.org/li/douglas_community_united_methodist_church_99824",
    "name": "Douglas Community United Methodist Church",
    "address": "1106 3rd Street",
    "city": "Douglas",
    "state": "AK",
    "zip": "99824",
    "phone": "(907) 364-2408",
    "fax": null,
    "email": null,
    "website": "http://www.freefood.org/",
    "hours": "Monday and Wednesdays 1:30pm - 3:30pm and Thursday: 4pm - 6pm.\r\n                                    \r\n                                                                        \n* Important: Please call the food pantries to confirm that the hours have not changed. We do our best to provide full information and details, but food pantries often change their hours without notifying us. We do not want you to waste your time visiting a pantry that is not open.",
    "description": null,
    "requirements": null,
    "scraped_at": "2025-10-27T16:16:49.057122",
    "latitude": 58.2772536,
    "longitude": -134.3958806,
    "geocoded_address": "1106, 3rd Street, Juneau, Alaska, 99824, United States of America",
    "id": 44
  },
  {
    "url": "https://www.foodpantries.org/li/Ak-eagle_river_church_of_god",
    "name": "Eagle River Church Of God",
    "address": "17108 Hanson Drive",
    "city": "Eagle River",
    "state": "AK",
    "zip": "99577",
    "phone": "(907) 694-9395",
    "fax": "(907) 694-9396",
    "email": null,
    "website": "http://churchofgod.org",
    "hours": "Tuesday, Wednesday, and Thursday 11:00 am to 2:00 pmFor more information, please call. Alternate number 907-351-0937\nCounty or Counties Served: Anchorage",
    "description": null,
    "requirements": null,
    "scraped_at": "2025-10-27T16:16:51.992877",
    "latitude": 61.3277592,
    "longitude": -149.5634343,
    "geocoded_address": "17108, Hanson Drive, Eagle River, Anchorage, Alaska, 99577, United States of America",
    "id": 45
  },
  {
    "url": "https://www.foodpantries.org/li/chugiak_eagle_river_food_pantry_@_eagle_river_presbyterian_99577",
    "name": "Chugiak Eagle River Food Pantry at Eagle River Presbyterian Church",
    "address": "12836 Old Glenn Highway",
    "city": "Eagle River",
    "state": "AK",
    "zip": "99577",
    "phone": "(907) 694-5228",
    "fax": null,
    "email": null,
    "website": "http://www.freefood.org/",
    "hours": "Monday 10:00am - 1:00pm Tuesday 5:30pm - 7:30pm Friday 10:00am - 1:00pmDonations:Tuesdays & Thursdays from 10:00am to 1:00pm.They DO NOT serve clients during these hours.For more information, please call. \nCounty or Counties Served: Anchorage",
    "description": null,
    "requirements": null,
    "scraped_at": "2025-10-27T16:16:54.449603",
    "latitude": 61.336623,
    "longitude": -149.563439,
    "geocoded_address": "12836, Old Glenn Highway, Eagle River, Anchorage, Alaska, 99577, United States of America",
    "id": 46
  },
  {
    "url": "https://www.foodpantries.org/li/fairbanks-community-food-bank",
    "name": "Fairbanks Community Food Bank",
    "address": "725 26th Avenue",
    "city": "Fairbanks",
    "state": "AK",
    "zip": "99701",
    "phone": "(907) 457-4273",
    "fax": null,
    "email": null,
    "website": "http://www.freefood.org/",
    "hours": "Call Friday: 10am - 2pm\nGo To Details Page For More Information",
    "description": null,
    "requirements": "Must meet income guidelines. Hours: Monday - Friday 9:00am - 5:00pm For more information, please call. \nGo To Details Page For More Information",
    "scraped_at": "2025-10-27T16:16:56.698191",
    "latitude": 64.8228596,
    "longitude": -147.7170774,
    "geocoded_address": "725, 26th Avenue, South Fairbanks, Fairbanks, Fairbanks North Star Borough, Alaska, 99701, United States of America",
    "id": 47
  },
  {
    "url": "https://www.foodpantries.org/li/Ak-salvation_army_fairbanks_corps",
    "name": "Salvation Army - Fairbanks Corps",
    "address": "1602 10th Ave",
    "city": "Fairbanks",
    "state": "AK",
    "zip": "99701",
    "phone": "(907) 452-3103",
    "fax": null,
    "email": null,
    "website": "http://www.freefood.org/",
    "hours": "Monday - Friday 9:00am - 5:00pmFor more information, please call.\nCounty or Counties Served: Fairbanks North Star",
    "description": null,
    "requirements": "Must meet income guidelines.Hours:Monday - Friday 9:00am - 5:00pmFor more information, please call.\nCounty or Counties Served: Fairbanks North Star",
    "scraped_at": "2025-10-27T16:16:59.700145",
    "latitude": 64.8413992,
    "longitude": -147.7489025,
    "geocoded_address": "Salvation Army Fairbanks Corps Community Center, 1602, 10th Avenue, Slaterville, Fairbanks, Fairbanks North Star Borough, Alaska, 99701, United States of America",
    "id": 48
  },
  {
    "url": "https://www.foodpantries.org/li/Ak-christ_is_the_answer",
    "name": "Christ Is The Answer",
    "address": "402 16th Ave",
    "city": "Fairbanks",
    "state": "AK",
    "zip": "99701",
    "phone": "(907) 452-6810",
    "fax": null,
    "email": null,
    "website": "http://www.freefood.org/",
    "hours": "Registration: Wed 10am-12Noon. Pick up food boxes: Wed 2pm-4pm. \nGo To Details Page For More Information",
    "description": null,
    "requirements": "Must meet income guidelines. Hours: Monday - Friday 9:00am - 5:00pm For more information, please call. \nGo To Details Page For More Information",
    "scraped_at": "2025-10-27T16:17:02.906504",
    "latitude": 64.8330908,
    "longitude": -147.7452746,
    "geocoded_address": "16th Avenue, South Fairbanks, Fairbanks, Fairbanks North Star Borough, Alaska, 99707, United States of America",
    "id": 49
  },
  {
    "url": "https://www.foodpantries.org/li/Ak-community_covenant_church_fairbanks",
    "name": "Community Covenant Church Fairbanks",
    "address": "2136 Mccullam Ave",
    "city": "Fairbanks",
    "state": "AK",
    "zip": "99701",
    "phone": "(907) 456-6553",
    "fax": null,
    "email": null,
    "website": "http://www.freefood.org/",
    "hours": "Tuesday (during the months of  February, March, April, August, September and October.)\n\r\nFor more information, please call.",
    "description": null,
    "requirements": "Must meet income guidelines. Hours: Monday - Friday 9:00am - 5:00pm For more information, please call. \nGo To Details Page For More Information",
    "scraped_at": "2025-10-27T16:17:05.818591",
    "latitude": 64.8361502,
    "longitude": -147.7692451,
    "geocoded_address": "Community Covenant Church, 2136, McCullam Avenue, Fairbanks, Fairbanks North Star Borough, Alaska, 99701, United States of America",
    "id": 50
  },
  {
    "url": "https://www.foodpantries.org/li/Ak-fairbanks_native_association",
    "name": "Fairbanks Native Association",
    "address": "315 Wendell St",
    "city": "Fairbanks",
    "state": "AK",
    "zip": "99701",
    "phone": null,
    "fax": null,
    "email": null,
    "website": "http://www.freefood.org/",
    "hours": "Mon-Fri 8:30am-4:30pm.Area served:Fairbanks North Star and Southeast Fairbanks Boroughs.\r\n                                    \r\n                                                                        \n* Important: Please call the food pantries to confirm that the hours have not changed. We do our best to provide full information and details, but food pantries often change their hours without notifying us. We do not want you to waste your time visiting a pantry that is not open.",
    "description": null,
    "requirements": "Must meet income guidelines. Hours: Monday - Friday 9:00am - 5:00pm For more information, please call. \nGo To Details Page For More Information",
    "scraped_at": "2025-10-27T16:17:08.010738",
    "latitude": 64.837845,
    "longitude": -147.716675,
    "geocoded_address": "Fairbanks, Fairbanks North Star Borough, Alaska, United States of America",
    "note": "Geocoded to city center (exact address not found)",
    "id": 51
  },
  {
    "url": "https://www.foodpantries.org/li/Ak-fairbanks_first_church_of_the_nazarene",
    "name": "Fairbanks First Church Of The Nazarene",
    "address": "1524 Westwood Way Ste B",
    "city": "Fairbanks",
    "state": "AK",
    "zip": "99709",
    "phone": null,
    "fax": null,
    "email": null,
    "website": "http://www.freefood.org/",
    "hours": "Tues: open during the months of  May, June, July, November, December and January.Area served:Fairbanks North Star Borough.",
    "description": null,
    "requirements": "Must meet income guidelines. Hours: Monday - Friday 9:00am - 5:00pm For more information, please call. \nGo To Details Page For More Information",
    "scraped_at": "2025-10-27T16:17:13.037241",
    "latitude": 64.837845,
    "longitude": -147.716675,
    "geocoded_address": "Fairbanks, Fairbanks North Star Borough, Alaska, United States of America",
    "note": "Geocoded to city center (exact address not found)",
    "id": 52
  },
  {
    "url": "https://www.foodpantries.org/li/First_presbyterian_church_fairbanks",
    "name": "First Presbyterian Church Fairbanks",
    "address": "547 7th Ave",
    "city": "Fairbanks",
    "state": "AK",
    "zip": "99701",
    "phone": null,
    "fax": null,
    "email": null,
    "website": "http://www.freefood.org/",
    "hours": "Registration: Wed 10am-12Noon. Pick up food boxes: Wed 2pm-4pm.",
    "description": null,
    "requirements": "Must meet income guidelines. Hours: Monday - Friday 9:00am - 5:00pm For more information, please call. \nGo To Details Page For More Information",
    "scraped_at": "2025-10-27T16:17:16.391493",
    "latitude": 64.8404599,
    "longitude": -147.719451,
    "geocoded_address": "First Presbyterian Church, 547, 7th Avenue, Slaterville, Fairbanks, Fairbanks North Star Borough, Alaska, 99701, United States of America",
    "id": 53
  },
  {
    "url": "https://www.foodpantries.org/li/Ak-immaculate_conception_church_and_community_services",
    "name": "Immaculate Conception Church And Community Services",
    "address": "115 N Cushman St",
    "city": "Fairbanks",
    "state": "AK",
    "zip": "99701",
    "phone": null,
    "fax": null,
    "email": null,
    "website": "http://www.freefood.org/",
    "hours": "Employment/vocational services: Contact for days and hours.  Closed during the summer but open fall, winter and spring.  Soup Kitchen, Food Pantry and Clothing Closet: Sat Su 11am-1pm.Area served:Fairbanks Northstar Borough.",
    "description": null,
    "requirements": "Must meet income guidelines. Hours: Monday - Friday 9:00am - 5:00pm For more information, please call. \nGo To Details Page For More Information",
    "scraped_at": "2025-10-27T16:17:19.654684",
    "latitude": 64.8454194,
    "longitude": -147.7223203,
    "geocoded_address": "115, North Cushman Street, Slaterville, Fairbanks, Fairbanks North Star Borough, Alaska, 99701, United States of America",
    "id": 54
  },
  {
    "url": "https://www.foodpantries.org/li/salvation_army_fairbanks_corps_99701",
    "name": "Salvation Army - Fairbanks Corps",
    "address": "1602 10th Avenue",
    "city": "Fairbanks",
    "state": "AK",
    "zip": "99701",
    "phone": "(907) 452-3103",
    "fax": null,
    "email": null,
    "website": "http://www.freefood.org/",
    "hours": "Mondays through Fridays 9am - 5pm\r\n                                    \r\n                                                                        \n* Important: Please call the food pantries to confirm that the hours have not changed. We do our best to provide full information and details, but food pantries often change their hours without notifying us. We do not want you to waste your time visiting a pantry that is not open.",
    "description": null,
    "requirements": null,
    "scraped_at": "2025-10-27T16:17:22.158003",
    "latitude": 64.8413992,
    "longitude": -147.7489025,
    "geocoded_address": "Salvation Army Fairbanks Corps Community Center, 1602, 10th Avenue, Slaterville, Fairbanks, Fairbanks North Star Borough, Alaska, 99701, United States of America",
    "id": 55
  },
  {
    "url": "https://www.foodpantries.org/li/immaculate_conception_church_and_community_services_99701",
    "name": "Immaculate Conception Church And Community Services",
    "address": "115 N Cushman Street",
    "city": "Fairbanks",
    "state": "AK",
    "zip": "99701",
    "phone": "(907) 456-4918",
    "fax": null,
    "email": null,
    "website": "http://www.freefood.org/",
    "hours": "Mondays through Fridays 8:30am - 4:30pm.\nGo To Details Page For More Information",
    "description": null,
    "requirements": "Must meet income guidelines. Hours: Monday - Friday 9:00am - 5:00pm For more information, please call. \nGo To Details Page For More Information",
    "scraped_at": "2025-10-27T16:17:25.694922",
    "latitude": 64.8454194,
    "longitude": -147.7223203,
    "geocoded_address": "115, North Cushman Street, Slaterville, Fairbanks, Fairbanks North Star Borough, Alaska, 99701, United States of America",
    "id": 56
  },
  {
    "url": "https://www.foodpantries.org/li/first_presbyterian_church_99701",
    "name": "First Presbyterian Church Food Pantry",
    "address": "547 7th Avenue",
    "city": "Fairbanks",
    "state": "AK",
    "zip": "99701",
    "phone": "(907) 452-2406",
    "fax": null,
    "email": null,
    "website": "http://www.freefood.org/",
    "hours": "Wednesdays 2:00pm - 4:00pm.\nCounty or Counties Served: Fairbanks North Star",
    "description": null,
    "requirements": "Must meet income guidelines. Hours: Monday - Friday 9:00am - 5:00pm For more information, please call. \nGo To Details Page For More Information",
    "scraped_at": "2025-10-27T16:17:28.023837",
    "latitude": 64.8404599,
    "longitude": -147.719451,
    "geocoded_address": "First Presbyterian Church, 547, 7th Avenue, Slaterville, Fairbanks, Fairbanks North Star Borough, Alaska, 99701, United States of America",
    "id": 57
  },
  {
    "url": "https://www.foodpantries.org/li/first_church_of_the_nazarene_99709",
    "name": "First Church Of The Nazarene",
    "address": "1524 Westwood Way Suite B",
    "city": "Fairbanks",
    "state": "AK",
    "zip": "99709",
    "phone": "(907) 479-6734",
    "fax": null,
    "email": null,
    "website": "http://www.freefood.org/",
    "hours": "Tuesdays during the Months of May, June, July, November, December and January\r\n                                    \r\n                                                                        \n* Important: Please call the food pantries to confirm that the hours have not changed. We do our best to provide full information and details, but food pantries often change their hours without notifying us. We do not want you to waste your time visiting a pantry that is not open.",
    "description": null,
    "requirements": "Must meet income guidelines. Hours: Monday - Friday 9:00am - 5:00pm For more information, please call. \nGo To Details Page For More Information",
    "scraped_at": "2025-10-27T16:17:30.674768",
    "latitude": 64.837845,
    "longitude": -147.716675,
    "geocoded_address": "Fairbanks, Fairbanks North Star Borough, Alaska, United States of America",
    "note": "Geocoded to city center (exact address not found)",
    "id": 58
  },
  {
    "url": "https://www.foodpantries.org/li/fairhill_community_church_99712",
    "name": "Fairhill Community Church",
    "address": "101 City Lights Boulevard",
    "city": "Fairbanks",
    "state": "AK",
    "zip": "99712",
    "phone": "(907) 457-5522",
    "fax": null,
    "email": null,
    "website": "http://www.freefood.org/",
    "hours": "Mondays through Fridays 8:30am - 4:30pm.\nGo To Details Page For More Information",
    "description": null,
    "requirements": "Must meet income guidelines. Hours: Monday - Friday 9:00am - 5:00pm For more information, please call. \nGo To Details Page For More Information",
    "scraped_at": "2025-10-27T16:17:33.805361",
    "latitude": 64.868679,
    "longitude": -147.670505,
    "geocoded_address": "101, City Lights Boulevard, Hamilton Acres, Fairbanks, Fairbanks North Star Borough, Alaska, 99712, United States of America",
    "id": 59
  },
  {
    "url": "https://www.foodpantries.org/li/community_services_fairbanks_native_association_99701",
    "name": "Community Services - Fairbanks Native Association",
    "address": "315 Wendell Street",
    "city": "Fairbanks",
    "state": "AK",
    "zip": "99701",
    "phone": "(907) 452-5225",
    "fax": null,
    "email": null,
    "website": "http://www.freefood.org/",
    "hours": "Mondays through Fridays 8:30am - 4:30pm.\r\n                                    \r\n                                                                        \n* Important: Please call the food pantries to confirm that the hours have not changed. We do our best to provide full information and details, but food pantries often change their hours without notifying us. We do not want you to waste your time visiting a pantry that is not open.",
    "description": null,
    "requirements": "Must meet income guidelines. Hours: Monday - Friday 9:00am - 5:00pm For more information, please call. \nGo To Details Page For More Information",
    "scraped_at": "2025-10-27T16:17:36.040952",
    "latitude": 64.837845,
    "longitude": -147.716675,
    "geocoded_address": "Fairbanks, Fairbanks North Star Borough, Alaska, United States of America",
    "note": "Geocoded to city center (exact address not found)",
    "id": 60
  },
  {
    "url": "https://www.foodpantries.org/li/community_covenant_church_99701",
    "name": "Community Covenant Church",
    "address": "2136 McCullam Avenue",
    "city": "Fairbanks",
    "state": "AK",
    "zip": "99701",
    "phone": "(907) 456-6553",
    "fax": null,
    "email": null,
    "website": "http://www.freefood.org/",
    "hours": "Tuesday during the Months of February, March, April, August, September and October.\r\n                                    \r\n                                                                        \n* Important: Please call the food pantries to confirm that the hours have not changed. We do our best to provide full information and details, but food pantries often change their hours without notifying us. We do not want you to waste your time visiting a pantry that is not open.",
    "description": null,
    "requirements": "Must meet income guidelines. Hours: Monday - Friday 9:00am - 5:00pm For more information, please call. \nGo To Details Page For More Information",
    "scraped_at": "2025-10-27T16:17:39.471741",
    "latitude": 64.8361502,
    "longitude": -147.7692451,
    "geocoded_address": "Community Covenant Church, 2136, McCullam Avenue, Fairbanks, Fairbanks North Star Borough, Alaska, 99701, United States of America",
    "id": 61
  },
  {
    "url": "https://www.foodpantries.org/li/christ_is_the_answer_99701",
    "name": "Christ Is The Answer",
    "address": "402 16th Avenue",
    "city": "Fairbanks",
    "state": "AK",
    "zip": "99701",
    "phone": "(907) 452-6810",
    "fax": null,
    "email": null,
    "website": "http://www.freefood.org/",
    "hours": "Call Friday: 10am - 2pm\r\n                                    \r\n                                                                        \n* Important: Please call the food pantries to confirm that the hours have not changed. We do our best to provide full information and details, but food pantries often change their hours without notifying us. We do not want you to waste your time visiting a pantry that is not open.",
    "description": null,
    "requirements": "Must meet income guidelines. Hours: Monday - Friday 9:00am - 5:00pm For more information, please call. \nGo To Details Page For More Information",
    "scraped_at": "2025-10-27T16:17:41.817835",
    "latitude": 64.8330908,
    "longitude": -147.7452746,
    "geocoded_address": "16th Avenue, South Fairbanks, Fairbanks, Fairbanks North Star Borough, Alaska, 99707, United States of America",
    "id": 62
  },
  {
    "url": "https://www.foodpantries.org/li/sacred_heart_cathedral_fairbanks_99701",
    "name": "Sacred Heart Cathedral Fairbanks",
    "address": "2501 Airport Way",
    "city": "Fairbanks",
    "state": "AK",
    "zip": "99701",
    "phone": "(907) 474-9032",
    "fax": null,
    "email": null,
    "website": "http://www.freefood.org/",
    "hours": "Tuesday (during the months of February, March, April, August, September and October.) \r\n \r\nFor more information, please call.",
    "description": null,
    "requirements": "Must meet income guidelines. Hours: Monday - Friday 9:00am - 5:00pm For more information, please call. \nGo To Details Page For More Information",
    "scraped_at": "2025-10-27T16:17:46.165965",
    "latitude": 64.836708,
    "longitude": -147.77886,
    "geocoded_address": "2501, Airport Way, Westgate, Fairbanks, Fairbanks North Star Borough, Alaska, 99709, United States of America",
    "id": 63
  },
  {
    "url": "https://www.foodpantries.org/li/Ak-gwichyaa_zhee_gwichin_tribal_government",
    "name": "Gwichyaa Zhee Gwich''in Tribal Government",
    "address": "3rd And Alder St",
    "city": "Fort Yukon",
    "state": "AK",
    "zip": "99740",
    "phone": null,
    "fax": null,
    "email": null,
    "website": "http://www.freefood.org/",
    "hours": null,
    "description": null,
    "requirements": null,
    "scraped_at": "2025-10-27T16:17:48.785070",
    "latitude": 66.5647222,
    "longitude": -145.273888,
    "geocoded_address": "Fort Yukon, Unorganized Borough, Alaska, 99740, United States of America",
    "note": "Geocoded to city center (exact address not found)",
    "id": 64
  },
  {
    "url": "https://www.foodpantries.org/li/gwichyaa_zhee_gwichin_tribal_government_99740",
    "name": "Gwichyaa Zhee Gwich'in Tribal Government",
    "address": "3rd and Alder Street",
    "city": "Fort Yukon",
    "state": "AK",
    "zip": "99740",
    "phone": "(907) 662-2581",
    "fax": null,
    "email": null,
    "website": "http://www.freefood.org/",
    "hours": null,
    "description": null,
    "requirements": null,
    "scraped_at": "2025-10-27T16:17:52.272067",
    "latitude": 66.5647222,
    "longitude": -145.273888,
    "geocoded_address": "Fort Yukon, Unorganized Borough, Alaska, 99740, United States of America",
    "note": "Geocoded to city center (exact address not found)",
    "id": 65
  },
  {
    "url": "https://www.foodpantries.org/li/Ak-salvation_army_haines_corps",
    "name": "Salvation Army - Haines Corps",
    "address": "430 Union St",
    "city": "Haines",
    "state": "AK",
    "zip": "99827",
    "phone": null,
    "fax": null,
    "email": null,
    "website": "http://www.freefood.org/",
    "hours": "Last Wed of the month; call for times.DOCUMENTS TO BRING:Call for more information.FEES:None.INTAKE:Call for appointment.ELIGIBILITY:Must meet income guidelines.SERVICES:Food PantriesSITE HOURS:Hours vary.AREA SERVED:Haines.",
    "description": null,
    "requirements": null,
    "scraped_at": "2025-10-27T16:17:55.938925",
    "latitude": 59.237599,
    "longitude": -135.4497722,
    "geocoded_address": "430, Union Street, Haines Borough, Alaska, 99827, United States of America",
    "id": 66
  },
  {
    "url": "https://www.foodpantries.org/li/salvation_army_haines_corps_99827",
    "name": "Salvation Army - Haines Corps",
    "address": "430 Union Street",
    "city": "Haines",
    "state": "AK",
    "zip": "99827",
    "phone": "(907) 766-2470",
    "fax": null,
    "email": null,
    "website": "http://www.freefood.org/",
    "hours": "Last Wednesday of the MonthFor more information, please call. \nCounty or Counties Served: Haines",
    "description": null,
    "requirements": null,
    "scraped_at": "2025-10-27T16:17:58.319457",
    "latitude": 59.237599,
    "longitude": -135.4497722,
    "geocoded_address": "430, Union Street, Haines Borough, Alaska, 99827, United States of America",
    "id": 67
  },
  {
    "url": "https://www.foodpantries.org/li/Ak-salvation_army_homer_corps",
    "name": "Salvation Army - Homer Corps",
    "address": "1468 Sterling Hwy",
    "city": "Homer",
    "state": "AK",
    "zip": "99603",
    "phone": "(907) 235-2609",
    "fax": null,
    "email": null,
    "website": "http://www.freefood.org/",
    "hours": "Monday \r\n1:00m to 3:00pm \r\nDrop-offs by appointment \r\n \r\nDocuments to bring: Drivers License, Picture ID",
    "description": null,
    "requirements": null,
    "scraped_at": "2025-10-27T16:18:01.016650",
    "latitude": 59.6421034,
    "longitude": -151.5381269,
    "geocoded_address": "Homer Bypass Road, Homer, Kenai Peninsula Borough, Alaska, United States of America",
    "id": 68
  },
  {
    "url": "https://www.foodpantries.org/li/Ak-homer_community_food_pantry",
    "name": "Homer Community Food Pantry",
    "address": "770 East End Rd",
    "city": "Homer",
    "state": "AK",
    "zip": "99603",
    "phone": "(907) 235-1968",
    "fax": null,
    "email": null,
    "website": "http://www.freefood.org/",
    "hours": "Monday\r\n1:00m to 3:00pm\r\nDrop-offs by appointment\n\r\nDocuments to bring: Drivers License, Picture ID",
    "description": null,
    "requirements": null,
    "scraped_at": "2025-10-27T16:18:03.342376",
    "latitude": 59.6497253,
    "longitude": -151.5238337,
    "geocoded_address": "770, East End Road, Homer, Kenai Peninsula Borough, Alaska, 99603, United States of America",
    "id": 69
  },
  {
    "url": "https://www.foodpantries.org/li/Ak-hope_christian_church_",
    "name": "Hope Christian Church",
    "address": "Bear Creek #1 Street Mile 15 3/4 Hope Road",
    "city": "Hope",
    "state": "AK",
    "zip": "99605",
    "phone": null,
    "fax": null,
    "email": null,
    "website": "http://www.freefood.org/",
    "hours": "Call for more informationServices:Food PantriesSite hours:10:00am to 11:00am, Wednesday",
    "description": null,
    "requirements": null,
    "scraped_at": "2025-10-27T16:18:07.761690",
    "latitude": 60.9175015,
    "longitude": -149.639903,
    "geocoded_address": "Hope, Kenai Peninsula Borough, Alaska, 99605, United States of America",
    "note": "Geocoded to city center (exact address not found)",
    "id": 70
  },
  {
    "url": "https://www.foodpantries.org/li/Ak-big_lake_baptist_church",
    "name": "Big Lake Baptist Church",
    "address": "10864 W Parks Highway Mile 51.5 Parks Highway",
    "city": "Houston",
    "state": "AK",
    "zip": "99694",
    "phone": null,
    "fax": null,
    "email": null,
    "website": "http://www.freefood.org/",
    "hours": "Office Hours:  Tue-Fri 10am to 2pm.  Pick up Food Hours: Wed 6pm Sun 6pm.Area served:Big Lake.",
    "description": null,
    "requirements": null,
    "scraped_at": "2025-10-27T16:18:13.605441",
    "latitude": 61.6302778,
    "longitude": -149.818055,
    "geocoded_address": "Houston, Matanuska-Susitna Borough, Alaska, 99694, United States of America",
    "note": "Geocoded to city center (exact address not found)",
    "id": 71
  },
  {
    "url": "https://www.foodpantries.org/li/big_lake_baptist_church_99694",
    "name": "Big Lake Baptist Church",
    "address": "10864 W Parks Highway",
    "city": "Houston",
    "state": "AK",
    "zip": "99694",
    "phone": "(907) 892-6646",
    "fax": null,
    "email": null,
    "website": "http://www.freefood.org/",
    "hours": "Pick up Food  Wednesdays 6pm and Sunday: 6pm\r\n                                    \r\n                                                                        \n* Important: Please call the food pantries to confirm that the hours have not changed. We do our best to provide full information and details, but food pantries often change their hours without notifying us. We do not want you to waste your time visiting a pantry that is not open.",
    "description": null,
    "requirements": null,
    "scraped_at": "2025-10-27T16:18:17.048311",
    "latitude": 61.5786684,
    "longitude": -149.7299199,
    "geocoded_address": "West Parks Highway, Houston, Matanuska-Susitna Borough, Alaska, 99694, United States of America",
    "id": 72
  },
  {
    "url": "https://www.foodpantries.org/li/Ak-shepherd_of_the_valley_lutheran_church_juneau",
    "name": "Food Pantry at Shepherd of the Valley Lutheran Church",
    "address": "4212  Mendenhall Loop Rd",
    "city": "Juneau",
    "state": "AK",
    "zip": "99801",
    "phone": "(907) 500-3588",
    "fax": null,
    "email": null,
    "website": "http://www.freefood.org/",
    "hours": "Saturday 9:00am - 10:00amNotes:Walk in onlyNo restrictions.Serves the City of Juneau\nCounty or Counties Served: Juneau",
    "description": null,
    "requirements": null,
    "scraped_at": "2025-10-27T16:18:20.405726",
    "latitude": 58.3908336,
    "longitude": -134.6387484,
    "geocoded_address": "4212, Mendenhall Loop Road, Auke Bay, Juneau, Alaska, 99801, United States of America",
    "id": 73
  },
  {
    "url": "https://www.foodpantries.org/li/southeast_alaska_food_bank_99801",
    "name": "Southeast Alaska Food Bank",
    "address": "10020 Crazy Horse Drive",
    "city": "Juneau",
    "state": "AK",
    "zip": "99801",
    "phone": "(907) 789-6184",
    "fax": null,
    "email": null,
    "website": "http://www.freefood.org/",
    "hours": "Mondays through Friday: 8:30am - 12:30pm Saturday 8:30am - 9:30am\r\n                                    \r\n                                    County or Counties Served: Juneau",
    "description": null,
    "requirements": null,
    "scraped_at": "2025-10-27T16:18:23.674854",
    "latitude": 58.3661213,
    "longitude": -134.6060166,
    "geocoded_address": "10020, Crazy Horse Drive, Juneau, Alaska, 99801, United States of America",
    "id": 74
  },
  {
    "url": "https://www.foodpantries.org/li/salvation_army_juneau_corps_99801",
    "name": "Salvation Army - Juneau Corps",
    "address": "439 Willoughby Avenue",
    "city": "Juneau",
    "state": "AK",
    "zip": "99801",
    "phone": "(907) 586-2136",
    "fax": null,
    "email": null,
    "website": "http://www.freefood.org/",
    "hours": "Tuesday and Thursday\r\n 9:30am - 12:00pm\n\r\nFor more information, please call.",
    "description": null,
    "requirements": null,
    "scraped_at": "2025-10-27T16:18:26.354634",
    "latitude": 58.3014536,
    "longitude": -134.4133144,
    "geocoded_address": "439, Willoughby Avenue, Juneau, Alaska, 99801, United States of America",
    "id": 75
  },
  {
    "url": "https://www.foodpantries.org/li/saint_brendans_episcopal_church_99801",
    "name": "Saint Brendan\\'s Episcopal Church",
    "address": "4207 Mendenhall Loop Road",
    "city": "Juneau",
    "state": "AK",
    "zip": "99801",
    "phone": "(907) 789-5152",
    "fax": null,
    "email": null,
    "website": "http://www.freefood.org/",
    "hours": "Saturday 9:00am - 10:00am  Notes:  Walk in only No restrictions. Serves the City of Juneau \nGo To Details Page For More Information",
    "description": null,
    "requirements": null,
    "scraped_at": "2025-10-27T16:18:28.793659",
    "latitude": 58.3907915,
    "longitude": -134.6385848,
    "geocoded_address": "4207, Mendenhall Loop Road, Auke Bay, Juneau, Alaska, 99801, United States of America",
    "id": 76
  },
  {
    "url": "https://www.foodpantries.org/li/resurrection_lutheran_church_99801",
    "name": "Resurrection Lutheran Church",
    "address": "740 W 10th Street",
    "city": "Juneau",
    "state": "AK",
    "zip": "99801",
    "phone": "(907) 586-2380",
    "fax": null,
    "email": null,
    "website": "http://rlcjuneau.com",
    "hours": "Tuesday and Thursday \r\n 9:30am - 12:00pm \r\n \r\nFor more information, please call.",
    "description": null,
    "requirements": null,
    "scraped_at": "2025-10-27T16:18:30.770985",
    "latitude": 58.3022793,
    "longitude": -134.4215661,
    "geocoded_address": "740, West 10th Street, Downtown Flats, Juneau, Alaska, 99801, United States of America",
    "id": 77
  },
  {
    "url": "https://www.foodpantries.org/li/salvation_army_ketchikan_corps_99901",
    "name": "Salvation Army - Ketchikan Corps",
    "address": "342 Stedman Street",
    "city": "Ketchikan",
    "state": "AK",
    "zip": "99901",
    "phone": "(907) 225-5277",
    "fax": null,
    "email": null,
    "website": "http://www.freefood.org/",
    "hours": "Mondays through Fridays 8:30am - 5pm\r\n                                    \r\n                                    County or Counties Served: Ketchikan Gateway",
    "description": null,
    "requirements": null,
    "scraped_at": "2025-10-27T16:18:33.592285",
    "latitude": 55.3406364,
    "longitude": -131.6402629,
    "geocoded_address": "342, Stedman Street, Ketchikan, Ketchikan Gateway Borough, Alaska, 99901, United States of America",
    "id": 78
  },
  {
    "url": "https://www.foodpantries.org/li/Ak-salvation_army_klawock_corps",
    "name": "Salvation Army - Klawock Corps",
    "address": "585 Summit St",
    "city": "Klawock",
    "state": "AK",
    "zip": "99925",
    "phone": null,
    "fax": null,
    "email": null,
    "website": "http://www.freefood.org/",
    "hours": "Mon-Fri 9am-4pm.AREA SERVED:Klawock.",
    "description": null,
    "requirements": null,
    "scraped_at": "2025-10-27T16:18:35.628990",
    "latitude": 55.555449,
    "longitude": -133.0956617,
    "geocoded_address": "585, Summit Street, Klawock, Unorganized Borough, Alaska, 99925, United States of America",
    "id": 79
  },
  {
    "url": "https://www.foodpantries.org/li/salvation_army_klawock_corps_99925",
    "name": "Salvation Army - Klawock Corps",
    "address": "585 Summit Street",
    "city": "Klawock",
    "state": "AK",
    "zip": "99925",
    "phone": "(907) 755-2769",
    "fax": null,
    "email": null,
    "website": "http://www.freefood.org/",
    "hours": "Mondays through Fridays 9am - 4pm\r\n                                    \r\n                                                                        \n* Important: Please call the food pantries to confirm that the hours have not changed. We do our best to provide full information and details, but food pantries often change their hours without notifying us. We do not want you to waste your time visiting a pantry that is not open.",
    "description": null,
    "requirements": null,
    "scraped_at": "2025-10-27T16:18:37.949194",
    "latitude": 55.555449,
    "longitude": -133.0956617,
    "geocoded_address": "585, Summit Street, Klawock, Unorganized Borough, Alaska, 99925, United States of America",
    "id": 80
  },
  {
    "url": "https://www.foodpantries.org/li/Ak-kotzebue_church_of_god",
    "name": "Kotzebue Church Of God",
    "address": "612 Grayling St",
    "city": "Kotzebue",
    "state": "AK",
    "zip": "99752",
    "phone": null,
    "fax": null,
    "email": null,
    "website": "http://www.freefood.org/",
    "hours": null,
    "description": null,
    "requirements": null,
    "scraped_at": "2025-10-27T16:18:40.833994",
    "latitude": 66.9003632,
    "longitude": -162.5810771,
    "geocoded_address": "Grayling Street, Kotzebue, Northwest Arctic Borough, Alaska, United States of America",
    "id": 81
  },
  {
    "url": "https://www.foodpantries.org/li/kotzebue_church_of_god_99752",
    "name": "Kotzebue Church Of God",
    "address": "612 Grayling Street",
    "city": "Kotzebue",
    "state": "AK",
    "zip": "99752",
    "phone": "(907) 442-3761",
    "fax": null,
    "email": null,
    "website": "http://www.freefood.org/",
    "hours": null,
    "description": null,
    "requirements": null,
    "scraped_at": "2025-10-27T16:18:43.307104",
    "latitude": 66.9003632,
    "longitude": -162.5810771,
    "geocoded_address": "Grayling Street, Kotzebue, Northwest Arctic Borough, Alaska, United States of America",
    "id": 82
  },
  {
    "url": "https://www.foodpantries.org/li/blood_and_fire_church_of_alaska_99654",
    "name": "Blood And Fire Ministry Of Alaska",
    "address": "7362 W Parks Highway",
    "city": "Meadow Lakes",
    "state": "AK",
    "zip": "99654",
    "phone": "(907) 864-0463",
    "fax": null,
    "email": null,
    "website": "http://www.freefood.org/",
    "hours": "Fridays 1:00pm - 5:00pmFood 4 Kids hours:Fridays 1:00pm-5:00pmAdditional Services:Homeless PreventionClothing PantryHousing Programs\nCounty or Counties Served: Matanuska Susitna",
    "description": null,
    "requirements": null,
    "scraped_at": "2025-10-27T16:18:45.414637",
    "latitude": 61.6247222,
    "longitude": -149.6011111,
    "geocoded_address": "Meadow Lakes, Matanuska-Susitna Borough, Alaska, 79654, United States of America",
    "note": "Geocoded to city center (exact address not found)",
    "id": 83
  },
  {
    "url": "https://www.foodpantries.org/li/nome-community-center",
    "name": "Nome Community Center",
    "address": "505 West 3rd Avenue",
    "city": "Nome",
    "state": "AK",
    "zip": "99762",
    "phone": "(907) 443-5259",
    "fax": "(907) 443-2990",
    "email": null,
    "website": "http://www.nomecc.org",
    "hours": "The 1st and 3rd Saturday of the month \r\n12:00pm - 2:00pm \r\n \r\nJust as there are food pantries for families who need a hand up, there are food pantries for pets whose owners love them but need a little extra assistance with their food costs.Terrys P\nGo To Details Page For More Information",
    "description": null,
    "requirements": null,
    "scraped_at": "2025-10-27T16:18:50.222655",
    "latitude": 64.4975098,
    "longitude": -165.4061701,
    "geocoded_address": "Nome, Unorganized Borough, Alaska, United States of America",
    "note": "Geocoded to city center (exact address not found)",
    "id": 84
  },
  {
    "url": "https://www.foodpantries.org/li/ak_99762_terrys-pet-food-pantry",
    "name": "Terry's Pet Food Pantry",
    "address": "508 West Tobuk Alley",
    "city": "Nome",
    "state": "AK",
    "zip": "99762",
    "phone": "(907) 443-2633",
    "fax": null,
    "email": null,
    "website": "http://www.freefood.org/",
    "hours": null,
    "description": null,
    "requirements": null,
    "scraped_at": "2025-10-27T16:18:55.552709",
    "latitude": 64.5021455,
    "longitude": -165.4107879,
    "geocoded_address": "Tobuk Alley, Nome, Unorganized Borough, Alaska, United States of America",
    "id": 85
  },
  {
    "url": "https://www.foodpantries.org/li/Ak-freedom_in_christ_ministries_north_pole",
    "name": "Freedom In Christ Ministries North Pole",
    "address": "1362 Becky St",
    "city": "North Pole",
    "state": "AK",
    "zip": "99705",
    "phone": null,
    "fax": null,
    "email": null,
    "website": "http://www.freefood.org/",
    "hours": "Call in to register:  Mon Thurs 10am-12Noon. Pickup: Mon Thurs 2:00pm.Area served:Fairbanks Northstar Borough.",
    "description": null,
    "requirements": null,
    "scraped_at": "2025-10-27T16:18:58.243157",
    "latitude": 64.750997,
    "longitude": -147.349319,
    "geocoded_address": "North Pole, Fairbanks North Star Borough, Alaska, United States of America",
    "note": "Geocoded to city center (exact address not found)",
    "id": 86
  },
  {
    "url": "https://www.foodpantries.org/li/Ak-lord_of_life_lutheran_church_north_pole",
    "name": "Lord Of Life Lutheran Church North Pole",
    "address": "1005 Saint Nicholas Drive",
    "city": "North Pole",
    "state": "AK",
    "zip": "99705",
    "phone": null,
    "fax": null,
    "email": null,
    "website": "http://www.freefood.org/",
    "hours": "Call to register: Wed 10am-12pm.  Pickup: Wed 12:20pm.Area served:North Pole.",
    "description": null,
    "requirements": null,
    "scraped_at": "2025-10-27T16:19:02.194426",
    "latitude": 64.7457733,
    "longitude": -147.3181196,
    "geocoded_address": "1005, Saint Nicholas Drive, North Pole, Fairbanks North Star Borough, Alaska, 99705, United States of America",
    "id": 87
  },
  {
    "url": "https://www.foodpantries.org/li/Ak-north_pole_assembly_of_god",
    "name": "North Pole Assembly Of God",
    "address": "503 Kit Blvd",
    "city": "North Pole",
    "state": "AK",
    "zip": "99705",
    "phone": null,
    "fax": null,
    "email": null,
    "website": "http://www.freefood.org/",
    "hours": "Wednesdays 10am - 12pm. Pickup: Wednesdays 12:20pm",
    "description": null,
    "requirements": null,
    "scraped_at": "2025-10-27T16:19:04.317942",
    "latitude": 64.750496,
    "longitude": -147.3410258,
    "geocoded_address": "503, Kit Boulevard, North Pole, Fairbanks North Star Borough, Alaska, 99705, United States of America",
    "id": 88
  },
  {
    "url": "https://www.foodpantries.org/li/Ak-st_judes_episcopal_church_north_pole",
    "name": "St. Jude''s Episcopal Church North Pole",
    "address": "1/4 Mile Laurance Road",
    "city": "North Pole",
    "state": "AK",
    "zip": "99705",
    "phone": null,
    "fax": null,
    "email": null,
    "website": "http://www.freefood.org/",
    "hours": "Call to register from 10:00am - 11:45am, Tuesdays Pickup from 12:15pm - 1:00pm, TuesdaysServices:Food PantriesSite hours:Call to register: Tues 10am-11:30am. Pickup: Tue 12:15pm-1pm.Area served:North Pole.",
    "description": null,
    "requirements": null,
    "scraped_at": "2025-10-27T16:19:07.246069",
    "latitude": 64.750997,
    "longitude": -147.349319,
    "geocoded_address": "North Pole, Fairbanks North Star Borough, Alaska, United States of America",
    "note": "Geocoded to city center (exact address not found)",
    "id": 89
  },
  {
    "url": "https://www.foodpantries.org/li/st_judes_episcopal_church_99705",
    "name": "St Jude's Episcopal Church",
    "address": "1/4 Mile Laurance Road",
    "city": "North Pole",
    "state": "AK",
    "zip": "99705",
    "phone": "(907) 488-9329",
    "fax": null,
    "email": null,
    "website": "http://www.freefood.org/",
    "hours": "Call to register Tuesdays 10am - 11:45am and Pickup Tuesdays 12:15pm - 1pm\r\n                                    \r\n                                                                        \n* Important: Please call the food pantries to confirm that the hours have not changed. We do our best to provide full information and details, but food pantries often change their hours without notifying us. We do not want you to waste your time visiting a pantry that is not open.",
    "description": null,
    "requirements": null,
    "scraped_at": "2025-10-27T16:19:12.287452",
    "latitude": 64.750997,
    "longitude": -147.349319,
    "geocoded_address": "North Pole, Fairbanks North Star Borough, Alaska, United States of America",
    "note": "Geocoded to city center (exact address not found)",
    "id": 90
  },
  {
    "url": "https://www.foodpantries.org/li/north_pole_assembly_of_god_99705",
    "name": "North Pole Assembly of God Food Pantry",
    "address": "503 Kit Boulevard",
    "city": "North Pole",
    "state": "AK",
    "zip": "99705",
    "phone": "(907) 488-6431",
    "fax": null,
    "email": null,
    "website": "http://www.freefood.org/",
    "hours": "Call to register: Wed 10am-12pm. Pickup: Wed 12:20pm.  Area served: North Pole. \nGo To Details Page For More Information",
    "description": null,
    "requirements": null,
    "scraped_at": "2025-10-27T16:19:15.898842",
    "latitude": 64.750496,
    "longitude": -147.3410258,
    "geocoded_address": "503, Kit Boulevard, North Pole, Fairbanks North Star Borough, Alaska, 99705, United States of America",
    "id": 91
  },
  {
    "url": "https://www.foodpantries.org/li/lord_of_life_lutheran_church_99705",
    "name": "Lord Of Life Lutheran Church",
    "address": "1005 Saint Nicholas Drive",
    "city": "North Pole",
    "state": "AK",
    "zip": "99705",
    "phone": "(907) 488-6720",
    "fax": null,
    "email": null,
    "website": "http://www.freefood.org/",
    "hours": "Call to register: Wednesdays 10am - 12pm. Pickup: Wednesdays 12:20pm\r\n                                    \r\n                                                                        \n* Important: Please call the food pantries to confirm that the hours have not changed. We do our best to provide full information and details, but food pantries often change their hours without notifying us. We do not want you to waste your time visiting a pantry that is not open.",
    "description": null,
    "requirements": null,
    "scraped_at": "2025-10-27T16:19:19.218462",
    "latitude": 64.7457733,
    "longitude": -147.3181196,
    "geocoded_address": "1005, Saint Nicholas Drive, North Pole, Fairbanks North Star Borough, Alaska, 99705, United States of America",
    "id": 92
  },
  {
    "url": "https://www.foodpantries.org/li/freedom_in_christ_ministries_99705",
    "name": "Freedom In Christ Ministries",
    "address": "1362 Becky Street",
    "city": "North Pole",
    "state": "AK",
    "zip": "99705",
    "phone": "(907) 488-0202",
    "fax": null,
    "email": null,
    "website": "http://www.freefood.org/",
    "hours": "Call in to register: Monday and Thursday: 10am - 12pm and Pickup: Monday and Thursday: 2pm\r\n                                    \r\n                                                                        \n* Important: Please call the food pantries to confirm that the hours have not changed. We do our best to provide full information and details, but food pantries often change their hours without notifying us. We do not want you to waste your time visiting a pantry that is not open.",
    "description": null,
    "requirements": null,
    "scraped_at": "2025-10-27T16:19:23.522020",
    "latitude": 64.750997,
    "longitude": -147.349319,
    "geocoded_address": "North Pole, Fairbanks North Star Borough, Alaska, United States of America",
    "note": "Geocoded to city center (exact address not found)",
    "id": 93
  },
  {
    "url": "https://www.foodpantries.org/li/Ak-salvation_army_matanuska_susitna_valley_corps",
    "name": "Salvation Army - Matanuska Susitna Valley Corps",
    "address": "12271 E Palmer-Wasilla Hwy",
    "city": "Palmer",
    "state": "AK",
    "zip": "99645",
    "phone": "(907) 745-7079",
    "fax": null,
    "email": null,
    "website": "http://www.freefood.org/",
    "hours": "Monday and Tuesday 12:00pm - 4:00pm Wednesday 9:00am - 12:00pm all other social service is done by appointmentArea Served: Mat-Su Borough.\nCounty or Counties Served: Matanuska Susitna",
    "description": null,
    "requirements": "Call for more information.Fees: None.Intake: Call for appointment.Eligibility: Must meet income guidelines.Hours:Monday and Tuesday 12:00pm - 4:00pm Wednesday 9:00am - 12:00pm all other social service is done by appointmentArea Served: Mat-Su Borough.\nCounty or Counties Served: Matanuska Susitna",
    "scraped_at": "2025-10-27T16:19:28.254130",
    "latitude": 61.5998926,
    "longitude": -149.1413233,
    "geocoded_address": "The Salvation Army, 12271, East Palmer-Wasilla Highway, Palmer, Matanuska-Susitna Borough, Alaska, 99645, United States of America",
    "id": 94
  },
  {
    "url": "https://www.foodpantries.org/li/Ak-palmer_family_christian_center",
    "name": "Palmer Family Christian Center",
    "address": "203 W Dogwood Ave",
    "city": "Palmer",
    "state": "AK",
    "zip": "99645",
    "phone": "(907) 745-6033",
    "fax": null,
    "email": null,
    "website": "http://www.freefood.org/",
    "hours": "Call in advance for service.Area served:Mat-Su Valley.\nCounty or Counties Served: Matanuska Susitna",
    "description": null,
    "requirements": "Call for more information. Fees: None. Intake: Call for appointment. Eligibility: Must meet income guidelines. Hours: Monday and Tuesday 12:00pm - 4:00pm Wednesday 9:00am - 12:00pm all other social service is don\nGo To Details Page For More Information",
    "scraped_at": "2025-10-27T16:19:30.674424",
    "latitude": 61.6016012,
    "longitude": -149.1170452,
    "geocoded_address": "Family Christian Center, 203, West Dogwood Avenue, City of Palmer Central Business District, Palmer, Matanuska-Susitna Borough, Alaska, United States of America",
    "id": 95
  },
  {
    "url": "https://www.foodpantries.org/li/Ak-palmer_food_bank",
    "name": "Palmer Food Bank",
    "address": "221 S Valley Way",
    "city": "Palmer",
    "state": "AK",
    "zip": "99645",
    "phone": "(907) 746-3565",
    "fax": null,
    "email": null,
    "website": "http://www.freefood.org/",
    "hours": "Monday - Friday\r\n 1:00pm - 5:00pm \r\n Closed most major holidays.Area served: Mat-Su Valley Borough.\n\r\nFor more information, please call. \nCounty or Counties Served: Matanuska Susitna",
    "description": null,
    "requirements": "Proof of Income, Social Security Numbers off Public Records for All Recipients, Proof of Local Residency.Fees: None.Intake: Call or walk in.Eligibility: Must be low-income individuals and families in need, as well as older adults age 60 or older.Services: Food Pantries, Government Surplus Food Distribution Sites",
    "scraped_at": "2025-10-27T16:19:33.972116",
    "latitude": 61.6048768,
    "longitude": -149.1107536,
    "geocoded_address": "221, South Valley Way, City of Palmer Central Business District, Palmer, Matanuska-Susitna Borough, Alaska, United States of America",
    "id": 96
  },
  {
    "url": "https://www.foodpantries.org/li/salvation_army_matanuska_susitna_valley_corps_99645",
    "name": "Salvation Army - Matanuska Susitna Valley Corps",
    "address": "209 W Evergreen",
    "city": "Palmer",
    "state": "AK",
    "zip": "99645",
    "phone": "(907) 745-7079",
    "fax": null,
    "email": null,
    "website": "http://www.freefood.org/",
    "hours": "Mondays through Fridays 9am - 5pm. (Closed for lunch 12pm - 1pm)\r\n                                    \r\n                                                                        \n* Important: Please call the food pantries to confirm that the hours have not changed. We do our best to provide full information and details, but food pantries often change their hours without notifying us. We do not want you to waste your time visiting a pantry that is not open.",
    "description": null,
    "requirements": "Proof of Income, Social Security Numbers off Public Records for All Recipients, Proof of Local Residency.Fees: None.Intake: Call or walk in.Eligibility: Must be low-income individuals and\nGo To Details Page For More Information",
    "scraped_at": "2025-10-27T16:19:36.597174",
    "latitude": 61.6001514,
    "longitude": -149.117002,
    "geocoded_address": "Mat Su Urgent Care, 209, West Evergreen Avenue, City of Palmer Central Business District, Palmer, Matanuska-Susitna Borough, Alaska, 99645, United States of America",
    "id": 97
  },
  {
    "url": "https://www.foodpantries.org/li/family_christian_center_99645",
    "name": "Family Christian Center",
    "address": "203 W Dogwood Avenue",
    "city": "Palmer",
    "state": "AK",
    "zip": "99645",
    "phone": "(907) 373-2617",
    "fax": null,
    "email": null,
    "website": "http://www.freefood.org/",
    "hours": "Monday and Tuesday 12:00pm - 4:00pm Wednesday 9:00am - 12:00pm all other social service is don\nGo To Details Page For More Information",
    "description": null,
    "requirements": "Call for more information. Fees: None. Intake: Call for appointment. Eligibility: Must meet income guidelines. Hours: Monday and Tuesday 12:00pm - 4:00pm Wednesday 9:00am - 12:00pm all other social service is don\nGo To Details Page For More Information",
    "scraped_at": "2025-10-27T16:19:40.375452",
    "latitude": 61.6016012,
    "longitude": -149.1170452,
    "geocoded_address": "Family Christian Center, 203, West Dogwood Avenue, City of Palmer Central Business District, Palmer, Matanuska-Susitna Borough, Alaska, United States of America",
    "id": 98
  },
  {
    "url": "https://www.foodpantries.org/li/wasilla_lake_church_of_the_nazarene_99654",
    "name": "Frontline Mission Food Pantry",
    "address": "2001 E. Palmer-Wasilla Highway",
    "city": "Wasilla",
    "state": "AK",
    "zip": "99654",
    "phone": "(907) 357-8600",
    "fax": null,
    "email": null,
    "website": "http://www.freefood.org/",
    "hours": null,
    "description": null,
    "requirements": "Call for more information. Fees: None. Intake: Call for appointment. Eligibility: Must meet income guidelines. Hours: Monday and Tuesday 12:00pm - 4:00pm Wednesday 9:00am - 12:00pm all other social service is don\nGo To Details Page For More Information",
    "scraped_at": "2025-10-27T16:19:43.844257",
    "latitude": 61.5705628,
    "longitude": -149.4404686,
    "geocoded_address": "East Palmer-Wasilla Highway, Wasilla, Matanuska-Susitna Borough, Alaska, 99654, United States of America",
    "id": 99
  },
  {
    "url": "https://www.foodpantries.org/li/food_pantry_of_wasilla_99654",
    "name": "Food Pantry Of Wasilla at The MatSu Food Bank",
    "address": "5099 East Blue Lupine Drive",
    "city": "Wasilla",
    "state": "AK",
    "zip": "99654",
    "phone": "(907) 357-3769",
    "fax": null,
    "email": null,
    "website": "http://www.freefood.org/",
    "hours": "Monday through Friday 10:00am - 1:00pmDocumentation Required:Proof of Identification, Proof of Local Residency\nCounty or Counties Served: Matanuska Susitna",
    "description": null,
    "requirements": "Call for more information. Fees: None. Intake: Call for appointment. Eligibility: Must meet income guidelines. Hours: Monday and Tuesday 12:00pm - 4:00pm Wednesday 9:00am - 12:00pm all other social service is don\nGo To Details Page For More Information",
    "scraped_at": "2025-10-27T16:19:46.751095",
    "latitude": 61.5731971,
    "longitude": -149.3598366,
    "geocoded_address": "East Blue Lupine Drive, Wasilla, Matanuska-Susitna Borough, Alaska, United States of America",
    "id": 100
  },
  {
    "url": "https://www.foodpantries.org/li/he_will_provide_99664",
    "name": "He Will Provide",
    "address": "2101 Seward Highway",
    "city": "Seward",
    "state": "AK",
    "zip": "99664",
    "phone": "(907) 362-3033",
    "fax": null,
    "email": null,
    "website": "http://www.freefood.org/",
    "hours": "Thursday3:00pm - 6:00 pm Summer Hours:  Thursday3:00 pm - 7:00 pmFor more information, please call. \nVolunteering Information:http://hewillprovidecommunityfoodpantry.yolasite.com/volunteers.php \nCounty or Counties Served: Kenai Peninsula",
    "description": null,
    "requirements": null,
    "scraped_at": "2025-10-27T16:19:48.838695",
    "latitude": 60.129215,
    "longitude": -149.432239,
    "geocoded_address": "2101, Seward Highway, Seward, Kenai Peninsula Borough, Alaska, 99664, United States of America",
    "id": 101
  },
  {
    "url": "https://www.foodpantries.org/li/kenai-peninsula-food-bank",
    "name": "Kenai Peninsula Food Bank",
    "address": "33955 Community College Drive",
    "city": "Soldotna",
    "state": "AK",
    "zip": "99669",
    "phone": "(907) 262-3111",
    "fax": "(907) 262-6428",
    "email": null,
    "website": "http://www.freefood.org/",
    "hours": "Monday - Friday12:00pm - 4:00pmFor more information, please call.",
    "description": null,
    "requirements": null,
    "scraped_at": "2025-10-27T16:19:51.098773",
    "latitude": 60.4796293,
    "longitude": -151.1427432,
    "geocoded_address": "Community College Drive, Soldotna, Kenai Peninsula Borough, Alaska, 99669, United States of America",
    "id": 102
  },
  {
    "url": "https://www.foodpantries.org/li/Trapper_creek_food_bank_talkeetna",
    "name": "Trapper Creek Food Bank Talkeetna",
    "address": "Mile 4 Talkeetna Spur",
    "city": "Talkeetna",
    "state": "AK",
    "zip": "99676",
    "phone": null,
    "fax": null,
    "email": null,
    "website": "http://www.freefood.org/",
    "hours": "Tue 10am-4pm.Area served:Talkeetna.",
    "description": null,
    "requirements": null,
    "scraped_at": "2025-10-27T16:19:53.925479",
    "latitude": 62.3206385,
    "longitude": -150.1063642,
    "geocoded_address": "Talkeetna Spur Road, Talkeetna, Matanuska-Susitna Borough, Alaska, 99676, United States of America",
    "id": 103
  },
  {
    "url": "https://www.foodpantries.org/li/trapper_creek_food_bank_talkeetna_99676",
    "name": "Trapper Creek Food Bank - Talkeetna",
    "address": "Mile 4 Talkeetna Spur",
    "city": "Talkeetna",
    "state": "AK",
    "zip": "99676",
    "phone": "(907) 733-3358",
    "fax": null,
    "email": null,
    "website": "http://www.freefood.org/",
    "hours": "Tuesdays 10am - 4pm\r\n                                    \r\n                                                                        \n* Important: Please call the food pantries to confirm that the hours have not changed. We do our best to provide full information and details, but food pantries often change their hours without notifying us. We do not want you to waste your time visiting a pantry that is not open.",
    "description": null,
    "requirements": null,
    "scraped_at": "2025-10-27T16:19:56.473023",
    "latitude": 62.3206385,
    "longitude": -150.1063642,
    "geocoded_address": "Talkeetna Spur Road, Talkeetna, Matanuska-Susitna Borough, Alaska, 99676, United States of America",
    "id": 104
  },
  {
    "url": "https://www.foodpantries.org/li/trapper_creek_food_bank_99683",
    "name": "Trapper Creek Food Bank",
    "address": "Mile 1.8 Susitna River Road",
    "city": "Trapper Creek",
    "state": "AK",
    "zip": "99683",
    "phone": "(907) 733-3358",
    "fax": null,
    "email": null,
    "website": "http://www.freefood.org/",
    "hours": "Tuesdays 10am - 4pm\r\n                                    \r\n                                                                        \n* Important: Please call the food pantries to confirm that the hours have not changed. We do our best to provide full information and details, but food pantries often change their hours without notifying us. We do not want you to waste your time visiting a pantry that is not open.",
    "description": null,
    "requirements": null,
    "scraped_at": "2025-10-27T16:19:58.630290",
    "latitude": 62.3166078,
    "longitude": -150.2325979,
    "geocoded_address": "Trapper Creek, Matanuska-Susitna Borough, Alaska, 99683, United States of America",
    "note": "Geocoded to city center (exact address not found)",
    "id": 105
  },
  {
    "url": "https://www.foodpantries.org/li/valdez_food_bank_99686",
    "name": "Valdez Food Bank",
    "address": "278 Richardson Highway",
    "city": "Valdez",
    "state": "AK",
    "zip": "99686",
    "phone": "(907) 835-3663",
    "fax": null,
    "email": null,
    "website": "http://www.freefood.org/",
    "hours": null,
    "description": null,
    "requirements": null,
    "scraped_at": "2025-10-27T16:20:01.924495",
    "latitude": 61.1307768,
    "longitude": -146.3441878,
    "geocoded_address": "278, Richardson Highway, Valdez, Unorganized Borough, Alaska, 99686, United States of America",
    "id": 106
  },
  {
    "url": "https://www.foodpantries.org/li/Ak-blood_and_fire_church_of_alaska",
    "name": "Blood And Fire Church Of Alaska",
    "address": "7362 W. Parks Hwy",
    "city": "Wasilla",
    "state": "AK",
    "zip": "99623",
    "phone": "(907) 864-0463",
    "fax": "(907) 864-0462",
    "email": null,
    "website": "http://bloodnfireak.org",
    "hours": "Wednesday and Friday\r\n2:00am - 5:00pm  \n\r\nFood 4 Kids Hours:\r\nMonday, Wednesday and Friday\r\n2:00pm - 5:00pm\n\r\nFor more information, please call.",
    "description": null,
    "requirements": null,
    "scraped_at": "2025-10-27T16:20:04.254025",
    "latitude": 61.5826217,
    "longitude": -149.5353001,
    "geocoded_address": "West Parks Highway, Wasilla, Matanuska-Susitna Borough, Alaska, United States of America",
    "id": 107
  },
  {
    "url": "https://www.foodpantries.org/li/hilltop_assembly_of_god_99654",
    "name": "Hilltop Assembly Of God",
    "address": "19777 W Parks Highway",
    "city": "Wasilla",
    "state": "AK",
    "zip": "99654",
    "phone": "(907) 892-6225",
    "fax": null,
    "email": null,
    "website": "http://www.freefood.org/",
    "hours": "Pick up Food Wednesdays 6pm and Sunday: 6pm\nGo To Details Page For More Information",
    "description": null,
    "requirements": null,
    "scraped_at": "2025-10-27T16:20:06.692286",
    "latitude": 61.5820935,
    "longitude": -149.4589303,
    "geocoded_address": "West Parks Highway, Wasilla, Matanuska-Susitna Borough, Alaska, 99654, United States of America",
    "id": 108
  },
  {
    "url": "https://www.foodpantries.org/li/Ak-willow_united_methodist_church",
    "name": "Willow United Methodist Church",
    "address": "Mile 67.8 Parks Hwy",
    "city": "Willow",
    "state": "AK",
    "zip": "99688",
    "phone": null,
    "fax": null,
    "email": null,
    "website": "http://www.freefood.org/",
    "hours": "Wed 10am-2pm.Area served:Willow.",
    "description": null,
    "requirements": null,
    "scraped_at": "2025-10-27T16:20:09.351299",
    "latitude": 61.7472222,
    "longitude": -150.0375,
    "geocoded_address": "Willow, Matanuska-Susitna Borough, Alaska, United States of America",
    "note": "Geocoded to city center (exact address not found)",
    "id": 109
  },
  {
    "url": "https://www.foodpantries.org/li/Ak-salvation_army_wrangell_corps",
    "name": "Salvation Army - Wrangell Corps",
    "address": "611 Zimovia Hwy",
    "city": "Wrangell",
    "state": "AK",
    "zip": "99929",
    "phone": null,
    "fax": null,
    "email": null,
    "website": "http://www.freefood.org/",
    "hours": "Wed, Fri 10am-2pm.AREA SERVED:Wrangell.",
    "description": null,
    "requirements": null,
    "scraped_at": "2025-10-27T16:20:15.201795",
    "latitude": 56.4673337,
    "longitude": -132.3753244,
    "geocoded_address": "611, Zimovia Highway, Wrangell, Alaska, 99929, United States of America",
    "id": 110
  },
  {
    "url": "https://www.foodpantries.org/li/salvation_army_wrangell_corps_99929",
    "name": "Salvation Army - Wrangell Corps",
    "address": "611 Zimovia Highway",
    "city": "Wrangell",
    "state": "AK",
    "zip": "99929",
    "phone": "(907) 874-3753",
    "fax": null,
    "email": null,
    "website": "http://www.freefood.org/",
    "hours": "Wednesdays and Fridays 10am - 2pm\r\n                                    \r\n                                                                        \n* Important: Please call the food pantries to confirm that the hours have not changed. We do our best to provide full information and details, but food pantries often change their hours without notifying us. We do not want you to waste your time visiting a pantry that is not open.",
    "description": null,
    "requirements": null,
    "scraped_at": "2025-10-27T16:20:17.218932",
    "latitude": 56.4673337,
    "longitude": -132.3753244,
    "geocoded_address": "611, Zimovia Highway, Wrangell, Alaska, 99929, United States of America",
    "id": 111
  }
]