[
  {
    "url": "https://www.foodpantries.org/li/from-the-ground-up",
    "name": "Capital Area Foodbank",
    "address": "4900 Puerto Rico Ave",
    "city": "Washington",
    "state": "DC",
    "zip": "20017",
    "phone": "(202) 644-9800",
    "fax": "(202) 529-1767",
    "email": null,
    "website": "http://www.freefood.org/",
    "hours": "The 4th Wednesday \r\n 10:00am - 2:00pm \r\nFor mor\nGo To Details Page For More Information",
    "description": null,
    "requirements": "Social Security Card Photo ID Proof of residency (lea\nGo To Details Page For More Information",
    "scraped_at": "2025-10-29T16:40:23.009507",
    "latitude": 38.9473003,
    "longitude": -76.9994569,
    "geocoded_address": "4900, Puerto Rico Avenue Northeast, Michigan Park, Ward 5, Washington, District of Columbia, 20017, United States of America",
    "id": 1
  },
  {
    "url": "https://www.foodpantries.org/li/capital-area-food-bank-washington",
    "name": "Capital Area Food Bank - Washington",
    "address": "4900 Puerto Rico Ave. NE",
    "city": "Washington",
    "state": "DC",
    "zip": "20017",
    "phone": "(202) 644-9800",
    "fax": "(202) 529-1767",
    "email": null,
    "website": "http://www.freefood.org/",
    "hours": "3rd and 4th Saturday of the Month\nGo To Details Page For More Information",
    "description": null,
    "requirements": null,
    "scraped_at": "2025-10-29T16:40:25.697594",
    "latitude": 38.9473003,
    "longitude": -76.9994569,
    "geocoded_address": "4900, Puerto Rico Avenue Northeast, Michigan Park, Ward 5, Washington, District of Columbia, 20017, United States of America",
    "id": 2
  },
  {
    "url": "https://www.foodpantries.org/li/some-so-others-might-eat",
    "name": "SOME (So Others Might Eat)",
    "address": "710 Street NW",
    "city": "Washington",
    "state": "DC",
    "zip": "20001",
    "phone": "(202) 797-8806",
    "fax": null,
    "email": null,
    "website": "http://www.some.org",
    "hours": "Every day of the yearBreakfast Hours: 7:00-8:30amLunch Hours:11:00am-1:00pmFor more information, please call.\nMission Statement\r\n               SOME (So Others Might Eat) helps our vulnerable neighbors in Washington, DC, break the cycle of homelessness through our comprehensive and transformative services.\r\n            \nVolunteering Information:https://www.some.org/volunteer \nCounty or Counties Served: District of Columbia",
    "description": null,
    "requirements": "Photo ID, Birth Certificate, Mail postmarked within 2 month For more information, please call. \nGo To Details Page For More Information",
    "scraped_at": "2025-10-29T16:40:27.972383",
    "latitude": 38.8950368,
    "longitude": -77.0365427,
    "geocoded_address": "Washington, District of Columbia, United States of America",
    "note": "Geocoded to city center (exact address not found)",
    "id": 3
  },
  {
    "url": "https://www.foodpantries.org/li/dphw-dinner-program-for-homeless-women",
    "name": "Thrive DC",
    "address": "1525 Newton Street NW",
    "city": "Washington",
    "state": "DC",
    "zip": "20010",
    "phone": null,
    "fax": null,
    "email": null,
    "website": "http://www.freefood.org/",
    "hours": "Wednesday 1;00pm - 3:00pm  Bags usually contain vegetables, fruits, and bread. Register by coming into our office and heading to the 2nd floor.  Requirements: Bring your ID. For more information, please call.   \nGo To Details Page For More Information",
    "description": null,
    "requirements": "Bring your ID. For more information, please call.   \nGo To Details Page For More Information",
    "scraped_at": "2025-10-29T16:40:31.377828",
    "latitude": 38.933592,
    "longitude": -77.0355665,
    "geocoded_address": "Thrive DC, 1525, Newton Street Northwest, Mount Pleasant, Columbia Heights, Ward 1, Washington, District of Columbia, 20010, United States of America",
    "id": 4
  },
  {
    "url": "https://www.foodpantries.org/li/washington-city-church-of-the-brethren-nutrition-program",
    "name": "Washington City Church of the Brethren Nutrition Program",
    "address": "337 North Carolina Avenue SE",
    "city": "Washington",
    "state": "DC",
    "zip": "20003",
    "phone": "(202) 547-5924",
    "fax": null,
    "email": null,
    "website": "http://www.freefood.org/",
    "hours": "Monday through Friday \r\n12:00pm - 1:30pm\n\r\n They provide a hot meal to anyone in need. Please contact them directly for more detailed program information.",
    "description": null,
    "requirements": "Photo ID, Birth Certificate, Mail postmarked within 2 month For more information, please call.   \nGo To Details Page For More Information",
    "scraped_at": "2025-10-29T16:40:34.047204",
    "latitude": 38.8851503,
    "longitude": -77.0009452,
    "geocoded_address": "337, North Carolina Avenue Southeast, Capitol Hill, Ward 6, Washington, District of Columbia, 20003, United States of America",
    "id": 5
  },
  {
    "url": "https://www.foodpantries.org/li/garden-resources-of-washington",
    "name": "Garden Resources of Washington",
    "address": "1419 V Street NW",
    "city": "Washington",
    "state": "DC",
    "zip": "20009",
    "phone": "(202) 265-1470",
    "fax": "(202) 234-1787",
    "email": null,
    "website": "http://www.freefood.org/",
    "hours": "Monday through Friday 8:30 am - 4:30 pm  For more information, please call.\nGo To Details Page For More Information",
    "description": null,
    "requirements": "Picture ID, Proof of Income, Proof of Residence, Eviction/Court Notice, Utility Cut-Off Notice  Pantry Hours:  Monday through Friday 8:30 am - 4:30 pm  For more information, please call.\nGo To Details Page For More Information",
    "scraped_at": "2025-10-29T16:40:36.458920",
    "latitude": 38.9183795,
    "longitude": -77.0329323,
    "geocoded_address": "1419, V Street Northwest, Cardozo/Shaw, Ward 1, Washington, District of Columbia, 20009, United States of America",
    "id": 6
  },
  {
    "url": "https://www.foodpantries.org/li/cooperating-for-food-safety",
    "name": "Cooperating for Food Safety",
    "address": "P.O. Box 18236",
    "city": "Washington",
    "state": "DC",
    "zip": "20036",
    "phone": null,
    "fax": null,
    "email": null,
    "website": "http://www.freefood.org/",
    "hours": "Monday - Thursday 8:30 am - 5:00 pm Friday 8:30 am - 1:00 pm Requirements: Photo ID, Birth Certificate, Mail postmarked within 2 month For more information, please call. \nGo To Details Page For More Information",
    "description": null,
    "requirements": "Photo ID, Birth Certificate, Mail postmarked within 2 month For more information, please call. \nGo To Details Page For More Information",
    "scraped_at": "2025-10-29T16:40:39.373801",
    "latitude": 38.8950368,
    "longitude": -77.0365427,
    "geocoded_address": "Washington, District of Columbia, United States of America",
    "note": "Geocoded to city center (exact address not found)",
    "id": 7
  },
  {
    "url": "https://www.foodpantries.org/li/st-stephen-the-incarnation-episcopal-church",
    "name": "St. Stephen & the Incarnation Episcopal Church",
    "address": "1525 Newton Street NW",
    "city": "Washington",
    "state": "DC",
    "zip": "20010",
    "phone": null,
    "fax": null,
    "email": null,
    "website": "http://www.freefood.org/",
    "hours": "Wednesday 1;00pm - 3:00pm  Bags usually contain vegetables, fruits, and bread. Register by coming into our office and heading to the 2nd floor.  Requirements: Bring your ID. For more information, please call.   \nGo To Details Page For More Information",
    "description": null,
    "requirements": "Bring your ID. For more information, please call.   \nGo To Details Page For More Information",
    "scraped_at": "2025-10-29T16:40:42.753281",
    "latitude": 38.933592,
    "longitude": -77.0355665,
    "geocoded_address": "Thrive DC, 1525, Newton Street Northwest, Mount Pleasant, Columbia Heights, Ward 1, Washington, District of Columbia, 20010, United States of America",
    "id": 8
  },
  {
    "url": "https://www.foodpantries.org/li/freshfarm-markets-of-washington-dc",
    "name": "FRESHFARM Markets of Washington DC",
    "address": "945 G Street NW",
    "city": "Washington",
    "state": "DC",
    "zip": "20001",
    "phone": "(202) 362-8889",
    "fax": null,
    "email": null,
    "website": "http://www.freefood.org/",
    "hours": "Monday through Friday \r\n12:00pm - 1:30pm \r\n \r\n They provide a hot meal to anyone in need. Please contact them directly for more detailed program information.",
    "description": null,
    "requirements": "Photo ID, Birth Certificate, Mail postmarked within 2 month For more information, please call.   \nGo To Details Page For More Information",
    "scraped_at": "2025-10-29T16:40:46.744478",
    "latitude": 38.898722,
    "longitude": -77.0256605,
    "geocoded_address": "First Congregational Church, 945, G Street Northwest, Downtown, Ward 2, Washington, District of Columbia, 20001, United States of America",
    "id": 9
  },
  {
    "url": "https://www.foodpantries.org/li/the-united-church",
    "name": "The United Church",
    "address": "1920 G Street",
    "city": "Washington",
    "state": "DC",
    "zip": "20006",
    "phone": null,
    "fax": null,
    "email": null,
    "website": "http://www.freefood.org/",
    "hours": "Monday - Thursday 8:30 am - 5:00 pm Friday 8:30 am - 1:00 pm Requirements: Photo ID, Birth Certificate, Mail postmarked within 2 month For more information, please call. \nGo To Details Page For More Information",
    "description": null,
    "requirements": "Photo ID, Birth Certificate, Mail postmarked within 2 month For more information, please call. \nGo To Details Page For More Information",
    "scraped_at": "2025-10-29T16:40:50.867726",
    "latitude": 38.8950368,
    "longitude": -77.0365427,
    "geocoded_address": "Washington, District of Columbia, United States of America",
    "note": "Geocoded to city center (exact address not found)",
    "id": 10
  },
  {
    "url": "https://www.foodpantries.org/li/share-our-strength",
    "name": "Share Our Strength",
    "address": "1730 M Street NW Suite 700",
    "city": "Washington",
    "state": "DC",
    "zip": "20036",
    "phone": null,
    "fax": null,
    "email": null,
    "website": "http://www.strength.org",
    "hours": "Monday - Thursday 8:30 am - 5:00 pm Friday 8:30 am - 1:00 pm Requirements: Photo ID, Birth Certificate, Mail postmarked within 2 month For more information, please call. \nGo To Details Page For More Information",
    "description": null,
    "requirements": "Photo ID, Birth Certificate, Mail postmarked within 2 month For more information, please call. \nGo To Details Page For More Information",
    "scraped_at": "2025-10-29T16:40:53.994729",
    "latitude": 38.8950368,
    "longitude": -77.0365427,
    "geocoded_address": "Washington, District of Columbia, United States of America",
    "note": "Geocoded to city center (exact address not found)",
    "id": 11
  },
  {
    "url": "https://www.foodpantries.org/li/dc-central-kitchen-inc",
    "name": "DC Central Kitchen Inc.",
    "address": "425 2nd Street NW",
    "city": "Washington",
    "state": "DC",
    "zip": "20001",
    "phone": "(202) 234-0707",
    "fax": null,
    "email": null,
    "website": "http://www.freefood.org/",
    "hours": "7:00-8:30am Lunch Hours: 11:00am-1:00pm  For more information, please call.   \nGo To Details Page For More Information",
    "description": null,
    "requirements": "Photo ID, Birth Certificate, Mail postmarked within 2 month For more information, please call. \nGo To Details Page For More Information",
    "scraped_at": "2025-10-29T16:40:58.965670",
    "latitude": 38.8953954,
    "longitude": -77.0132898,
    "geocoded_address": "425, 2nd Street Northwest, Downtown East, Ward 6, Washington, District of Columbia, 20001, United States of America",
    "id": 12
  },
  {
    "url": "https://www.foodpantries.org/li/international-food-policy-research-institute",
    "name": "International Food Policy Research Institute",
    "address": "2033 K Street NW",
    "city": "Washington",
    "state": "DC",
    "zip": "20006",
    "phone": "(256) 177-1780",
    "fax": null,
    "email": null,
    "website": "http://www.ifpri.org/",
    "hours": "Monday - Thursday 8:30 am - 5:00 pm Friday 8:30 am - 1:00 pm Requirements: Photo ID, Birth Certificate, Mail postmarked within 2 month For more information, please call. \nGo To Details Page For More Information",
    "description": null,
    "requirements": "Photo ID, Birth Certificate, Mail postmarked within 2 month For more information, please call. \nGo To Details Page For More Information",
    "scraped_at": "2025-10-29T16:41:01.506633",
    "latitude": 38.902608,
    "longitude": -77.0455209,
    "geocoded_address": "2033, K Street Northwest, Golden Triangle, Downtown, Ward 2, Washington, District of Columbia, 20001, United States of America",
    "id": 13
  },
  {
    "url": "https://www.foodpantries.org/li/salvation_army_social_service_office_20009",
    "name": "Salvation Army - Social Service Office",
    "address": "1434 Harvard Street NW",
    "city": "Washington",
    "state": "DC",
    "zip": "20009",
    "phone": "(202) 250-7720",
    "fax": null,
    "email": null,
    "website": "http://www.freefood.org/",
    "hours": "Monday through Friday 8:30 am - 4:30 pmFor more information, please call. \nCounty or Counties Served: District of Columbia",
    "description": null,
    "requirements": "Picture ID, Proof of Income, Proof of Residence, Eviction/Court Notice, Utility Cut-Off Notice Pantry Hours: Monday through Friday 8:30 am - 4:30 pmFor more information, please call. \nCounty or Counties Served: District of Columbia",
    "scraped_at": "2025-10-29T16:41:04.337939",
    "latitude": 38.9261513,
    "longitude": -77.0336499,
    "geocoded_address": "1434, Harvard Street Northwest, Columbia Heights, Ward 1, Washington, District of Columbia, 20009, United States of America",
    "id": 14
  },
  {
    "url": "https://www.foodpantries.org/li/st_anthony_catholic_church_food_pantry_20017",
    "name": "St Anthony Catholic Church - Food Pantry",
    "address": "1029 Monroe Street NE",
    "city": "Washington",
    "state": "DC",
    "zip": "20017",
    "phone": "(202) 526-8822",
    "fax": null,
    "email": null,
    "website": "http://www.freefood.org/",
    "hours": "The 4th Wednesday\r\n 10:00am - 2:00pm\r\nFor more information, please call.",
    "description": null,
    "requirements": "Social Security Card Photo ID Proof of residency (lea\nGo To Details Page For More Information",
    "scraped_at": "2025-10-29T16:41:08.041041",
    "latitude": 38.9322919,
    "longitude": -76.9916852,
    "geocoded_address": "1029, Monroe Street Northeast, Bellair, Brookland, Ward 5, Washington, District of Columbia, 20017, United States of America",
    "id": 15
  },
  {
    "url": "https://www.foodpantries.org/li/united_planning_organization_shaw_community_service_center_20001",
    "name": "United Planning Organization - Shaw Community Service Center",
    "address": "1726 7th Street NW",
    "city": "Washington",
    "state": "DC",
    "zip": "20001",
    "phone": "(202) 462-6401",
    "fax": null,
    "email": null,
    "website": "http://www.upo.org",
    "hours": "M-F: 9am-5pm\r\n                                    \r\n                                                                        \n* Important: Please call the food pantries to confirm that the hours have not changed. We do our best to provide full information and details, but food pantries often change their hours without notifying us. We do not want you to waste your time visiting a pantry that is not open.",
    "description": null,
    "requirements": "Photo ID, Birth Certificate, Mail postmarked within 2 month For more information, please call. \nGo To Details Page For More Information",
    "scraped_at": "2025-10-29T16:41:11.481599",
    "latitude": 38.913433,
    "longitude": -77.0221899,
    "geocoded_address": "Shaw Community Ministry, 1726, 7th Street Northwest, Logan Circle/Shaw, Ward 2, Washington, District of Columbia, 20001, United States of America",
    "id": 16
  },
  {
    "url": "https://www.foodpantries.org/li/lutheran_church_of_the_reformation_food_pantry_20003",
    "name": "Lutheran Church of the Reformation - Food Pantry",
    "address": "212 East Capitol Street NE",
    "city": "Washington",
    "state": "DC",
    "zip": "20003",
    "phone": "(202) 543-4200",
    "fax": null,
    "email": null,
    "website": "http://www.freefood.org/",
    "hours": "Mondays through Fridays 9:00 am - 4:00 pm\r\n                                    \r\n                                                                        \n* Important: Please call the food pantries to confirm that the hours have not changed. We do our best to provide full information and details, but food pantries often change their hours without notifying us. We do not want you to waste your time visiting a pantry that is not open.",
    "description": null,
    "requirements": "Photo ID, Birth Certificate, Mail postmarked within 2 month For more information, please call.   \nGo To Details Page For More Information",
    "scraped_at": "2025-10-29T16:41:13.864599",
    "latitude": 38.8903654,
    "longitude": -76.97393,
    "geocoded_address": "East Capitol Street Northeast, Hill East, Ward 7, Washington, District of Columbia, 20003, United States of America",
    "id": 17
  },
  {
    "url": "https://www.foodpantries.org/li/peoples_congregational_united_church_peoples_food_pantry_20011",
    "name": "Peoples Congregational United Church - Peoples Food Pantry",
    "address": "4704 13th Street NW",
    "city": "Washington",
    "state": "DC",
    "zip": "20011",
    "phone": "(202) 829-5511",
    "fax": null,
    "email": null,
    "website": "http://www.freefood.org/",
    "hours": "Fridays (closed 1st Friday of the month): 9:30 am - 11:30 am\nCounty or Counties Served: District of Columbia",
    "description": null,
    "requirements": "Bring your ID. For more information, please call.   \nGo To Details Page For More Information",
    "scraped_at": "2025-10-29T16:41:16.777817",
    "latitude": 38.947185,
    "longitude": -77.0301306,
    "geocoded_address": "Peoples Congregational Church, 4704, 13th Street Northwest, Petworth, 16th Street Heights, Ward 4, Washington, District of Columbia, 20011, United States of America",
    "id": 18
  },
  {
    "url": "https://www.foodpantries.org/li/plymouth_congregational_united_church_of_christ_food_pantr_20011",
    "name": "Plymouth Congregational United Church of Christ - Food Pantr",
    "address": "5301 North Capitol Street NE",
    "city": "Washington",
    "state": "DC",
    "zip": "20011",
    "phone": "(202) 723-5330",
    "fax": null,
    "email": null,
    "website": "http://www.freefood.org/",
    "hours": "3rd and 4th Saturday of the Month\r\n                                    \r\n                                                                        \n* Important: Please call the food pantries to confirm that the hours have not changed. We do our best to provide full information and details, but food pantries often change their hours without notifying us. We do not want you to waste your time visiting a pantry that is not open.",
    "description": null,
    "requirements": null,
    "scraped_at": "2025-10-29T16:41:20.758043",
    "latitude": 38.9544398,
    "longitude": -77.0090145,
    "geocoded_address": "North Capitol Street Northeast, Fort Totten, Ward 5, Washington, District of Columbia, 20011, United States of America",
    "id": 19
  },
  {
    "url": "https://www.foodpantries.org/li/bread_for_the_city_20020",
    "name": "Bread for the City - Southeast Center",
    "address": "1640 Good Hope Road, SE",
    "city": "Washington",
    "state": "DC",
    "zip": "20020",
    "phone": "(202) 561-8587",
    "fax": null,
    "email": null,
    "website": "http://www.freefood.org/",
    "hours": "Monday - Thursday9:00 am - 5:00 pmFriday9:00 am - 12:00 pmRequirements: Photo ID, Birth Certificate, Mail postmarked within 2 monthFor more information, please call.\nVolunteering Information:https://breadforthecity.org/volunteer/#volunteer-opportunities \nCounty or Counties Served: District of Columbia",
    "description": null,
    "requirements": "Photo ID, Birth Certificate, Mail postmarked within 2 monthFor more information, please call.\nVolunteering Information:https://breadforthecity.org/volunteer/#volunteer-opportunities \nCounty or Counties Served: District of Columbia",
    "scraped_at": "2025-10-29T16:41:23.464742",
    "latitude": 38.8950368,
    "longitude": -77.0365427,
    "geocoded_address": "Washington, District of Columbia, United States of America",
    "note": "Geocoded to city center (exact address not found)",
    "id": 20
  },
  {
    "url": "https://www.foodpantries.org/li/central_union_mission_food_bank_20009",
    "name": "Central Union Mission - Food Bank",
    "address": "3194 Bladensburg Rd. NE",
    "city": "Washington",
    "state": "DC",
    "zip": "20009",
    "phone": "(202) 745-7118",
    "fax": null,
    "email": null,
    "website": "http://www.freefood.org/",
    "hours": "Monday 10:00am - 1:00pmRequirements:Social Security CardPhoto IDProof of residency (lease or utility)Proof of income (dated within the last 6 months - year)For more information, please call. \nCounty or Counties Served: District of Columbia",
    "description": null,
    "requirements": "Social Security CardPhoto IDProof of residency (lease or utility)Proof of income (dated within the last 6 months - year)For more information, please call. \nCounty or Counties Served: District of Columbia",
    "scraped_at": "2025-10-29T16:41:27.471105",
    "latitude": 38.9305777,
    "longitude": -76.9591879,
    "geocoded_address": "3194, Bladensburg Road Northeast, Ward 5, Washington, District of Columbia, 20018, United States of America",
    "id": 21
  },
  {
    "url": "https://www.foodpantries.org/li/dc_20008_feed-the-family",
    "name": "Feed The Family",
    "address": "4225 Connecticut Avenue NW",
    "city": "Washington",
    "state": "DC",
    "zip": "20008",
    "phone": "(202) 555-5555",
    "fax": null,
    "email": null,
    "website": "http://www.freefood.org/",
    "hours": "Sunday 1:00 pm - 4:00 pmVolunteer and Donation:To volunteer or donate cleaning supplies.For more information, please call.\nCounty or Counties Served: District of Columbia",
    "description": null,
    "requirements": "Bring your ID. For more information, please call.   \nGo To Details Page For More Information",
    "scraped_at": "2025-10-29T16:41:29.679790",
    "latitude": 38.9439024,
    "longitude": -77.0629707,
    "geocoded_address": "4225, Connecticut Avenue Northwest, Ward 3, Washington, District of Columbia, 20008, United States of America",
    "id": 22
  },
  {
    "url": "https://www.foodpantries.org/li/capital-area-food-bank",
    "name": "Capital Area Food Bank",
    "address": "4900 Puerto Rico Ave NE",
    "city": "Washington",
    "state": "DC",
    "zip": "20017",
    "phone": "(202) 644-9800",
    "fax": null,
    "email": null,
    "website": "http://www.freefood.org/",
    "hours": "3rd and 4th Saturday of the Month\nGo To Details Page For More Information",
    "description": null,
    "requirements": null,
    "scraped_at": "2025-10-29T16:41:32.443518",
    "latitude": 38.9473003,
    "longitude": -76.9994569,
    "geocoded_address": "4900, Puerto Rico Avenue Northeast, Michigan Park, Ward 5, Washington, District of Columbia, 20017, United States of America",
    "id": 23
  },
  {
    "url": "https://www.foodpantries.org/li/father-mc-kenna-center",
    "name": "Father Mc Kenna Center",
    "address": "19 I St NW",
    "city": "Washington",
    "state": "DC",
    "zip": "20001",
    "phone": "(202) 842-1112",
    "fax": null,
    "email": null,
    "website": "http://www.freefood.org/",
    "hours": "7:00-8:30am Lunch Hours: 11:00am-1:00pm  For more information, please call.   \nGo To Details Page For More Information",
    "description": null,
    "requirements": "Photo ID, Birth Certificate, Mail postmarked within 2 month For more information, please call. \nGo To Details Page For More Information",
    "scraped_at": "2025-10-29T16:41:34.599065",
    "latitude": 38.9017585,
    "longitude": -77.0104038,
    "geocoded_address": "Gonzaga College High School, 19, I Street Northwest, North Capitol Street, Ward 6, Washington, District of Columbia, 20001, United States of America",
    "id": 24
  },
  {
    "url": "https://www.foodpantries.org/li/bread-for-the-city",
    "name": "Bread for the City",
    "address": "1525 7th St NW",
    "city": "Washington",
    "state": "DC",
    "zip": "20001",
    "phone": "(202) 265-2400",
    "fax": null,
    "email": null,
    "website": "http://www.freefood.org/",
    "hours": "Monday - Thursday8:30 am - 5:00 pmFriday8:30 am - 1:00 pmRequirements: Photo ID, Birth Certificate, Mail postmarked within 2 monthFor more information, please call.\nVolunteering Information:https://breadforthecity.org/volunteer/#volunteer-opportunities \nCounty or Counties Served: District of Columbia",
    "description": null,
    "requirements": "Photo ID, Birth Certificate, Mail postmarked within 2 monthFor more information, please call.\nVolunteering Information:https://breadforthecity.org/volunteer/#volunteer-opportunities \nCounty or Counties Served: District of Columbia",
    "scraped_at": "2025-10-29T16:41:39.478870",
    "latitude": 38.9103207,
    "longitude": -77.0215904,
    "geocoded_address": "1525, 7th Street Northwest, Logan Circle/Shaw, Ward 2, Washington, District of Columbia, 20001, United States of America",
    "id": 25
  },
  {
    "url": "https://www.foodpantries.org/li/emory-beacon-of-light",
    "name": "Emory Beacon of Light",
    "address": "6100 Georgia Ave. NW",
    "city": "Washington",
    "state": "DC",
    "zip": "20011",
    "phone": "(202) 829-5732",
    "fax": null,
    "email": null,
    "website": "http://www.freefood.org/",
    "hours": "Tuesday12:00pm - 2:00pmFor more information, please call. \nCounty or Counties Served: District of Columbia",
    "description": null,
    "requirements": "Bring your ID. For more information, please call.   \nGo To Details Page For More Information",
    "scraped_at": "2025-10-29T16:41:41.906575",
    "latitude": 38.9641578,
    "longitude": -77.0281926,
    "geocoded_address": "Emory United Methodist Church, 6100, Georgia Avenue Northwest, Brightwood, Ward 4, Washington, District of Columbia, 20011, United States of America",
    "id": 26
  },
  {
    "url": "https://www.foodpantries.org/li/emory-beacon-of-light-inc-food-pantry",
    "name": "Emory Beacon of Light - Food Pantry",
    "address": "6203 Piney Branch Road NW",
    "city": "Washington",
    "state": "DC",
    "zip": "20011",
    "phone": "(202) 829-5732",
    "fax": null,
    "email": null,
    "website": "http://www.freefood.org/",
    "hours": "Tuesday 12:00pm to 2:00pm Provides food to more than 60 families, weekly. Food donations come from the Capitol Area Food Bank, members of the Emory Fellowship and private donors.  In 2015 we provided food to over 2,724 families, we are looking to feed over 3,000 families in 2016.For more information, please call. \nCounty or Counties Served: District of Columbia",
    "description": null,
    "requirements": "Bring your ID. For more information, please call.   \nGo To Details Page For More Information",
    "scraped_at": "2025-10-29T16:41:46.496854",
    "latitude": 38.9650948,
    "longitude": -77.029307,
    "geocoded_address": "6203, Piney Branch Road Northwest, Brightwood, Ward 4, Washington, District of Columbia, 20012, United States of America",
    "id": 27
  },
  {
    "url": "https://www.foodpantries.org/li/dc_20018_north-capitol-collaborative-inc",
    "name": "North Capitol Collaborative Food Pantry",
    "address": "3230 Pennsylvania Ave SE #202",
    "city": "Washington",
    "state": "DC",
    "zip": "20020",
    "phone": "(202) 588-1800",
    "fax": null,
    "email": null,
    "website": "http://www.freefood.org/",
    "hours": "The 2nd and fourth Thursday out of the month 10:00am - 2:00pmFor more information, please call.\nMission Statement\r\n               OUR MISSION is to protect and care for children, strengthen families and build thriving communities.\r\n            \nVolunteering Information:Come to our pantry and ask for our coordinator Tiara Hawkins  \nCounty or Counties Served: District of Columbia",
    "description": null,
    "requirements": "Social Security Card Photo ID Proof of residency (lea\nGo To Details Page For More Information",
    "scraped_at": "2025-10-29T16:41:48.803675",
    "latitude": 38.8950368,
    "longitude": -77.0365427,
    "geocoded_address": "Washington, District of Columbia, United States of America",
    "note": "Geocoded to city center (exact address not found)",
    "id": 28
  },
  {
    "url": "https://www.foodpantries.org/li/dc_20010_catholic-charities",
    "name": "Catholic Charities",
    "address": "1618 Monroe St. NW",
    "city": "Washington DC",
    "state": "DC",
    "zip": "20010",
    "phone": "(202) 939-2400",
    "fax": null,
    "email": null,
    "website": "http://www.freefood.org/",
    "hours": "Wednesday1;00pm - 3:00pm Bags usually contain vegetables, fruits, and bread. Register by coming into our office and heading to the 2nd floor. Requirements:Bring your ID.For more information, please call. \nCounty or Counties Served: District of Columbia",
    "description": null,
    "requirements": "Bring your ID.For more information, please call. \nCounty or Counties Served: District of Columbia",
    "scraped_at": "2025-10-29T16:41:52.483586",
    "latitude": 38.9327141,
    "longitude": -77.0373983,
    "geocoded_address": "1618, Monroe Street Northwest, Mount Pleasant, Ward 1, Washington, District of Columbia, 20010, United States of America",
    "id": 29
  }
]