[
  {
    "url": "https://www.foodpantries.org/li/svdp-holy-family",
    "name": "SVDP Holy Family",
    "address": "562 Atrisco SW",
    "city": "Albuquerque",
    "state": "DE",
    "zip": "87105",
    "phone": "(505) 385-8598",
    "fax": null,
    "email": null,
    "website": "http://www.freefood.org/",
    "hours": "Wednesday, Friday and Saturday 9:00am -11:00am  Requirements:  First visit, fill out a short registration form No documentation is required  Additional Information:  Groceries provided change daily Each household can pick up free groceries weekly Enter through the west side of \nGo To Details Page For More Information",
    "description": null,
    "requirements": "First visit, fill out a short registration form No documentation is required  Additional Information:  Groceries provided change daily Each household can pick up free groceries weekly Enter through the west side of \nGo To Details Page For More Information",
    "scraped_at": "2025-10-29T16:29:20.463807",
    "latitude": 35.0745356,
    "longitude": -106.6865953,
    "geocoded_address": "Holy Family Catholic Church, 562, Atrisco Drive Southwest, Old Town, Albuquerque, Bernalillo County, New Mexico, 87105, United States of America",
    "id": 1
  },
  {
    "url": "https://www.foodpantries.org/li/union_united_methodist_church_food_closet_19701",
    "name": "Union United Methodist Church - Food Closet",
    "address": "345 School Bell Road",
    "city": "Bear",
    "state": "DE",
    "zip": "19701",
    "phone": "(302) 322-3118",
    "fax": "(302) 322-3119",
    "email": null,
    "website": "http://www.freefood.org/",
    "hours": "By appointmentFor more information, please call.\nCounty or Counties Served: New Castle",
    "description": null,
    "requirements": "Photo ID \r\n \r\n Mobile Pantry Hours: \r\nThe 3rd Thursday of the month \r\n2:00pm -4:00pm \r\n \r\nFor more information, please call.",
    "scraped_at": "2025-10-29T16:29:23.180504",
    "latitude": 39.6292788,
    "longitude": -75.6582628,
    "geocoded_address": "Bear, New Castle County, Delaware, 19702, United States of America",
    "note": "Geocoded to city center (exact address not found)",
    "id": 2
  },
  {
    "url": "https://www.foodpantries.org/li/alpha_worship_center_pantry_of_hope_19701",
    "name": "Alpha Worship Center Pantry of Hope",
    "address": "2020 Firedancer Lane",
    "city": "Bear",
    "state": "DE",
    "zip": "19701",
    "phone": "(302) 325-3930",
    "fax": null,
    "email": null,
    "website": "http://www.freefood.org/",
    "hours": "Wednesday 12:00 pm - 2:00 pmFor more information, please call. \nCounty or Counties Served: New Castle",
    "description": null,
    "requirements": "Photo ID \r\n \r\n Mobile Pantry Hours: \r\nThe 3rd Thursday of the month \r\n2:00pm -4:00pm \r\n \r\nFor more information, please call.",
    "scraped_at": "2025-10-29T16:29:28.973457",
    "latitude": 39.6292788,
    "longitude": -75.6582628,
    "geocoded_address": "Bear, New Castle County, Delaware, 19702, United States of America",
    "note": "Geocoded to city center (exact address not found)",
    "id": 3
  },
  {
    "url": "https://www.foodpantries.org/li/society_of_saint_vincent_de_paul_19702",
    "name": "Society of Saint Vincent De Paul - St. Margaret of Scotland Parish",
    "address": "2431 Frazer Road",
    "city": "Newark",
    "state": "DE",
    "zip": "19702",
    "phone": "(302) 834-0225",
    "fax": "(302) 834-0840",
    "email": null,
    "website": "http://www.freefood.org/",
    "hours": "Monday-Friday\r\n 9:00am - 4:00pm\n\r\nFor more information, please call. \nCounty or Counties Served: New Castle",
    "description": null,
    "requirements": "Photo ID \r\n \r\n Mobile Pantry Hours: \r\nThe 3rd Thursday of the month \r\n2:00pm -4:00pm \r\n \r\nFor more information, please call.",
    "scraped_at": "2025-10-29T16:29:32.196536",
    "latitude": 39.6828358,
    "longitude": -75.7515682,
    "geocoded_address": "Newark, New Castle County, Delaware, United States of America",
    "note": "Geocoded to city center (exact address not found)",
    "id": 4
  },
  {
    "url": "https://www.foodpantries.org/li/food-bank-of-delaware-incorporated",
    "name": "Food Bank of Delaware",
    "address": "14 Garfield Way",
    "city": "Newark",
    "state": "DE",
    "zip": "19713",
    "phone": "(302) 292-1305",
    "fax": "(302) 292-1309",
    "email": null,
    "website": "http://www.fbd.org",
    "hours": "7:00am - 9:00am \r\nat 720 N. Orange Street Wilmington \r\nFirst come, first serve \r\n \r\nFor more information, please call.",
    "description": null,
    "requirements": "Photo ID \r\n \r\n Mobile Pantry Hours: \r\nThe 3rd Thursday of the month \r\n2:00pm -4:00pm \r\n \r\nFor more information, please call.",
    "scraped_at": "2025-10-29T16:29:35.447725",
    "latitude": 39.6828358,
    "longitude": -75.7515682,
    "geocoded_address": "Newark, New Castle County, Delaware, United States of America",
    "note": "Geocoded to city center (exact address not found)",
    "id": 5
  },
  {
    "url": "https://www.foodpantries.org/li/amazing-grace-outreach-ministries-u-s-food-rescue",
    "name": "Amazing Grace Us Food Rescue",
    "address": "78 Southgate Blvd",
    "city": "New Castle",
    "state": "DE",
    "zip": "19709",
    "phone": "(302) 777-7791",
    "fax": "(302) 868-2276",
    "email": null,
    "website": "http://www.freefood.org/",
    "hours": "Wednesday12:00pm - 3:00pm Requires a referral from a state social service center.Alternate address: 580 Woods Rd Bear, DE 19701. Alternate phone: (302) 838-2256For more information, please call. \nCounty or Counties Served: New Castle",
    "description": null,
    "requirements": "Photo ID \r\n \r\n Mobile Pantry Hours: \r\nThe 3rd Thursday of the month \r\n2:00pm -4:00pm \r\n \r\nFor more information, please call.",
    "scraped_at": "2025-10-29T16:29:39.690515",
    "latitude": 39.6938802,
    "longitude": -75.5722164,
    "geocoded_address": "78, Southgate Boulevard, Swanwyck Estates, Farnhurst, New Castle County, Delaware, 19720, United States of America",
    "id": 6
  },
  {
    "url": "https://www.foodpantries.org/li/life_program_mobile_pantries_hope_lutheran_church_19720",
    "name": "Hope Lutheran Church - Food Pantry",
    "address": "230 Christiana Road",
    "city": "New Castle",
    "state": "DE",
    "zip": "19720",
    "phone": "(302) 328-7909",
    "fax": "(302) 328-9249",
    "email": null,
    "website": "http://lcsde.org",
    "hours": "The 3rd Thursday of the month\r\n2:00pm -4:00pm\n\r\nFor more information, please call.",
    "description": null,
    "requirements": "Photo ID\n\r\n Mobile Pantry Hours:\r\nThe 3rd Thursday of the month\r\n2:00pm -4:00pm\n\r\nFor more information, please call.",
    "scraped_at": "2025-10-29T16:29:43.673287",
    "latitude": 39.6632349,
    "longitude": -75.6330321,
    "geocoded_address": "230, Christiana Road, Timber Ridge, Wilton, New Castle County, Delaware, 19720, United States of America",
    "id": 7
  },
  {
    "url": "https://www.foodpantries.org/li/hudson_state_service_center_19711",
    "name": "Hudson State Service Center",
    "address": "501 Ogletown Road",
    "city": "Newark",
    "state": "DE",
    "zip": "19711",
    "phone": "(302) 283-7500",
    "fax": null,
    "email": null,
    "website": "http://www.freefood.org/",
    "hours": "7:00am - 9:00am \r\nat 720 N. Orange Street Wilmington \r\nFirst come, first serve \r\n \r\nFor more information, please call.",
    "description": null,
    "requirements": "Photo ID \r\n \r\n Mobile Pantry Hours: \r\nThe 3rd Thursday of the month \r\n2:00pm -4:00pm \r\n \r\nFor more information, please call.",
    "scraped_at": "2025-10-29T16:29:46.340089",
    "latitude": 39.6843581,
    "longitude": -75.7343293,
    "geocoded_address": "Floyd L. Hudson State Service Center, 501, Ogletown Road, Lumbrook, Newark, New Castle County, Delaware, 19711, United States of America",
    "id": 8
  },
  {
    "url": "https://www.foodpantries.org/li/friendship_house_newark_empowerment_center_19711",
    "name": "Friendship House, Newark Empowerment Center",
    "address": "69 East Main Street",
    "city": "Newark",
    "state": "DE",
    "zip": "19711",
    "phone": "(302) 544-0165",
    "fax": null,
    "email": null,
    "website": "http://www.freefood.org/",
    "hours": "7:00am - 9:00am\r\nat 720 N. Orange Street Wilmington\r\nFirst come, first serve\n\r\nFor more information, please call. \nCounty or Counties Served: New Castle",
    "description": null,
    "requirements": "Photo ID \r\n \r\n Mobile Pantry Hours: \r\nThe 3rd Thursday of the month \r\n2:00pm -4:00pm \r\n \r\nFor more information, please call.",
    "scraped_at": "2025-10-29T16:29:48.458792",
    "latitude": 39.6824844,
    "longitude": -75.7505743,
    "geocoded_address": "Newark United Methodist Church, 69, East Main Street, Newark, New Castle County, Delaware, 19711, United States of America",
    "id": 9
  },
  {
    "url": "https://www.foodpantries.org/li/appoquinimink_state_service_center_19709",
    "name": "Appoquinimink State Service Center",
    "address": "122 Silver Lake Road",
    "city": "Middletown",
    "state": "DE",
    "zip": "19709",
    "phone": "(302) 378-5770",
    "fax": null,
    "email": null,
    "website": "http://www.freefood.org/",
    "hours": "2nd Tuesday of each month 5:30pm - 6:30pm  We provide approximately a 2-3 day supply of basic non-perishable pantry staples.  For more information, please call.  \nGo To Details Page For More Information",
    "description": null,
    "requirements": null,
    "scraped_at": "2025-10-29T16:29:51.594129",
    "latitude": 39.4479785,
    "longitude": -75.6958512,
    "geocoded_address": "122, Silver Lake Road, Middletown, New Castle County, Delaware, 19709, United States of America",
    "id": 10
  },
  {
    "url": "https://www.foodpantries.org/li/st-annes-episcopal-church",
    "name": "St. Anne's Episcopal Church Food Pantry",
    "address": "15 E. Green Street",
    "city": "Middletown",
    "state": "DE",
    "zip": "19709",
    "phone": "(302) 378-2401",
    "fax": null,
    "email": null,
    "website": "http://www.freefood.org/",
    "hours": "2nd Tuesday of each month5:30pm - 6:30pm We provide approximately a 2-3 day supply of basic non-perishable pantry staples.For more information, please call. \nCounty or Counties Served: New Castle",
    "description": null,
    "requirements": "Photo ID Proof of assistance, like SNAP, medica\nGo To Details Page For More Information",
    "scraped_at": "2025-10-29T16:29:54.185547",
    "latitude": 39.4486817,
    "longitude": -75.7160795,
    "geocoded_address": "15, East Green Street, Middletown, New Castle County, Delaware, 19709, United States of America",
    "id": 11
  },
  {
    "url": "https://www.foodpantries.org/li/neighborhood_house_southern_new_castle_county_19709",
    "name": "Neighborhood House - Middletown Location",
    "address": "219 West Green Street",
    "city": "Middletown",
    "state": "DE",
    "zip": "19709",
    "phone": "(302) 378-7217",
    "fax": null,
    "email": null,
    "website": "http://www.freefood.org/",
    "hours": "Monday-Friday 10:00am - 3:30pmFor more information, please call. \nCounty or Counties Served: New Castle",
    "description": null,
    "requirements": "Photo ID Proof of assistance, like SNAP, medica\nGo To Details Page For More Information",
    "scraped_at": "2025-10-29T16:29:58.147270",
    "latitude": 39.4481547,
    "longitude": -75.7201508,
    "geocoded_address": "219, West Green Street, Middletown, New Castle County, Delaware, 19709, United States of America",
    "id": 12
  },
  {
    "url": "https://www.foodpantries.org/li/goodwill_industries_food_closet__sussex_county_19938",
    "name": "Goodwill Industries, Food Closet , Sussex County",
    "address": "18178 Sussex Highway",
    "city": "Bridgeville",
    "state": "DE",
    "zip": "19938",
    "phone": "(302) 337-8561",
    "fax": null,
    "email": null,
    "website": "http://www.freefood.org/",
    "hours": "Monday - Friday \r\n 9:00am - 4:00pm \r\n \r\nFor more information, please call.",
    "description": null,
    "requirements": null,
    "scraped_at": "2025-10-29T16:30:00.768544",
    "latitude": 38.7421701,
    "longitude": -75.5922368,
    "geocoded_address": "18178, Sussex Highway, Cantebury Apartments, Bridgeville, Sussex County, Delaware, 19933, United States of America",
    "id": 13
  },
  {
    "url": "https://www.foodpantries.org/li/bridgeville_state_service_center_19933",
    "name": "Bridgeville State Service Center",
    "address": "400 Mill Street",
    "city": "Bridgeville",
    "state": "DE",
    "zip": "19933",
    "phone": "(302) 721-7005",
    "fax": "(302) 337-8261",
    "email": null,
    "website": "http://www.freefood.org/",
    "hours": "Monday - Friday\r\n 9:00am - 4:00pm\n\r\nFor more information, please call. \nCounty or Counties Served: Sussex",
    "description": null,
    "requirements": null,
    "scraped_at": "2025-10-29T16:30:03.607254",
    "latitude": 38.7434179,
    "longitude": -75.6052778,
    "geocoded_address": "Delaware State Sevices Center, 400, Mill Street, Bridgeville, Sussex County, Delaware, 19933, United States of America",
    "id": 14
  },
  {
    "url": "https://www.foodpantries.org/li/salvation_army_sussex_19973",
    "name": "Salvation Army, Sussex Food Pantry",
    "address": "22318 Sussex Hwy.",
    "city": "Seaford",
    "state": "DE",
    "zip": "19973",
    "phone": "(302) 628-2020",
    "fax": null,
    "email": null,
    "website": "http://www.freefood.org/",
    "hours": "Monday-Friday 9:00 am - 1:00 pmSoup Kitchen hours:Monday to Thursday from 11:30am to 1:00pmFor more information, please call.\nCounty or Counties Served: Sussex",
    "description": null,
    "requirements": null,
    "scraped_at": "2025-10-29T16:30:06.184471",
    "latitude": 38.6513472,
    "longitude": -75.5944188,
    "geocoded_address": "Sussex Highway, The Island, Seaford, Sussex County, Delaware, 19973, United States of America",
    "id": 15
  },
  {
    "url": "https://www.foodpantries.org/li/shipley_state_service_center_19973",
    "name": "Shipley State Service Center",
    "address": "350 Virginia Avenue",
    "city": "Seaford",
    "state": "DE",
    "zip": "19973",
    "phone": "(302) 628-2000",
    "fax": null,
    "email": null,
    "website": "http://www.freefood.org/",
    "hours": "Monday-Friday, 8:00am-4:30pm\r\n                                    \r\n                                                                        \n* Important: Please call the food pantries to confirm that the hours have not changed. We do our best to provide full information and details, but food pantries often change their hours without notifying us. We do not want you to waste your time visiting a pantry that is not open.",
    "description": null,
    "requirements": null,
    "scraped_at": "2025-10-29T16:30:08.999419",
    "latitude": 38.6542826,
    "longitude": -75.609903,
    "geocoded_address": "State Service Center, 350, Virginia Avenue, Seaford Heights, Seaford, Sussex County, Delaware, 19973, United States of America",
    "id": 16
  },
  {
    "url": "https://www.foodpantries.org/li/de_seaford_st-johns-united-methodist-church-food-pantry",
    "name": "Seaford Community Food Closet",
    "address": "300 N Pine Street",
    "city": "Seaford",
    "state": "DE",
    "zip": "19973",
    "phone": "(302) 629-9466",
    "fax": null,
    "email": null,
    "website": "http://www.freefood.org/",
    "hours": "Monday to Thursday: 9:00 am to 3:00 pmFriday: ClosedSaturday: ClosedSunday: 8:30 am to 12:15 pm \nCounty or Counties Served: Sussex",
    "description": null,
    "requirements": null,
    "scraped_at": "2025-10-29T16:30:11.988011",
    "latitude": 38.6432861,
    "longitude": -75.6139597,
    "geocoded_address": "St John's United Methodist Church, 300, North Pine Street, Hurley Heights, Seaford, Sussex County, Delaware, 19973, United States of America",
    "id": 17
  },
  {
    "url": "https://www.foodpantries.org/li/delmarva_clergy_united_food_closet_19941",
    "name": "Delmarva Clergy United, Food Closet",
    "address": "13726 South Old State Road",
    "city": "Ellendale",
    "state": "DE",
    "zip": "19941",
    "phone": "(302) 422-2350",
    "fax": null,
    "email": null,
    "website": "http://www.freefood.org/",
    "hours": "Monday - Friday 9:00am - 3:00pmFor more information, please call. \nCounty or Counties Served: Sussex",
    "description": null,
    "requirements": null,
    "scraped_at": "2025-10-29T16:30:15.338904",
    "latitude": 38.8064048,
    "longitude": -75.429099,
    "geocoded_address": "South Old State Road, Ellendale, Sussex County, Delaware, 19941, United States of America",
    "id": 18
  },
  {
    "url": "https://www.foodpantries.org/li/first_state_community_action_food_closet_sussex_county_19947",
    "name": "First State Community Action, Food Closet - Sussex County",
    "address": "308 North Railroad Ave",
    "city": "Georgetown",
    "state": "DE",
    "zip": "19947",
    "phone": "(302) 856-7761",
    "fax": null,
    "email": null,
    "website": "http://www.freefood.org/",
    "hours": "Monday-Friday, 8:00am-4:30pm\r\n                                    \r\n                                                                        \n* Important: Please call the food pantries to confirm that the hours have not changed. We do our best to provide full information and details, but food pantries often change their hours without notifying us. We do not want you to waste your time visiting a pantry that is not open.",
    "description": null,
    "requirements": null,
    "scraped_at": "2025-10-29T16:30:19.532841",
    "latitude": 38.694549,
    "longitude": -75.3866246,
    "geocoded_address": "308, North Railroad Avenue, Highland Terrace, Georgetown, Sussex County, Delaware, 19947, United States of America",
    "id": 19
  },
  {
    "url": "https://www.foodpantries.org/li/lake-forest-church-association-food-pantry",
    "name": "Lake Forest Church Association Food Pantry",
    "address": "102 Dorman Street",
    "city": "Harrington",
    "state": "DE",
    "zip": "19952",
    "phone": "(302) 222-8404",
    "fax": null,
    "email": null,
    "website": "http://www.freefood.org/",
    "hours": null,
    "description": null,
    "requirements": null,
    "scraped_at": "2025-10-29T16:30:22.768800",
    "latitude": 38.9243377,
    "longitude": -75.5792885,
    "geocoded_address": "102, Dorman Street, Harrington, Kent County, Delaware, 19952, United States of America",
    "id": 20
  },
  {
    "url": "https://www.foodpantries.org/li/blessed_givings_emergency_food_program_19947",
    "name": "Blessed Giving, Emergency Food Program",
    "address": "40 Ingramtown Rd",
    "city": "Georgetown",
    "state": "DE",
    "zip": "19947",
    "phone": "(302) 339-3905",
    "fax": null,
    "email": null,
    "website": "http://www.freefood.org/",
    "hours": "Monday, Wednesday, Friday12:00pm - 3:00pmTuesday and Thursday12:00pm - 6:00pmBy appointment onlyFor more information, please call. \nCounty or Counties Served: Sussex",
    "description": null,
    "requirements": null,
    "scraped_at": "2025-10-29T16:30:25.526673",
    "latitude": 38.692623,
    "longitude": -75.376351,
    "geocoded_address": "40, Ingramtown Road, Harlemtown, Georgetown, Sussex County, Delaware, 19947, United States of America",
    "id": 21
  },
  {
    "url": "https://www.foodpantries.org/li/catholic_charities_basic_needs_program_sussex_county_19947",
    "name": "Catholic Charities Basic Needs Program Sussex County",
    "address": "406 Bedford Street Suite 9",
    "city": "Georgetown",
    "state": "DE",
    "zip": "19947",
    "phone": "(302) 856-9578",
    "fax": null,
    "email": null,
    "website": "http://www.freefood.org/",
    "hours": "Monday-Friday, 8:30am-4:30pm\r\n                                    \r\n                                                                        \n* Important: Please call the food pantries to confirm that the hours have not changed. We do our best to provide full information and details, but food pantries often change their hours without notifying us. We do not want you to waste your time visiting a pantry that is not open.",
    "description": null,
    "requirements": null,
    "scraped_at": "2025-10-29T16:30:28.438802",
    "latitude": 38.6900507,
    "longitude": -75.3858753,
    "geocoded_address": "Georgetown, Sussex County, Delaware, 19947, United States of America",
    "note": "Geocoded to city center (exact address not found)",
    "id": 22
  },
  {
    "url": "https://www.foodpantries.org/li/thurman_adams_state_service_center_19947",
    "name": "Thurman Adams State Service Center",
    "address": "546 South Bedford Street",
    "city": "Georgetown",
    "state": "DE",
    "zip": "19947",
    "phone": "(302) 515-3000",
    "fax": null,
    "email": null,
    "website": "http://www.freefood.org/",
    "hours": "Monday - Friday 9:00am - 4:00pmFor more information, please call. \nCounty or Counties Served: Sussex",
    "description": null,
    "requirements": null,
    "scraped_at": "2025-10-29T16:30:35.670824",
    "latitude": 38.6704002,
    "longitude": -75.3766859,
    "geocoded_address": "546, South Bedford Street, Georgetown, Sussex County, Delaware, 19947, United States of America",
    "id": 23
  },
  {
    "url": "https://www.foodpantries.org/li/new_knollwood_civic_association_food_closet_19703",
    "name": "New Knollwood Civic Association, Food Closet",
    "address": "4 Colby Avenue",
    "city": "Claymont",
    "state": "DE",
    "zip": "19703",
    "phone": "(302) 793-1627",
    "fax": null,
    "email": null,
    "website": "http://www.freefood.org/",
    "hours": "Monday - Friday8:00am-2:00pm \nCounty or Counties Served: New Castle",
    "description": null,
    "requirements": null,
    "scraped_at": "2025-10-29T16:30:38.203167",
    "latitude": 39.809384,
    "longitude": -75.451053,
    "geocoded_address": "4, Colby Avenue, Worthland, Claymont, New Castle County, Delaware, 19703, United States of America",
    "id": 24
  },
  {
    "url": "https://www.foodpantries.org/li/holy_rosary_food_closet_19703",
    "name": "Holy Rosary Food Closet",
    "address": "3200 Philadelphia Pike",
    "city": "Claymont",
    "state": "DE",
    "zip": "19703",
    "phone": "(302) 798-1513",
    "fax": null,
    "email": null,
    "website": "http://www.freefood.org/",
    "hours": "Monday - Fr iday 8:00am-2:00pm   \nGo To Details Page For More Information",
    "description": null,
    "requirements": null,
    "scraped_at": "2025-10-29T16:30:40.769457",
    "latitude": 39.7976994,
    "longitude": -75.4626978,
    "geocoded_address": "Holy Rosary Roman Catholic Church, 3200, Philadelphia Pike, Riverside, Claymont, New Castle County, Delaware, 19703, United States of America",
    "id": 25
  },
  {
    "url": "https://www.foodpantries.org/li/claymont_community_center_food_closet_19703",
    "name": "Claymont Community Center, Food Closet",
    "address": "3301 Green Street",
    "city": "Claymont",
    "state": "DE",
    "zip": "19703",
    "phone": "(302) 792-2757",
    "fax": "(302) 792-0356",
    "email": null,
    "website": "http://www.freefood.org/",
    "hours": "By Appointment\r\n                                    \r\n                                    County or Counties Served: New Castle",
    "description": null,
    "requirements": null,
    "scraped_at": "2025-10-29T16:30:42.932540",
    "latitude": 39.801216,
    "longitude": -75.465986,
    "geocoded_address": "3301, Green Street, Greenshire, Claymont, New Castle County, Delaware, 19703, United States of America",
    "id": 26
  },
  {
    "url": "https://www.foodpantries.org/li/st_helenas_parish_social_ministry_19809",
    "name": "St Helenas Parish Social Ministry",
    "address": "602 Philadelphia Pike",
    "city": "Wilmington",
    "state": "DE",
    "zip": "19809",
    "phone": "(302) 764-7545",
    "fax": null,
    "email": null,
    "website": "http://www.freefood.org/",
    "hours": "Monday-Friday9:00 am-12:00 pm (until 3:00pm in an emergency) MUST CALL FOR APPOINTMENTFor more information, please call\nCounty or Counties Served: New Castle",
    "description": null,
    "requirements": null,
    "scraped_at": "2025-10-29T16:30:45.264032",
    "latitude": 39.7688647,
    "longitude": -75.5028462,
    "geocoded_address": "Saint Helena's Roman Catholic Church, 602, Philadelphia Pike, High Point, Wilmington, New Castle County, Delaware, 19809, United States of America",
    "id": 27
  },
  {
    "url": "https://www.foodpantries.org/li/de_wilmington_hillcrest-bellefonte-umc-food-pantry",
    "name": "Hillcrest-Bellefonte UMC Food Pantry",
    "address": "400 Hillcrest Avenue",
    "city": "Wilmington",
    "state": "DE",
    "zip": "19809",
    "phone": "(302) 764-3145",
    "fax": null,
    "email": null,
    "website": "http://www.freefood.org/",
    "hours": "Thursdays 11:00am to 1:00pm  Notes:Must attend bible study\nCounty or Counties Served: New Castle",
    "description": null,
    "requirements": null,
    "scraped_at": "2025-10-29T16:30:47.610706",
    "latitude": 39.450822,
    "longitude": -83.859285,
    "geocoded_address": "400, Hillcrest Avenue, Wilmington, Union Township, Clinton County, Ohio, 45177, United States of America",
    "id": 28
  },
  {
    "url": "https://www.foodpantries.org/li/pa_19014_delco-food-project",
    "name": "Delco Food Project",
    "address": "535 Lamp Post Lane",
    "city": "Aston",
    "state": "PA",
    "zip": "19014",
    "phone": "(484) 326-2622",
    "fax": null,
    "email": null,
    "website": "http://www.freefood.org/",
    "hours": "Thursday9:00am to 5:00pmFor more information, please call. \nVolunteering Information:Contact Bill Farnham  \nCounty or Counties Served: Delaware",
    "description": null,
    "requirements": null,
    "scraped_at": "2025-10-29T16:30:53.194836",
    "latitude": 39.8585355,
    "longitude": -75.4276844,
    "geocoded_address": "St. Timothy’s Lutheran Church, 535, Lamp Post Lane, Aston Township, Delaware County, Pennsylvania, 19014, United States of America",
    "id": 29
  },
  {
    "url": "https://www.foodpantries.org/li/bernardine-center",
    "name": "Bernardine Center",
    "address": "2625 W 9th Street",
    "city": "Chester",
    "state": "PA",
    "zip": "19013",
    "phone": "(610) 497-3225",
    "fax": "(610) 497-3659",
    "email": null,
    "website": "http://www.freefood.org/",
    "hours": "Every Monday & Wednesday from 11:00am - 12:45pm  Hot Meals Program & Clothes Closet runs during those same hours. \nGo To Details Page For More Information",
    "description": null,
    "requirements": null,
    "scraped_at": "2025-10-29T16:30:55.469021",
    "latitude": 39.8368286,
    "longitude": -75.3934386,
    "geocoded_address": "Bernardine Center, 2625, West 9th Street, South Chester, Chester, Delaware County, Pennsylvania, 19013, United States of America",
    "id": 30
  },
  {
    "url": "https://www.foodpantries.org/li/goodwill_industries_food_closet_new_castle_county_19802",
    "name": "Goodwill Industries, Food Closet - New Castle County",
    "address": "300 East Lea Boulevard",
    "city": "Wilmington",
    "state": "DE",
    "zip": "19802",
    "phone": "(302) 761-4640",
    "fax": null,
    "email": null,
    "website": "http://www.freefood.org/",
    "hours": "3rd and 4th Saturday of the Month, 11:00am-2:00pm\nGo To Details Page For More Information",
    "description": null,
    "requirements": null,
    "scraped_at": "2025-10-29T16:30:58.469951",
    "latitude": 39.7688235,
    "longitude": -75.5306554,
    "geocoded_address": "West Lea Boulevard, Harlan, Wilmington, New Castle County, Delaware, 19802, United States of America",
    "id": 31
  },
  {
    "url": "https://www.foodpantries.org/li/lcs-choice-pantry",
    "name": "(LCS) Lutheran Community Services",
    "address": "2809 Baynard Blvd",
    "city": "Wilmington",
    "state": "DE",
    "zip": "19802",
    "phone": "(302) 654-8886",
    "fax": "(302) 654-7460",
    "email": null,
    "website": "http://www.lcsde.org",
    "hours": "2nd Thursday of the month starting at 2:00pm\nGo To Details Page For More Information",
    "description": null,
    "requirements": null,
    "scraped_at": "2025-10-29T16:31:04.355271",
    "latitude": 39.7641529,
    "longitude": -75.5403611,
    "geocoded_address": "2809, Baynard Boulevard, 9th Ward Area, Concord, Wilmington, New Castle County, Delaware, 19802, United States of America",
    "id": 32
  },
  {
    "url": "https://www.foodpantries.org/li/alac-food-pantry",
    "name": "Acorn Inc",
    "address": "1607 Todds Ln",
    "city": "Wilmington",
    "state": "DE",
    "zip": "19802",
    "phone": "(302) 762-4226",
    "fax": null,
    "email": null,
    "website": "http://www.freefood.org/",
    "hours": "Monday-Friday: 10am-1pm\nGo To Details Page For More Information",
    "description": null,
    "requirements": null,
    "scraped_at": "2025-10-29T16:31:06.817626",
    "latitude": 39.7485552,
    "longitude": -75.5219703,
    "geocoded_address": "1607, Todds Lane, Riverside, Landlith, Wilmington, New Castle County, Delaware, 19802, United States of America",
    "id": 33
  },
  {
    "url": "https://www.foodpantries.org/li/church_of_our_savior_19802",
    "name": "Church of Our Savior",
    "address": "1006 East 28Th Street",
    "city": "Wilmington",
    "state": "DE",
    "zip": "19802",
    "phone": "(302) 764-4642",
    "fax": null,
    "email": null,
    "website": "http://www.freefood.org/",
    "hours": "3rd and 4th Saturday of the Month, 11:00am-2:00pm\r\n                                    \r\n                                                                        \n* Important: Please call the food pantries to confirm that the hours have not changed. We do our best to provide full information and details, but food pantries often change their hours without notifying us. We do not want you to waste your time visiting a pantry that is not open.",
    "description": null,
    "requirements": null,
    "scraped_at": "2025-10-29T16:31:09.208833",
    "latitude": 39.7512246,
    "longitude": -75.5277869,
    "geocoded_address": "1006, East 28th Street, Riverside, Wilmington, New Castle County, Delaware, 19802, United States of America",
    "id": 34
  },
  {
    "url": "https://www.foodpantries.org/li/de_wilmington_o-a-herring-community-services-food-pantry",
    "name": "Union Baptist Community Services Food Pantry",
    "address": "2801 North Pine Street",
    "city": "Wilmington",
    "state": "DE",
    "zip": "19802",
    "phone": "(302) 764-0137",
    "fax": null,
    "email": null,
    "website": "http://www.freefood.org/",
    "hours": "Monday to Thursday: 9:00 am to 11:00 amArea Served:Northeast Wilmington: 19801 & 19802 residents.Documentation Required:ID & referral, Picture I.D. for adults\nCounty or Counties Served: New Castle",
    "description": null,
    "requirements": null,
    "scraped_at": "2025-10-29T16:31:12.449323",
    "latitude": 39.743473,
    "longitude": -75.5413166,
    "geocoded_address": "North Pine Street, Upper East Side, Wilmington, New Castle County, Delaware, 19801, United States of America",
    "id": 35
  },
  {
    "url": "https://www.foodpantries.org/li/dagsboro_church_of_god_josephs_storehouse_19939",
    "name": "Dagsboro Church of God",
    "address": "32224 Dupont Boulevard",
    "city": "Dagsboro",
    "state": "DE",
    "zip": "19939",
    "phone": "(302) 732-6550",
    "fax": null,
    "email": null,
    "website": "http://www.freefood.org/",
    "hours": "By appointment onlyFor more information, please call. \nCounty or Counties Served: Sussex",
    "description": null,
    "requirements": null,
    "scraped_at": "2025-10-29T16:31:16.024025",
    "latitude": 38.5448223,
    "longitude": -75.2608882,
    "geocoded_address": "Dagsboro Church of God, 32224, Dupont Boulevard, Dagsboro, Sussex County, Delaware, 19939, United States of America",
    "id": 36
  },
  {
    "url": "https://www.foodpantries.org/li/bethel_tabernacle_church_of_god_helping_hands_food_bank_19945",
    "name": "Bethel Tabernacle Church of God, Helping Hands Food Bank",
    "address": "34180 Omar Road",
    "city": "Frankford",
    "state": "DE",
    "zip": "19945",
    "phone": "(302) 539-6768",
    "fax": null,
    "email": null,
    "website": "http://www.freefood.org/",
    "hours": "1st three Tuesdays of the month by appointment only\r\n                                    \r\n                                                                        \n* Important: Please call the food pantries to confirm that the hours have not changed. We do our best to provide full information and details, but food pantries often change their hours without notifying us. We do not want you to waste your time visiting a pantry that is not open.",
    "description": null,
    "requirements": null,
    "scraped_at": "2025-10-29T16:31:18.697621",
    "latitude": 38.518038,
    "longitude": -75.233764,
    "geocoded_address": "Frankford, Sussex County, Delaware, United States of America",
    "note": "Geocoded to city center (exact address not found)",
    "id": 37
  },
  {
    "url": "https://www.foodpantries.org/li/de_selbyville_salem-united-methodist-church-food-pantry",
    "name": "Salem United Methodist Church Food Pantry",
    "address": "29 Church Street",
    "city": "Selbyville",
    "state": "DE",
    "zip": "19975",
    "phone": "(302) 381-9312",
    "fax": null,
    "email": null,
    "website": "http://www.sumc.com/",
    "hours": "Third Saturday of the month at 8:00 am.\nCounty or Counties Served: Sussex",
    "description": null,
    "requirements": null,
    "scraped_at": "2025-10-29T16:31:22.079361",
    "latitude": 38.4609205,
    "longitude": -75.2198855,
    "geocoded_address": "29, East Church Street, Selbyville, Sussex County, Delaware, 19975, United States of America",
    "id": 38
  },
  {
    "url": "https://www.foodpantries.org/li/de_19970_mariners-bethel-food-pantry",
    "name": "Mariners Bethel Food pantry",
    "address": "81 Central Ave",
    "city": "Ocean view",
    "state": "DE",
    "zip": "19970",
    "phone": "(302) 539-9510",
    "fax": null,
    "email": null,
    "website": "http://www.freefood.org/",
    "hours": "1st three Tuesdays of the month by appointment only\nGo To Details Page For More Information",
    "description": null,
    "requirements": null,
    "scraped_at": "2025-10-29T16:31:26.289824",
    "latitude": 38.5437592,
    "longitude": -75.0915943,
    "geocoded_address": "Mariner's Bethel United Methodist Church, 81, Central Avenue, Green Briar Court, Ocean View, Sussex County, Delaware, 19970, United States of America",
    "id": 39
  },
  {
    "url": "https://www.foodpantries.org/li/bay-shore-community-church-food-pantry",
    "name": "Bay Shore Community Church Food Pantry",
    "address": "36759 Millsboro Hwy",
    "city": "Millsboro",
    "state": "DE",
    "zip": "19966",
    "phone": "(302) 238-7017",
    "fax": null,
    "email": null,
    "website": "http://www.freefood.org/",
    "hours": "Wednesdays 10:00AM to 12:00PMLocation:Millsboro Campus\nCounty or Counties Served: Sussex",
    "description": null,
    "requirements": null,
    "scraped_at": "2025-10-29T16:31:30.650112",
    "latitude": 38.4854595,
    "longitude": -75.3635237,
    "geocoded_address": "Bay Shore Community Church, 36759, Millsboro Highway, Gumboro, Millsboro, Sussex County, Delaware, 19966, United States of America",
    "id": 40
  },
  {
    "url": "https://www.foodpantries.org/li/jusst_sooup_ministrymobile_soup_kitchen_19958",
    "name": "Jusst Sooup Ministry - Mobile Soup Kitchen",
    "address": "18483 Cool Spring Rd",
    "city": "Milton",
    "state": "DE",
    "zip": "19968",
    "phone": "(302) 644-8113",
    "fax": null,
    "email": null,
    "website": "http://www.freefood.org/",
    "hours": "Monday \r\nBut follow our website during this emergency \r\n \r\nFor more information, please call.",
    "description": null,
    "requirements": null,
    "scraped_at": "2025-10-29T16:31:33.093070",
    "latitude": 38.7778049,
    "longitude": -75.3101583,
    "geocoded_address": "Milton, Sussex County, Delaware, United States of America",
    "note": "Geocoded to city center (exact address not found)",
    "id": 41
  },
  {
    "url": "https://www.foodpantries.org/li/southside_baptist_church_19901",
    "name": "Southside Baptist Church",
    "address": "4904 South Dupont Highway",
    "city": "Dover",
    "state": "DE",
    "zip": "19901",
    "phone": "(302) 697-2411",
    "fax": "(302) 698-0439",
    "email": null,
    "website": "http://www.sthside.org",
    "hours": "Friday \r\n Are for referrals from The James Williams State Service Center only. \r\n \r\nFor more information, please call.",
    "description": null,
    "requirements": null,
    "scraped_at": "2025-10-29T16:31:37.514207",
    "latitude": 39.1557412,
    "longitude": -75.5128473,
    "geocoded_address": "South Dupont Highway, Capitol Green, Dover, Kent County, Delaware, 19901, United States of America",
    "id": 42
  },
  {
    "url": "https://www.foodpantries.org/li/kent_county_community_action_administration_19904",
    "name": "Kent County Community Action",
    "address": "120 South Governors Avenue",
    "city": "Dover",
    "state": "DE",
    "zip": "19904",
    "phone": "(302) 678-1949",
    "fax": null,
    "email": null,
    "website": "http://www.freefood.org/",
    "hours": "Monday - Friday 12:00pm - 2:00pmFor more information, please call. \nCounty or Counties Served: Kent",
    "description": null,
    "requirements": "Photo ID Proof of assistance, like SNAP, medica\nGo To Details Page For More Information",
    "scraped_at": "2025-10-29T16:31:40.510981",
    "latitude": 39.1588767,
    "longitude": -75.5275198,
    "geocoded_address": "120, South Governors Avenue, Dover, Kent County, Delaware, 19904, United States of America",
    "id": 43
  },
  {
    "url": "https://www.foodpantries.org/li/calvary_assembly_of_god_food_closet_19901",
    "name": "Calvary Assembly of God Food Closet",
    "address": "1141 East Lebanon Road",
    "city": "Dover",
    "state": "DE",
    "zip": "19901",
    "phone": "(302) 697-7776",
    "fax": null,
    "email": null,
    "website": "http://www.freefood.org/",
    "hours": "Friday\r\n Are for referrals from The James Williams State Service Center only.\n\r\nFor more information, please call.",
    "description": null,
    "requirements": "Photo ID Proof of assistance, like SNAP, medica\nGo To Details Page For More Information",
    "scraped_at": "2025-10-29T16:31:42.834256",
    "latitude": 39.1303616,
    "longitude": -75.4933282,
    "geocoded_address": "East Lebanon Road, Dover, Kent County, Delaware, 19902, United States of America",
    "id": 44
  },
  {
    "url": "https://www.foodpantries.org/li/catholic_charities_basic_needs_program_kent_county_19901",
    "name": "Catholic Charities Basic Needs Program Kent County",
    "address": "2099 South Dupont Highway",
    "city": "Dover",
    "state": "DE",
    "zip": "19901",
    "phone": "(302) 674-1600",
    "fax": null,
    "email": null,
    "website": "http://www.freefood.org/",
    "hours": "Friday \r\n Are for referrals from The James Williams State Service Center only. \r\n \r\nFor more information, please call.",
    "description": null,
    "requirements": "Photo ID Proof of assistance, like SNAP, medica\nGo To Details Page For More Information",
    "scraped_at": "2025-10-29T16:31:45.732389",
    "latitude": 39.1557412,
    "longitude": -75.5128473,
    "geocoded_address": "South Dupont Highway, Capitol Green, Dover, Kent County, Delaware, 19901, United States of America",
    "id": 45
  },
  {
    "url": "https://www.foodpantries.org/li/williams_state_service_center_19901",
    "name": "Williams State Service Center",
    "address": "805 River Road",
    "city": "Dover",
    "state": "DE",
    "zip": "19901",
    "phone": "(302) 857-5000",
    "fax": null,
    "email": null,
    "website": "http://www.freefood.org/",
    "hours": "Monday - Friday 12:00pm - 2:00pm For more information, please call. \nGo To Details Page For More Information",
    "description": null,
    "requirements": "Photo ID Proof of assistance, like SNAP, medica\nGo To Details Page For More Information",
    "scraped_at": "2025-10-29T16:31:48.337986",
    "latitude": 39.1526812,
    "longitude": -75.5151222,
    "geocoded_address": "805, River Road, Capitol Green, Dover, Kent County, Delaware, 19901, United States of America",
    "id": 46
  },
  {
    "url": "https://www.foodpantries.org/li/gods_missionary_19943",
    "name": "God's Missionary Church",
    "address": "1616 Lords Corner",
    "city": "Felton",
    "state": "DE",
    "zip": "19943",
    "phone": "(302) 284-9566",
    "fax": null,
    "email": null,
    "website": "http://www.freefood.org/",
    "hours": "Tuesday, Thursday and Friday 8:30-11:30 am Wednesday 6:00pm - 7:30 pm  Thrift Store Hours:  In addition to opening during the food pantry hours, they also open Monday to Friday with limited hours.  Do\nGo To Details Page For More Information",
    "description": null,
    "requirements": null,
    "scraped_at": "2025-10-29T16:31:51.402085",
    "latitude": 39.0084464,
    "longitude": -75.5779807,
    "geocoded_address": "Felton, Kent County, Delaware, United States of America",
    "note": "Geocoded to city center (exact address not found)",
    "id": 47
  },
  {
    "url": "https://www.foodpantries.org/li/food-bank-of-delaware",
    "name": "Food Bank of Delaware",
    "address": "1040 Mattlind Way",
    "city": "Milford",
    "state": "DE",
    "zip": "19963",
    "phone": "(302) 424-3301",
    "fax": "(302) 424-4160",
    "email": null,
    "website": "https://www.fbd.org",
    "hours": "First Thursday of every month from 9:30AM - 11:30AM and from 12:30PM - 2:30PM.   They supply many food products including frozen meats for those we serve. \nGo To Details Page For More Information",
    "description": null,
    "requirements": null,
    "scraped_at": "2025-10-29T16:31:56.328647",
    "latitude": 38.9282528,
    "longitude": -75.4459606,
    "geocoded_address": "Food Bank of Delaware, 1040, Mattlind Way, Milford, Kent County, Delaware, 19963, United States of America",
    "id": 48
  },
  {
    "url": "https://www.foodpantries.org/li/de_19963_milford-church-of-god-benevolence-program",
    "name": "Milford Church of God Benevolence Program - Food Pantry",
    "address": "501 N. Walnut Street",
    "city": "Milford",
    "state": "DE",
    "zip": "19963",
    "phone": "(302) 422-9138",
    "fax": null,
    "email": null,
    "website": "http://www.freefood.org/",
    "hours": "First Thursday of every month from 9:30AM - 11:30AM and from 12:30PM - 2:30PM.  They supply many food products including frozen meats for those we serve.\nCounty or Counties Served: Sussex",
    "description": null,
    "requirements": null,
    "scraped_at": "2025-10-29T16:31:59.349029",
    "latitude": 38.918394,
    "longitude": -75.428501,
    "geocoded_address": "501, North Walnut Street, Milford, Kent County, Delaware, 19963, United States of America",
    "id": 49
  },
  {
    "url": "https://www.foodpantries.org/li/md_millington_millington-crumpton-food-pantry-of-asbury-umc",
    "name": "Millington-Crumpton Food Pantry of Asbury UMC",
    "address": "392 Cypress Street",
    "city": "Millington",
    "state": "MD",
    "zip": "21651",
    "phone": "(443) 480-0053",
    "fax": null,
    "email": null,
    "website": "http://www.freefood.org/",
    "hours": "Every Monday 9:00 am to 12:00 pmClosed when major holidays fall on MondayRequirements:Photo IDProof of assistance, like SNAP, medical assistance, fuel assistance, etc.Emergency food is available for those who don’t qualify for the regular pantry.\nCounty or Counties Served: Queen Annes",
    "description": null,
    "requirements": "Photo IDProof of assistance, like SNAP, medical assistance, fuel assistance, etc.Emergency food is available for those who don’t qualify for the regular pantry.\nCounty or Counties Served: Queen Annes",
    "scraped_at": "2025-10-29T16:32:03.812845",
    "latitude": 39.2587364,
    "longitude": -75.838047,
    "geocoded_address": "392, Cypress Street, Millington, Kent County, Maryland, 21651, United States of America",
    "id": 50
  },
  {
    "url": "https://www.foodpantries.org/li/milford_state_service_center_19963",
    "name": "Milford State Service Center",
    "address": "11-13 Church Avenue",
    "city": "Milford",
    "state": "DE",
    "zip": "19963",
    "phone": "(302) 424-7230",
    "fax": null,
    "email": null,
    "website": "http://www.freefood.org/",
    "hours": "First Thursday of every month from 9:30AM - 11:30AM and from 12:30PM - 2:30PM.   They supply many food products including frozen meats for those we serve. \nGo To Details Page For More Information",
    "description": null,
    "requirements": null,
    "scraped_at": "2025-10-29T16:32:06.275281",
    "latitude": 38.9130453,
    "longitude": -75.4278733,
    "geocoded_address": "Milford, Sussex County, Delaware, United States of America",
    "note": "Geocoded to city center (exact address not found)",
    "id": 51
  },
  {
    "url": "https://www.foodpantries.org/li/lawrence-township-commodities-ltfcs",
    "name": "Lawrence Township Commodities (LTFCS)",
    "address": "93 Maple avenue",
    "city": "Cedarville",
    "state": "NJ",
    "zip": "08311",
    "phone": "(856) 367-1833",
    "fax": null,
    "email": null,
    "website": "http://www.freefood.org/",
    "hours": "The 3rd Saturday of the month\r\n 9:00am to 2:00pm",
    "description": null,
    "requirements": "Please bring ID and qualifying documentation, which consists of one of the following:\r\n1. Temporary assistance to needy families.\r\n2. Food stamp program.\r\n3. Supplemental Security Income (SSI).\r\n4. Women, infants and children (WIC).\r\n5. Medicaid.\r\n6. Low income per current state guidelines.\r\n7. Disaster.\n\r\nFor more information, please call. \nCounty or Counties Served: Cumberland",
    "scraped_at": "2025-10-29T16:32:12.126341",
    "latitude": 39.3326415,
    "longitude": -75.199494,
    "geocoded_address": "93, Maple Avenue, Cedarville, Lawrence Township, Cumberland County, New Jersey, 08311, United States of America",
    "id": 52
  },
  {
    "url": "https://www.foodpantries.org/li/md_ridgely_martins-house-and-barn-food-pantry",
    "name": "Martin's House and Barn Food Pantry and Thrift Store",
    "address": "14374 Benedictine Lane",
    "city": "Ridgely",
    "state": "MD",
    "zip": "21660",
    "phone": "(410) 634-2537",
    "fax": null,
    "email": null,
    "website": "http://www.freefood.org/",
    "hours": "Tuesday, Thursday and Friday 8:30-11:30 amWednesday 6:00pm - 7:30 pmThrift Store Hours:In addition to opening during the food pantry hours, they also open Monday to Friday with limited hours. Donations:Accepted every day in their drop-off box at the rear of the Thrift Store, or by calling for an appointment to drop off during operating hours.",
    "description": null,
    "requirements": "Photo ID Proof of assistance, like SNAP, medica\nGo To Details Page For More Information",
    "scraped_at": "2025-10-29T16:32:16.951440",
    "latitude": 38.9480656,
    "longitude": -75.8848665,
    "geocoded_address": "Ridgely, Caroline County, Maryland, 21660, United States of America",
    "note": "Geocoded to city center (exact address not found)",
    "id": 53
  },
  {
    "url": "https://www.foodpantries.org/li/catholic_charities_casa_san_francisco_emergency_food_pantry_19947",
    "name": "Catholic Charities -  Casa San Francisco Emergency Food Pantry",
    "address": "127 Broad Street",
    "city": "Milton",
    "state": "DE",
    "zip": "19947",
    "phone": "(302) 684-8694",
    "fax": null,
    "email": null,
    "website": "http://www.freefood.org/",
    "hours": "Monday \r\nBut follow our website during this emergency \r\n \r\nFor more information, please call.",
    "description": null,
    "requirements": null,
    "scraped_at": "2025-10-29T16:32:20.244312",
    "latitude": 38.7793874,
    "longitude": -75.3134852,
    "geocoded_address": "127, Broad Street, Milton, Sussex County, Delaware, 19968, United States of America",
    "id": 54
  },
  {
    "url": "https://www.foodpantries.org/li/de_19968_milton-community-food-panty",
    "name": "Milton Community Food Panty",
    "address": "114 Federal Street",
    "city": "Milton",
    "state": "DE",
    "zip": "19968",
    "phone": "(302) 278-9557",
    "fax": null,
    "email": null,
    "website": "http://www.freefood.org/",
    "hours": "Monday\r\nBut follow our website during this emergency\n\r\nFor more information, please call. \nCounty or Counties Served: Sussex",
    "description": null,
    "requirements": null,
    "scraped_at": "2025-10-29T16:32:24.165834",
    "latitude": 38.7769407,
    "longitude": -75.3106417,
    "geocoded_address": "114, Federal Street, Milton, Sussex County, Delaware, 19968, United States of America",
    "id": 55
  },
  {
    "url": "https://www.foodpantries.org/li/salvation_army_salem_08079",
    "name": "Salvation Army - Salem",
    "address": "115 West Broadway",
    "city": "Salem",
    "state": "NJ",
    "zip": "08079",
    "phone": "(856) 935-0305",
    "fax": null,
    "email": null,
    "website": "http://www.freefood.org/",
    "hours": "4th Saturday of every month but for November and December they hold the pantry on the 3rd week of the month.\nGo To Details Page For More Information",
    "description": null,
    "requirements": null,
    "scraped_at": "2025-10-29T16:32:26.943714",
    "latitude": 39.5726842,
    "longitude": -75.4695853,
    "geocoded_address": "115, West Broadway, Salem, Salem County, New Jersey, 08079, United States of America",
    "id": 56
  },
  {
    "url": "https://www.foodpantries.org/li/tri_county_community_action_partnership_08079",
    "name": "Tri County Community Action Partnership",
    "address": "14 New Market Street",
    "city": "Salem",
    "state": "NJ",
    "zip": "08079",
    "phone": "(856) 935-0944",
    "fax": null,
    "email": null,
    "website": "http://www.freefood.org/",
    "hours": "4th Saturday of every month but for November and December they hold the pantry on the 3rd week of the month.\nGo To Details Page For More Information",
    "description": null,
    "requirements": null,
    "scraped_at": "2025-10-29T16:32:29.389474",
    "latitude": 39.5709866,
    "longitude": -75.4674127,
    "geocoded_address": "14, New Market Street, Salem, Salem County, New Jersey, 08079, United States of America",
    "id": 57
  },
  {
    "url": "https://www.foodpantries.org/li/peoples_baptist_church_food_closet_19720",
    "name": "Peoples Baptist Church, Food Closet",
    "address": "50 South Street",
    "city": "New Castle",
    "state": "DE",
    "zip": "19720",
    "phone": "(302) 658-8156",
    "fax": null,
    "email": null,
    "website": "http://www.freefood.org/",
    "hours": "Monday - Friday \r\n9:00am to 12:30pm \r\n \r\nFor more information, please call.",
    "description": null,
    "requirements": null,
    "scraped_at": "2025-10-29T16:32:31.965578",
    "latitude": 39.714758,
    "longitude": -75.544596,
    "geocoded_address": "50, South Street, Hamilton Park, New Castle County, Delaware, 19720, United States of America",
    "id": 58
  },
  {
    "url": "https://www.foodpantries.org/li/delawarr_state_service_center_19720",
    "name": "DeLaWarr State Service Center",
    "address": "500 Rogers Road",
    "city": "New Castle",
    "state": "DE",
    "zip": "19720",
    "phone": "(302) 577-2970",
    "fax": null,
    "email": null,
    "website": "http://www.freefood.org/",
    "hours": "Monday - Friday\r\n9:00am to 12:30pm\n\r\nFor more information, please call.",
    "description": null,
    "requirements": null,
    "scraped_at": "2025-10-29T16:32:36.243432",
    "latitude": 39.712992,
    "longitude": -75.549893,
    "geocoded_address": "500, Rogers Road, Hazeldell, New Castle County, Delaware, 19720, United States of America",
    "id": 59
  },
  {
    "url": "https://www.foodpantries.org/li/asbury-umc-fatima-food-closet",
    "name": "Asbury UMC - Fatima Food Closet",
    "address": "300 East Basin Road",
    "city": "New Castle",
    "state": "DE",
    "zip": "19720",
    "phone": null,
    "fax": null,
    "email": null,
    "website": "http://www.freefood.org/",
    "hours": "The 3rd Thursday of the month \r\n2:00pm -4:00pm \r\n \r\nFor more information, please call.",
    "description": null,
    "requirements": "Photo ID \r\n \r\n Mobile Pantry Hours: \r\nThe 3rd Thursday of the month \r\n2:00pm -4:00pm \r\n \r\nFor more information, please call.",
    "scraped_at": "2025-10-29T16:32:39.693782",
    "latitude": 39.678874,
    "longitude": -75.589137,
    "geocoded_address": "300, East Basin Road, Penn Acres, Penn Acres South, New Castle County, Delaware, 19720, United States of America",
    "id": 60
  },
  {
    "url": "https://www.foodpantries.org/li/nj_08070_tri-county-community-food-pantry",
    "name": "Tri-County Community Food Pantry Pennsville, NJ",
    "address": "172 Churchtown road",
    "city": "Pennsville",
    "state": "NJ",
    "zip": "08070",
    "phone": "(856) 517-1077",
    "fax": null,
    "email": null,
    "website": "http://www.freefood.org/",
    "hours": "4th Saturday of every month but for November and December they hold the pantry on the 3rd week of the month.\r\n                                    Volunteering Information:If you would like to volunteer please email Venus @ tccfoodpantry24@gmail.com. we are always looking for volunteers to help make boxes, sort food, and help hand food out.  \nCounty or Counties Served: Salem",
    "description": null,
    "requirements": null,
    "scraped_at": "2025-10-29T16:32:42.503011",
    "latitude": 39.6643962,
    "longitude": -75.4914198,
    "geocoded_address": "172, Churchtown Road, Glenside, Pennsville Township, Salem County, New Jersey, 08070, United States of America",
    "id": 61
  },
  {
    "url": "https://www.foodpantries.org/li/neighborhood_house_family_services_19801",
    "name": "Neighborhood House, Family Services",
    "address": "1218 B Street",
    "city": "Wilmington",
    "state": "DE",
    "zip": "19801",
    "phone": "(302) 652-3928",
    "fax": null,
    "email": null,
    "website": "http://www.freefood.org/",
    "hours": "Monday-Friday10:00am-3:30pm\r\n                                    \r\n                                    County or Counties Served: New Castle",
    "description": null,
    "requirements": null,
    "scraped_at": "2025-10-29T16:32:45.080608",
    "latitude": 39.728651,
    "longitude": -75.542965,
    "geocoded_address": "1218, B Street, Southbridge, South Wilmington, Wilmington, New Castle County, Delaware, 19801, United States of America",
    "id": 62
  },
  {
    "url": "https://www.foodpantries.org/li/mount_joy_united_methodist_church_food_closet_19801",
    "name": "Mount Joy United Methodist Church, Food Closet",
    "address": "455 Townsend Street",
    "city": "Wilmington",
    "state": "DE",
    "zip": "19801",
    "phone": "(302) 655-7751",
    "fax": null,
    "email": null,
    "website": "http://www.freefood.org/",
    "hours": "Sundays 8:00am - 12:00pm\nCounty or Counties Served: New Castle",
    "description": null,
    "requirements": null,
    "scraped_at": "2025-10-29T16:32:50.529237",
    "latitude": 39.7300279,
    "longitude": -75.544496,
    "geocoded_address": "455, Townsend Street, Southbridge, South Wilmington, Wilmington, New Castle County, Delaware, 19801, United States of America",
    "id": 63
  },
  {
    "url": "https://www.foodpantries.org/li/sunday-breakfast-mission",
    "name": "Sunday Breakfast Mission",
    "address": "110 N. Poplar Street",
    "city": "Wilmington",
    "state": "DE",
    "zip": "19801",
    "phone": "(302) 652-8314",
    "fax": null,
    "email": null,
    "website": "http://www.freefood.org/",
    "hours": "Monday to Friday 9:00am-11:00am\nGo To Details Page For More Information",
    "description": null,
    "requirements": null,
    "scraped_at": "2025-10-29T16:32:54.418876",
    "latitude": 39.7382411,
    "longitude": -75.5476464,
    "geocoded_address": "Poplar Street, Downtown, Wilmington, New Castle County, Delaware, 19801, United States of America",
    "id": 64
  },
  {
    "url": "https://www.foodpantries.org/li/salvation_army_family_services-new_castle_county_19801",
    "name": "Salvation Army, Family Services-New Castle County",
    "address": "104 West 5th Street",
    "city": "Wilmington",
    "state": "DE",
    "zip": "19801",
    "phone": "(302) 472-0750",
    "fax": null,
    "email": null,
    "website": "http://www.freefood.org/",
    "hours": "Monday to Friday 9:00am-11:00am\r\n                                    \r\n                                                                        \n* Important: Please call the food pantries to confirm that the hours have not changed. We do our best to provide full information and details, but food pantries often change their hours without notifying us. We do not want you to waste your time visiting a pantry that is not open.",
    "description": null,
    "requirements": null,
    "scraped_at": "2025-10-29T16:32:57.810676",
    "latitude": 39.7413759,
    "longitude": -75.5515644,
    "geocoded_address": "104, West 5th Street, Quaker Hill, Wilmington, New Castle County, Delaware, 19801, United States of America",
    "id": 65
  },
  {
    "url": "https://www.foodpantries.org/li/rick_vanstory_resource_center_19801",
    "name": "Rick VanStory Resource Center",
    "address": "617 Shipley Street",
    "city": "Wilmington",
    "state": "DE",
    "zip": "19801",
    "phone": "(302) 691-7946",
    "fax": null,
    "email": null,
    "website": "http://www.freefood.org/",
    "hours": "Monday to Friday 9:00am-11:00am\nGo To Details Page For More Information",
    "description": null,
    "requirements": null,
    "scraped_at": "2025-10-29T16:33:00.859633",
    "latitude": 39.7423634,
    "longitude": -75.5508223,
    "geocoded_address": "617, Shipley Street, LOMA, Wilmington, New Castle County, Delaware, 19801, United States of America",
    "id": 66
  },
  {
    "url": "https://www.foodpantries.org/li/corpus-christi-parish-food-pantry",
    "name": "Corpus Christi Parish Food Pantry",
    "address": "905 New Road",
    "city": "Wilmington",
    "state": "DE",
    "zip": "19805",
    "phone": "(302) 598-6599",
    "fax": null,
    "email": null,
    "website": "http://www.freefood.org/",
    "hours": "Monday evenings at 6:15 p.m.\r\n                                    \r\n                                    County or Counties Served: New Castle",
    "description": null,
    "requirements": null,
    "scraped_at": "2025-10-29T16:33:02.981339",
    "latitude": 39.741167,
    "longitude": -75.5826163,
    "geocoded_address": "New Road, Canby Park, Canby Park Estates, Wilmington, New Castle County, Delaware, 19805, United States of America",
    "id": 67
  },
  {
    "url": "https://www.foodpantries.org/li/alac-food-pantry111",
    "name": "ALAC Food Pantry",
    "address": "111 N Cleveland Ave.",
    "city": "Wilmington",
    "state": "DE",
    "zip": "19805",
    "phone": "(302) 778-2522",
    "fax": null,
    "email": null,
    "website": "http://www.freefood.org/",
    "hours": "The 3rd Friday of the Month 9:00am - 12:00pmFor more information, please call. \nCounty or Counties Served: New Castle",
    "description": null,
    "requirements": null,
    "scraped_at": "2025-10-29T16:33:05.942870",
    "latitude": 39.7512041,
    "longitude": -75.5848027,
    "geocoded_address": "111, North Cleveland Avenue, Greenhill, Wawaset Park, Wilmington, New Castle County, Delaware, 19805, United States of America",
    "id": 68
  },
  {
    "url": "https://www.foodpantries.org/li/catholic_charities_basic_needs_program_new_castle_county_19805",
    "name": "Catholic Charities Basic Needs Program New Castle County",
    "address": "2601 W. 4Th Street",
    "city": "Wilmington",
    "state": "DE",
    "zip": "19805",
    "phone": "(302) 655-9624",
    "fax": null,
    "email": null,
    "website": "http://www.freefood.org/",
    "hours": "Monday-Friday, 8:30am-4:30pm\r\n                                    \r\n                                                                        \n* Important: Please call the food pantries to confirm that the hours have not changed. We do our best to provide full information and details, but food pantries often change their hours without notifying us. We do not want you to waste your time visiting a pantry that is not open.",
    "description": null,
    "requirements": null,
    "scraped_at": "2025-10-29T16:33:10.454539",
    "latitude": 39.752069,
    "longitude": -75.579609,
    "geocoded_address": "2601, West 4th Street, Wawaset Heights, Wawaset Park, Wilmington, New Castle County, Delaware, 19805, United States of America",
    "id": 69
  },
  {
    "url": "https://www.foodpantries.org/li/west_end_neighborhood_house_crisis_alleviation_program_19805",
    "name": "West End Neighborhood House, Crisis Alleviation Program",
    "address": "710 North Lincoln Street",
    "city": "Wilmington",
    "state": "DE",
    "zip": "19805",
    "phone": "(302) 658-4171",
    "fax": "(302) 888-5314",
    "email": null,
    "website": "http://www.freefood.org/",
    "hours": "Monday-Friday, 8:30am-4:30pm\nGo To Details Page For More Information",
    "description": null,
    "requirements": null,
    "scraped_at": "2025-10-29T16:33:13.643324",
    "latitude": 39.7511475,
    "longitude": -75.5701015,
    "geocoded_address": "710, North Lincoln Street, Little Italy, Wawaset Park, Wilmington, New Castle County, Delaware, 19805, United States of America",
    "id": 70
  },
  {
    "url": "https://www.foodpantries.org/li/maryland-food-bank-inc-salisbury-division",
    "name": "Maryland Food Bank Inc Salisbury Division",
    "address": "28500 Owens Branch Rd",
    "city": "Salisbury",
    "state": "MD",
    "zip": "21801",
    "phone": "(410) 742-0050",
    "fax": null,
    "email": null,
    "website": "http://www.freefood.org/",
    "hours": "Wednesdays 10:00AM to 12:00PM  Location: Millsboro Campus \nGo To Details Page For More Information",
    "description": null,
    "requirements": null,
    "scraped_at": "2025-10-29T16:33:16.323716",
    "latitude": 38.366027,
    "longitude": -75.6009964,
    "geocoded_address": "Salisbury, Wicomico County, Maryland, United States of America",
    "note": "Geocoded to city center (exact address not found)",
    "id": 71
  },
  {
    "url": "https://www.foodpantries.org/li/sharon_temple_seventh-day_adventist_church_food_closet_19802",
    "name": "Sharon Temple Seventh-Day Adventist Church, Food Closet",
    "address": "2001 Washington Street",
    "city": "Wilmington",
    "state": "DE",
    "zip": "19802",
    "phone": "(302) 655-2461",
    "fax": null,
    "email": null,
    "website": "http://www.freefood.org/",
    "hours": "2nd Thursday of the month starting at 2:00pm\nGo To Details Page For More Information",
    "description": null,
    "requirements": null,
    "scraped_at": "2025-10-29T16:33:20.453950",
    "latitude": 39.754723,
    "longitude": -75.543946,
    "geocoded_address": "2001, North Washington Street, Southeast 9th Ward, Wilmington, New Castle County, Delaware, 19802, United States of America",
    "id": 72
  },
  {
    "url": "https://www.foodpantries.org/li/saint_patricks_center_food_security_initiative_19801",
    "name": "Saint Patricks Center, Food Security Initiative",
    "address": "107 East 14Th Street",
    "city": "Wilmington",
    "state": "DE",
    "zip": "19801",
    "phone": "(302) 652-6219",
    "fax": null,
    "email": null,
    "website": "http://www.freefood.org/",
    "hours": "Monday and Friday, 1:00pm -3:00pm\r\n                                    \r\n                                                                        \n* Important: Please call the food pantries to confirm that the hours have not changed. We do our best to provide full information and details, but food pantries often change their hours without notifying us. We do not want you to waste your time visiting a pantry that is not open.",
    "description": null,
    "requirements": null,
    "scraped_at": "2025-10-29T16:33:24.065740",
    "latitude": 39.7487504,
    "longitude": -75.5443104,
    "geocoded_address": "107, East 14th Street, East Brandywine Historic District, Wilmington, New Castle County, Delaware, 19801, United States of America",
    "id": 73
  },
  {
    "url": "https://www.foodpantries.org/li/o.a._herring_community_services_administration_19802",
    "name": "Union Baptist Community Service",
    "address": "2616 Carter Street",
    "city": "Wilmington",
    "state": "DE",
    "zip": "19802",
    "phone": "(302) 762-9103",
    "fax": null,
    "email": null,
    "website": "http://unionbc.org",
    "hours": "Monday - Thursday\r\n 9:00am -11:00am\r\nThursday\r\n 1:00am - 2:30pm\n\r\nFor more information, please call. \nCounty or Counties Served: New Castle",
    "description": null,
    "requirements": null,
    "scraped_at": "2025-10-29T16:33:27.114074",
    "latitude": 39.753802,
    "longitude": -75.5344412,
    "geocoded_address": "2616, Carter Street, Price’s Run, Wilmington, New Castle County, Delaware, 19802, United States of America",
    "id": 74
  },
  {
    "url": "https://www.foodpantries.org/li/hanover_presbyterian_church_clothing_closet_19802",
    "name": "Hanover Presbyterian Church Clothing Closet",
    "address": "1801 North Jefferson Street",
    "city": "Wilmington",
    "state": "DE",
    "zip": "19802",
    "phone": "(302) 658-5114",
    "fax": null,
    "email": null,
    "website": "http://www.freefood.org/",
    "hours": "2nd Thursday of the month starting at 2:00pm\nGo To Details Page For More Information",
    "description": null,
    "requirements": null,
    "scraped_at": "2025-10-29T16:33:29.965496",
    "latitude": 39.754821,
    "longitude": -75.546278,
    "geocoded_address": "1801, North Jefferson Street, Baynard Boulevard Historic District, Concord, Wilmington, New Castle County, Delaware, 19802, United States of America",
    "id": 75
  },
  {
    "url": "https://www.foodpantries.org/li/kingswood_community_center_community_and_family_services_19802",
    "name": "Kingswood Community Center, Community and Family Services",
    "address": "2300 Bowers Street",
    "city": "Wilmington",
    "state": "DE",
    "zip": "19802",
    "phone": "(302) 764-9022",
    "fax": null,
    "email": null,
    "website": "http://www.freefood.org/",
    "hours": "Monday-Friday: 10am-1pm\r\n                                    \r\n                                                                        \n* Important: Please call the food pantries to confirm that the hours have not changed. We do our best to provide full information and details, but food pantries often change their hours without notifying us. We do not want you to waste your time visiting a pantry that is not open.",
    "description": null,
    "requirements": null,
    "scraped_at": "2025-10-29T16:33:32.536452",
    "latitude": 39.7464528,
    "longitude": -75.5272763,
    "geocoded_address": "Kingswood Community Center, 2300, Bowers Street, Riverside, Landlith, Wilmington, New Castle County, Delaware, 19802, United States of America",
    "id": 76
  },
  {
    "url": "https://www.foodpantries.org/li/lacc_family_support_services_19805",
    "name": "LACC, Family Support Services",
    "address": "403 North Van Buren Street",
    "city": "Wilmington",
    "state": "DE",
    "zip": "19805",
    "phone": "(302) 655-7338",
    "fax": null,
    "email": null,
    "website": "http://www.freefood.org/",
    "hours": "Tuesday and Thursday: 1:00-4:00pm\r\n                                    \r\n                                                                        \n* Important: Please call the food pantries to confirm that the hours have not changed. We do our best to provide full information and details, but food pantries often change their hours without notifying us. We do not want you to waste your time visiting a pantry that is not open.",
    "description": null,
    "requirements": null,
    "scraped_at": "2025-10-29T16:33:36.322619",
    "latitude": 39.745057,
    "longitude": -75.561802,
    "geocoded_address": "403, North Van Buren Street, Cool Spring, Wilmington, New Castle County, Delaware, 19805, United States of America",
    "id": 77
  },
  {
    "url": "https://www.foodpantries.org/li/life_program_mobile_pantries_shiloh_baptist_church_19802",
    "name": "LIFE Program, Mobile Pantries - Shiloh Baptist Church",
    "address": "W 23rd and N Washington Streets",
    "city": "Wilmington",
    "state": "DE",
    "zip": "19802",
    "phone": null,
    "fax": null,
    "email": null,
    "website": "http://lcsde.org/",
    "hours": "2nd Thursday of the month starting at 2:00pm\r\n                                    \r\n                                                                        \n* Important: Please call the food pantries to confirm that the hours have not changed. We do our best to provide full information and details, but food pantries often change their hours without notifying us. We do not want you to waste your time visiting a pantry that is not open.",
    "description": null,
    "requirements": null,
    "scraped_at": "2025-10-29T16:33:38.912316",
    "latitude": 39.7459468,
    "longitude": -75.546589,
    "geocoded_address": "Wilmington, New Castle County, Delaware, United States of America",
    "note": "Geocoded to city center (exact address not found)",
    "id": 78
  },
  {
    "url": "https://www.foodpantries.org/li/ministry_of_caring_samaritan_outreach_19802",
    "name": "Ministry of Caring, Samaritan Outreach",
    "address": "1410 North Claymont Street",
    "city": "Wilmington",
    "state": "DE",
    "zip": "19802",
    "phone": "(302) 594-9476",
    "fax": null,
    "email": null,
    "website": "http://www.freefood.org/",
    "hours": "By appointment\r\n                                    \r\n                                                                        \n* Important: Please call the food pantries to confirm that the hours have not changed. We do our best to provide full information and details, but food pantries often change their hours without notifying us. We do not want you to waste your time visiting a pantry that is not open.",
    "description": null,
    "requirements": null,
    "scraped_at": "2025-10-29T16:33:42.915284",
    "latitude": 39.7434332,
    "longitude": -75.5322369,
    "geocoded_address": "1410, North Claymont Street, 11th St. Bridge, Landlith, Wilmington, New Castle County, Delaware, 19802, United States of America",
    "id": 79
  },
  {
    "url": "https://www.foodpantries.org/li/mother-africa-union-church",
    "name": "Mother Africa Union Church",
    "address": "812 North Franklin Street",
    "city": "Wilmington",
    "state": "DE",
    "zip": "19806",
    "phone": "(302) 559-1912",
    "fax": null,
    "email": null,
    "website": "http://www.freefood.org/",
    "hours": "Tuesday and Thursday: 1:00-4:00pm\nGo To Details Page For More Information",
    "description": null,
    "requirements": null,
    "scraped_at": "2025-10-29T16:33:45.873993",
    "latitude": 39.7495182,
    "longitude": -75.5609929,
    "geocoded_address": "Mother AUFCMP Church, 812, North Franklin Street, Cool Spring, Wilmington, New Castle County, Delaware, 12806, United States of America",
    "id": 80
  },
  {
    "url": "https://www.foodpantries.org/li/st-stephens-lutheran-church-wilmington",
    "name": "St. Stephen's Lutheran Church",
    "address": "1301 N. Broom Street",
    "city": "Wilmington",
    "state": "DE",
    "zip": "19806",
    "phone": "(302) 652-7623",
    "fax": null,
    "email": null,
    "website": "http://www.freefood.org/",
    "hours": "Monday, Tuesday, Thursday and Friday9:00am - 12:00pmWednesday 5:00pm - 7:00pm\nCounty or Counties Served: New Castle",
    "description": null,
    "requirements": null,
    "scraped_at": "2025-10-29T16:33:48.380000",
    "latitude": 39.754232,
    "longitude": -75.560521,
    "geocoded_address": "1301, North Broom Street, Delaware Avenue, Wilmington, New Castle County, Delaware, 19806, United States of America",
    "id": 81
  },
  {
    "url": "https://www.foodpantries.org/li/de_19801_grace-united-methodist-church",
    "name": "Grace United Methodist Church Food Pantry",
    "address": "900 North Washington Street",
    "city": "Wilmington",
    "state": "DE",
    "zip": "19801",
    "phone": "(302) 655-8847",
    "fax": null,
    "email": null,
    "website": "http://www.freefood.org/",
    "hours": "Quarterly on Saturdays at 11:00am.Notes:Drive up or walk up and receive Food, gently used clothing and feminine Hygiene products free of charge.Simply bring a Delaware issued Driver's License or State ID.\nVolunteering Information:Volunteers: feel free to contact the Community Outreach Director Andre' Dion Wills at the above email address. \nCounty or Counties Served: New Castle",
    "description": null,
    "requirements": null,
    "scraped_at": "2025-10-29T16:33:51.058109",
    "latitude": 39.7463566,
    "longitude": -75.5516372,
    "geocoded_address": "Grace United Methodist Church, 900, North Washington Street, Quaker Hill Historic District, Wilmington, New Castle County, Delaware, 19899, United States of America",
    "id": 82
  }
]