[
  {
    "url": "https://www.foodpantries.org/li/aiea_seventh-day_adventist_church_96701",
    "name": "Aiea Seventh-day Adventist Church",
    "address": "99 Moanalua Road",
    "city": "Aiea",
    "state": "HI",
    "zip": "96701",
    "phone": null,
    "fax": null,
    "email": null,
    "website": "http://www.freefood.org/",
    "hours": "By appointment\r\n                                    \r\n                                                                        \n* Important: Please call the food pantries to confirm that the hours have not changed. We do our best to provide full information and details, but food pantries often change their hours without notifying us. We do not want you to waste your time visiting a pantry that is not open.",
    "description": null,
    "requirements": "Referral required by Welfare Office/Health Nurse. No walk-ins. \r\n \r\nPantry Hours: \r\n Call ahead - verify availability, dates, and times for distribution. \r\n \r\nFor more information, please call.",
    "scraped_at": "2025-10-30T13:14:23.958244",
    "latitude": 21.3776343,
    "longitude": -157.9312827,
    "geocoded_address": "Wendy's, 99-245, Moanalua Road, \u02bbAiea Heights, Aiea, Honolulu County, Hawaii, 96701, United States of America"
  },
  {
    "url": "https://www.foodpantries.org/li/eleele_baptist_church_96705",
    "name": "Eleele Baptist Church",
    "address": "339 Mehana Road",
    "city": "Eleele",
    "state": "HI",
    "zip": "96705",
    "phone": null,
    "fax": null,
    "email": null,
    "website": "http://www.freefood.org/",
    "hours": "Call Ahead\r\n                                    \r\n                                                                        \n* Important: Please call the food pantries to confirm that the hours have not changed. We do our best to provide full information and details, but food pantries often change their hours without notifying us. We do not want you to waste your time visiting a pantry that is not open.",
    "description": null,
    "requirements": "Brin\nGo To Details Page For More Information",
    "scraped_at": "2025-10-30T13:14:26.602801",
    "latitude": 21.9066237,
    "longitude": -159.5804958,
    "geocoded_address": "339, Mehana Road, \u02bbEle\u02bbele, Port Allen, Kaua\u02bbi County, Hawaii, 96705, United States of America"
  },
  {
    "url": "https://www.foodpantries.org/li/ewa_beach_united_methodist_church_96706",
    "name": "Ewa Beach UMC Loaves and Fishes",
    "address": "91-660 Pohakupuna Road",
    "city": "Ewa Beach",
    "state": "HI",
    "zip": "96706",
    "phone": "(808) 689-0153",
    "fax": null,
    "email": null,
    "website": "http://www.freefood.org/",
    "hours": "The 2nd and 4th Wednesday of the month8:00am -  10:00am  Additionally, from 7:30 to 8:30 a.m. on the days the food bank is  open, there is a freebreakfast with prayer with the Pastor.Requirements: A pictureID is required. For more information, please call. \nCounty or Counties Served: Honolulu",
    "description": null,
    "requirements": "A pictureID is required. For more information, please call. \nCounty or Counties Served: Honolulu",
    "scraped_at": "2025-10-30T13:14:28.883161",
    "latitude": 21.315603,
    "longitude": -158.008804,
    "geocoded_address": "Ewa Beach, Honolulu County, Hawaii, 96706, United States of America",
    "note": "Geocoded to city center (exact address not found)"
  },
  {
    "url": "https://www.foodpantries.org/li/ewa_beach_baptist_church_96706",
    "name": "Ewa Beach Baptist Church",
    "address": "91-743 Pohakupuna Road",
    "city": "Ewa Beach",
    "state": "HI",
    "zip": "96706",
    "phone": "(808) 689-8888",
    "fax": null,
    "email": null,
    "website": "http://www.freefood.org/",
    "hours": "The last Saturday of every month10:00 am - 11:00 amFor more information, please call. \nCounty or Counties Served: Honolulu",
    "description": null,
    "requirements": "Picture ID required. Pantry Hours: The last Saturday of every month10:00 am - 11:00 amFor more information, please call. \nCounty or Counties Served: Honolulu",
    "scraped_at": "2025-10-30T13:14:33.697577",
    "latitude": 21.315603,
    "longitude": -158.008804,
    "geocoded_address": "Ewa Beach, Honolulu County, Hawaii, 96706, United States of America",
    "note": "Geocoded to city center (exact address not found)"
  },
  {
    "url": "https://www.foodpantries.org/li/north_shore_christian_fellowship_fresh_produce_distribution_96712",
    "name": "North Shore Christian Fellowship Fresh Produce Distribution",
    "address": "66-437 Kamehameha Hwy",
    "city": "Haleiwa",
    "state": "HI",
    "zip": "96712",
    "phone": "(808) 637-6353",
    "fax": null,
    "email": null,
    "website": "http://www.freefood.org/",
    "hours": "4th Friday of every month 11:30amFor more information, please call. \nCounty or Counties Served: Honolulu",
    "description": null,
    "requirements": "Registration is required. Forms are available at 10:00am on site ID Proof of residence. \nGo To Details Page For More Information",
    "scraped_at": "2025-10-30T13:14:37.312255",
    "latitude": 21.58206,
    "longitude": -158.104939,
    "geocoded_address": "HE>i, 66-437, Kamehameha Highway, Old Town Hale\u02bbiwa, Haleiwa, Honolulu County, Hawaii, 96712, United States of America"
  },
  {
    "url": "https://www.foodpantries.org/li/north_shore_christian_fellowship_north_shore_community_foodb_96712",
    "name": "North Shore Christian Fellowship North Shore Community Food Bank",
    "address": "67-437 Kamehameha Hwy",
    "city": "Haleiwa",
    "state": "HI",
    "zip": "96712",
    "phone": "(808) 291-9628",
    "fax": null,
    "email": null,
    "website": "https://nscf.church",
    "hours": "Last Tuesday of every month\r\n10:00am - 11:00am\n\r\nFor more information, please call.",
    "description": null,
    "requirements": "Registration is required. Forms are available at 10:00am on site ID Proof of residence. \nGo To Details Page For More Information",
    "scraped_at": "2025-10-30T13:14:39.921448",
    "latitude": 21.5817934,
    "longitude": -158.1050145,
    "geocoded_address": "Haleiwa, Honolulu County, Hawaii, 96712, United States of America",
    "note": "Geocoded to city center (exact address not found)"
  },
  {
    "url": "https://www.foodpantries.org/li/salvation_army_hanapepe_corps_96716",
    "name": "Salvation Army - Hanapepe Corps",
    "address": "4465 Puolo Road",
    "city": "Hanapepe",
    "state": "HI",
    "zip": "96716",
    "phone": null,
    "fax": null,
    "email": null,
    "website": "http://www.freefood.org/",
    "hours": "Intake: Tuesdays 1 pm - 4 pm\r\n                                    \r\n                                                                        \n* Important: Please call the food pantries to confirm that the hours have not changed. We do our best to provide full information and details, but food pantries often change their hours without notifying us. We do not want you to waste your time visiting a pantry that is not open.",
    "description": null,
    "requirements": "Brin\nGo To Details Page For More Information",
    "scraped_at": "2025-10-30T13:14:42.999363",
    "latitude": 21.9074956,
    "longitude": -159.5927452,
    "geocoded_address": "4465, Puolo Road, Hanapepe, Kaua\u02bbi County, Hawaii, 96716, United States of America"
  },
  {
    "url": "https://www.foodpantries.org/li/kama_lama_lama_o_keao_church_96717",
    "name": "Kama Lama Lama O Keao Church",
    "address": "53-842 Kamehameha Hwy",
    "city": "Hauula",
    "state": "HI",
    "zip": "96717",
    "phone": null,
    "fax": null,
    "email": null,
    "website": "http://www.freefood.org/",
    "hours": "1st Wednesday of every month: 9 am - 2 pm\r\n                                    \r\n                                                                        \n* Important: Please call the food pantries to confirm that the hours have not changed. We do our best to provide full information and details, but food pantries often change their hours without notifying us. We do not want you to waste your time visiting a pantry that is not open.",
    "description": null,
    "requirements": null,
    "scraped_at": "2025-10-30T13:14:45.738549",
    "latitude": 21.609712,
    "longitude": -157.912249,
    "geocoded_address": "Hauula, Honolulu County, Hawaii, 96717, United States of America",
    "note": "Geocoded to city center (exact address not found)"
  },
  {
    "url": "https://www.foodpantries.org/li/greater_mount_zion_holiness_church_96717",
    "name": "Greater Mount Zion Holiness Church",
    "address": "53-776 Kamehameha Hwy",
    "city": "Hauula",
    "state": "HI",
    "zip": "96717",
    "phone": null,
    "fax": null,
    "email": null,
    "website": "http://www.freefood.org/",
    "hours": "3rd Tuesdays of every month: 12 pm - 2 pm\r\n                                    \r\n                                                                        \n* Important: Please call the food pantries to confirm that the hours have not changed. We do our best to provide full information and details, but food pantries often change their hours without notifying us. We do not want you to waste your time visiting a pantry that is not open.",
    "description": null,
    "requirements": null,
    "scraped_at": "2025-10-30T13:14:49.397054",
    "latitude": 21.5984034,
    "longitude": -157.8971812,
    "geocoded_address": "Kamehameha Highway + 53-776, Kamehameha Highway, Hauula, Honolulu County, Hawaii, 96717, United States of America"
  },
  {
    "url": "https://www.foodpantries.org/li/under_his_wings_ministry_96720",
    "name": "Under His Wings Ministry",
    "address": "183 Keawe Street",
    "city": "Hilo",
    "state": "HI",
    "zip": "96720",
    "phone": "(808) 969-3094",
    "fax": null,
    "email": null,
    "website": "http://www.freefood.org/",
    "hours": "Wednesday 8:00am - 10:00amFor more information, please call. \nCounty or Counties Served: Hawaii",
    "description": null,
    "requirements": "Need to bring picture ID and social security card for each household member.  Pantry Hours: Friday 8:30am - 11:00am For more information, please call. \nGo To Details Page For More Information",
    "scraped_at": "2025-10-30T13:14:52.320999",
    "latitude": 19.7266867,
    "longitude": -155.0884758,
    "geocoded_address": "Keawe Street, Downtown Hilo, Pu\u2018u\u2018eo, Hilo, Hawai\u02bbi County, Hawaii, 96720, United States of America"
  },
  {
    "url": "https://www.foodpantries.org/li/salvation_army_hilo_corps_96720",
    "name": "Salvation Army - Hilo Corps",
    "address": "219 Ponahawai Street",
    "city": "Hilo",
    "state": "HI",
    "zip": "96720",
    "phone": "(808) 935-1277",
    "fax": null,
    "email": null,
    "website": "http://www.freefood.org/",
    "hours": "Friday 8:30am - 11:00amFor more information, please call. \nCounty or Counties Served: Hawaii",
    "description": null,
    "requirements": "Need to bring picture ID and social security card for each household member. Pantry Hours: Friday 8:30am - 11:00amFor more information, please call. \nCounty or Counties Served: Hawaii",
    "scraped_at": "2025-10-30T13:14:54.877360",
    "latitude": 19.7208301,
    "longitude": -155.0857927,
    "geocoded_address": "219, Ponahawai Street, Downtown Hilo, Pu\u2018u\u2018eo, Hilo, Hawai\u02bbi County, Hawaii, 96720, United States of America"
  },
  {
    "url": "https://www.foodpantries.org/li/salvation_army_west_hawaii_outpost_96727",
    "name": "Salvation Army - West Hawaii Outpost",
    "address": "45-511 Rickard Place",
    "city": "Honokaa",
    "state": "HI",
    "zip": "96727",
    "phone": null,
    "fax": null,
    "email": null,
    "website": "http://www.freefood.org/",
    "hours": "Wednesday and Thursday: 9 am - 12pm\r\n                                    \r\n                                                                        \n* Important: Please call the food pantries to confirm that the hours have not changed. We do our best to provide full information and details, but food pantries often change their hours without notifying us. We do not want you to waste your time visiting a pantry that is not open.",
    "description": null,
    "requirements": "Need to bring picture ID and social security card for each household member.  Pantry Hours: Friday 8:30am - 11:00am For more information, please call. \nGo To Details Page For More Information",
    "scraped_at": "2025-10-30T13:14:57.430519",
    "latitude": 20.07738,
    "longitude": -155.4650772,
    "geocoded_address": "Rickard Place, Honoka'a, Hawai\u02bbi County, Hawaii, 96727, United States of America"
  },
  {
    "url": "https://www.foodpantries.org/li/our_lady_of_lourdes_church_food_pantry_96727",
    "name": "Our Lady of Lourdes Church Food Pantry",
    "address": "45-5028 Plumeria Road",
    "city": "Honokaa",
    "state": "HI",
    "zip": "96727",
    "phone": null,
    "fax": null,
    "email": null,
    "website": "http://www.freefood.org/",
    "hours": "Tuesday and Thursday: 1 pm - 3 pm\r\n                                    \r\n                                                                        \n* Important: Please call the food pantries to confirm that the hours have not changed. We do our best to provide full information and details, but food pantries often change their hours without notifying us. We do not want you to waste your time visiting a pantry that is not open.",
    "description": null,
    "requirements": "Need to bring picture ID and social security card for each household member.  Pantry Hours: Friday 8:30am - 11:00am For more information, please call. \nGo To Details Page For More Information",
    "scraped_at": "2025-10-30T13:14:59.877598",
    "latitude": 20.0755626,
    "longitude": -155.4638819,
    "geocoded_address": "Honoka'a, Hawai\u02bbi County, Hawaii, 96727, United States of America",
    "note": "Geocoded to city center (exact address not found)"
  },
  {
    "url": "https://www.foodpantries.org/li/hi_96819_the-pantry-by-feeding-hawaii-together",
    "name": "The Pantry by Feeding Hawaii Together",
    "address": "2522 Rose Street",
    "city": "Honolulu",
    "state": "HI",
    "zip": "96819",
    "phone": "(808) 888-0778",
    "fax": null,
    "email": null,
    "website": "https://thepantry.org",
    "hours": "Open by appointment only. For more information, please call. \nVolunteering Information:https://thepantry.org/volunteer \nCounty or Counties Served: Honolulu",
    "description": null,
    "requirements": "Picture ID is required.  Breakfast Hours: Monday - Friday 8:00am - 10:30am Lunch Hours: Monday,Tuesday, Thursday and Friday 12:30pm - 2:30pm Closed on Wednesday, sack lunches are handed out at breakfast time. Dinner Hours: Monday - \nGo To Details Page For More Information",
    "scraped_at": "2025-10-30T13:15:03.813034",
    "latitude": 21.3421231,
    "longitude": -157.8805615,
    "geocoded_address": "2522, Rose Street, Kalihi, Honolulu, Honolulu County, Hawaii, 96819, United States of America"
  },
  {
    "url": "https://www.foodpantries.org/li/waikiki_community_center_96815",
    "name": "Waikiki Community Center Emergency Food Pantry",
    "address": "310 Paoakalani Avenue",
    "city": "Honolulu",
    "state": "HI",
    "zip": "96815",
    "phone": "(808) 923-1802",
    "fax": "(808) 922-2099",
    "email": null,
    "website": "http://www.freefood.org/",
    "hours": "Tuesday \r\n1:00pm to 2:45pm\n\r\nFor more information, please call Waikiki Community Center Emergency Food Pantry.",
    "description": null,
    "requirements": "Bring identification and either EBT or Quest card. \n\r\nPantry Hours: \r\nTuesday \r\n1:00pm to 2:45pm\n\r\nFor more information, please call Waikiki Community Center Emergency Food Pantry.",
    "scraped_at": "2025-10-30T13:15:06.764582",
    "latitude": 21.275281,
    "longitude": -157.8202519,
    "geocoded_address": "Waikiki Community Center, 310, Paoakalani Avenue, Kapahulu, East Honolulu, Honolulu, Honolulu County, Hawaii, 96815, United States of America"
  },
  {
    "url": "https://www.foodpantries.org/li/susannah_wesley_community_center_96819",
    "name": "Susannah Wesley Community Center",
    "address": "1117 Kaili Street",
    "city": "Honolulu",
    "state": "HI",
    "zip": "96819",
    "phone": "(808) 847-1535",
    "fax": "(808) 847-0787",
    "email": null,
    "website": "http://www.freefood.org/",
    "hours": "Tuesday and Thursday11:00 pm - 2:00 pmThere are some days that the pantry is closed due to the re-supplying of food.\u00a0 Please call to confirm that the pantry is open on the day you would like to obtain food.There are some days that the pantry is closed due to the re-supplying of food.\u00a0 \nCounty or Counties Served: Honolulu",
    "description": null,
    "requirements": "Picture ID is required.  Breakfast Hours: Monday - Friday 8:00am - 10:30am Lunch Hours: Monday,Tuesday, Thursday and Friday 12:30pm - 2:30pm Closed on Wednesday, sack lunches are handed out at breakfast time. Dinner Hours: Monday - \nGo To Details Page For More Information",
    "scraped_at": "2025-10-30T13:15:09.301751",
    "latitude": 21.332861,
    "longitude": -157.875871,
    "geocoded_address": "1117, Kaili Street, Kalihi, Honolulu, Honolulu County, Hawaii, 96819, United States of America"
  },
  {
    "url": "https://www.foodpantries.org/li/sts._peter_and_paul_catholic_church_96814",
    "name": "Sts. Peter and Paul Catholic Church",
    "address": "800 Kaheka Street",
    "city": "Honolulu",
    "state": "HI",
    "zip": "96814",
    "phone": "(808) 941-0675",
    "fax": null,
    "email": null,
    "website": "http://www.freefood.org/",
    "hours": "Tuesday, Thursday and Friday8:00am - 10:00am (Closed during holidays and church sponsored events, i.e. funerals, weddings, etc.)For more information, please call. \nCounty or Counties Served: Honolulu",
    "description": null,
    "requirements": "Recipient must live within the service area, have an income of $1000 or less, and not have received assistance from this food pantry for the past two years. Hawaii State Photo ID and proof of current residence required. Pantry Hours: Tuesday, Thursday and Friday8:00am - 10:00am (Closed during holidays and church sponsored events, i.e. funerals, weddings, etc.)For more information, please call. \nCounty or Counties Served: Honolulu",
    "scraped_at": "2025-10-30T13:15:15.032033",
    "latitude": 21.2938804,
    "longitude": -157.8395094,
    "geocoded_address": "Saints Peter and Paul Church, 800, Kaheka Street, Pawaa, Honolulu, Honolulu County, Hawaii, 96814, United States of America"
  },
  {
    "url": "https://www.foodpantries.org/li/st_pius_x_church_outreach_96822",
    "name": "St Pius X Church Outreach",
    "address": "2821 Lowrey Avenue",
    "city": "Honolulu",
    "state": "HI",
    "zip": "96822",
    "phone": null,
    "fax": null,
    "email": null,
    "website": "http://www.mp-cc.net",
    "hours": "Mondays through Fridays 10 am - 11:30 am (Closed on all State and Federal Holidays)\r\n                                    \r\n                                                                        \n* Important: Please call the food pantries to confirm that the hours have not changed. We do our best to provide full information and details, but food pantries often change their hours without notifying us. We do not want you to waste your time visiting a pantry that is not open.",
    "description": null,
    "requirements": "Recipient must live within the service area, have an income of $1000 or less, and not have received assistance from this food pantry for the past two years. Hawaii State\nGo To Details Page For More Information",
    "scraped_at": "2025-10-30T13:15:17.273994",
    "latitude": 21.3113167,
    "longitude": -157.8093095,
    "geocoded_address": "Saint Pius X Roman Catholic Church, 2821, Lowrey Avenue, M\u0101noa, East Honolulu, Honolulu, Honolulu County, Hawaii, 96822, United States of America"
  },
  {
    "url": "https://www.foodpantries.org/li/river_of_life_mission_96817",
    "name": "River of Life Mission",
    "address": "101 N Pauahi Street",
    "city": "Honolulu",
    "state": "HI",
    "zip": "96817",
    "phone": "(808) 524-7656",
    "fax": null,
    "email": null,
    "website": "http://www.freefood.org/",
    "hours": "Monday - Friday8:00am - 10:30amLunch Hours:Monday,Tuesday, Thursday and Friday12:30pm - 2:30pmClosed on Wednesday, sack lunches are handed out at breakfast time.Dinner Hours:Monday - Friday7:00pm - 8:00pmFood Box Hours:Last two Friday of the month  1:00pm - 2:30pm. (For food distribution, you must call ahead)For more information, please call. \nVolunteering Information:http://www.riveroflifemission.org/volunteer \nCounty or Counties Served: Honolulu",
    "description": null,
    "requirements": "Picture ID is required. Breakfast Hours:Monday - Friday8:00am - 10:30amLunch Hours:Monday,Tuesday, Thursday and Friday12:30pm - 2:30pmClosed on Wednesday, sack lunches are handed out at breakfast time.Dinner Hours:Monday - Friday7:00pm - 8:00pmFood Box Hours:Last two Friday of the month  1:00pm - 2:30pm. (For food distribution, you must call ahead)For more information, please call. \nVolunteering Information:http://www.riveroflifemission.org/volunteer \nCounty or Counties Served: Honolulu",
    "scraped_at": "2025-10-30T13:15:20.776325",
    "latitude": 21.312773,
    "longitude": -157.862279,
    "geocoded_address": "101, North Pauahi Street, The Arts District, Chinatown, Honolulu, Honolulu County, Hawaii, 96817, United States of America"
  },
  {
    "url": "https://www.foodpantries.org/li/saint_elizabeths_church_96817",
    "name": "Saint Elizabeth's Church",
    "address": "720 North King Street",
    "city": "Honolulu",
    "state": "HI",
    "zip": "96817",
    "phone": "(808) 284-2112",
    "fax": null,
    "email": null,
    "website": "http://www.freefood.org/",
    "hours": "St. Elizabeths offers a food pantry that is open daily to those in need. \n\r\nOffice Hours:\r\nMonday - Thursday\r\n9:00am - 2:00pm\n\r\nFoodbank\r\nMonday - Friday\r\n 8:00am - 12:00pm\r\n2:00pm - 5:00pm\r\nSaturday\r\n8:00am - 12:00pm\n\r\nFor more information, please call.",
    "description": null,
    "requirements": "Picture ID is required.  Breakfast Hours: Monday - Friday 8:00am - 10:30am Lunch Hours: Monday,Tuesday, Thursday and Friday 12:30pm - 2:30pm Closed on Wednesday, sack lunches are handed out at breakfast time. Dinner Hours: Monday - \nGo To Details Page For More Information",
    "scraped_at": "2025-10-30T13:15:23.297937",
    "latitude": 21.3208543,
    "longitude": -157.8663665,
    "geocoded_address": "720, North King Street, Iwilei, Honolulu, Honolulu County, Hawaii, 96817, United States of America"
  },
  {
    "url": "https://www.foodpantries.org/li/palama_settlement_96817",
    "name": "Palama Settlement",
    "address": "810 N Vineyard Boulevard",
    "city": "Honolulu",
    "state": "HI",
    "zip": "96817",
    "phone": "(808) 845-3945",
    "fax": "(808) 847-2873",
    "email": null,
    "website": "http://www.freefood.org/",
    "hours": "Every Other Wednesdays 8:30 am - 9:30 am\nGo To Details Page For More Information",
    "description": null,
    "requirements": "Picture ID is required.  Breakfast Hours: Monday - Friday 8:00am - 10:30am Lunch Hours: Monday,Tuesday, Thursday and Friday 12:30pm - 2:30pm Closed on Wednesday, sack lunches are handed out at breakfast time. Dinner Hours: Monday - \nGo To Details Page For More Information",
    "scraped_at": "2025-10-30T13:15:26.434027",
    "latitude": 21.3228168,
    "longitude": -157.8641004,
    "geocoded_address": "810, North Vineyard Boulevard, Chinatown, Honolulu, Honolulu County, Hawaii, 96817, United States of America"
  },
  {
    "url": "https://www.foodpantries.org/li/parish_of_st_clement_96822",
    "name": "Parish of St Clement",
    "address": "1515 Wilder Avenue",
    "city": "Honolulu",
    "state": "HI",
    "zip": "96822",
    "phone": null,
    "fax": null,
    "email": null,
    "website": "http://www.stclem.org",
    "hours": "3rd Saturday every month: 11:30 am - 12:30 pm\r\n                                    \r\n                                                                        \n* Important: Please call the food pantries to confirm that the hours have not changed. We do our best to provide full information and details, but food pantries often change their hours without notifying us. We do not want you to waste your time visiting a pantry that is not open.",
    "description": null,
    "requirements": "Recipient must live within the service area, have an income of $1000 or less, and not have received assistance from this food pantry for the past two years. Hawaii State\nGo To Details Page For More Information",
    "scraped_at": "2025-10-30T13:15:28.914458",
    "latitude": 21.3033297,
    "longitude": -157.8347356,
    "geocoded_address": "Saint Clement's Church, 1515, Wilder Avenue, Makiki, Honolulu, Honolulu County, Hawaii, 96822, United States of America"
  },
  {
    "url": "https://www.foodpantries.org/li/our_lady_of_the_mount_kokua_ministry_96819",
    "name": "Our Lady of the Mount - Kokua Ministry",
    "address": "1614 Monte Street",
    "city": "Honolulu",
    "state": "HI",
    "zip": "96819",
    "phone": null,
    "fax": null,
    "email": null,
    "website": "http://www.olmount.org",
    "hours": "1st and 3rd Thursday of every month: 8:30 am-11:30 am\r\n                                    \r\n                                                                        \n* Important: Please call the food pantries to confirm that the hours have not changed. We do our best to provide full information and details, but food pantries often change their hours without notifying us. We do not want you to waste your time visiting a pantry that is not open.",
    "description": null,
    "requirements": "Picture ID is required.  Breakfast Hours: Monday - Friday 8:00am - 10:30am Lunch Hours: Monday,Tuesday, Thursday and Friday 12:30pm - 2:30pm Closed on Wednesday, sack lunches are handed out at breakfast time. Dinner Hours: Monday - \nGo To Details Page For More Information",
    "scraped_at": "2025-10-30T13:15:31.545403",
    "latitude": 21.3455867,
    "longitude": -157.8608411,
    "geocoded_address": "1614, Monte Street, Kalihi Valley, Honolulu, Honolulu County, Hawaii, 96819, United States of America"
  },
  {
    "url": "https://www.foodpantries.org/li/olivet_baptist_church_96826",
    "name": "Olivet Baptist Church",
    "address": "1775 S Beretania Street",
    "city": "Honolulu",
    "state": "HI",
    "zip": "96826",
    "phone": "(808) 946-6505",
    "fax": null,
    "email": null,
    "website": "http://www.freefood.org/",
    "hours": "Last Saturday of every month\r\n 9:00am - 11:00am\n\r\nFor more information, please call. \nCounty or Counties Served: Honolulu",
    "description": null,
    "requirements": "Recipient must live within the service area, have an income of $1000 or less, and not have received assistance from this food pantry for the past two years. Hawaii State\nGo To Details Page For More Information",
    "scraped_at": "2025-10-30T13:15:34.376751",
    "latitude": 21.2973412,
    "longitude": -157.8324647,
    "geocoded_address": "Olivet Baptist Church, 1775, South Beretania Street, McCully, Honolulu, Honolulu County, Hawaii, 96826, United States of America"
  },
  {
    "url": "https://www.foodpantries.org/li/new_life_united_pentecostal_church_96818",
    "name": "New Life United Pentecostal Church",
    "address": "20 Bouganville Drive",
    "city": "Honolulu",
    "state": "HI",
    "zip": "96818",
    "phone": null,
    "fax": null,
    "email": null,
    "website": "http://www.freefood.org/",
    "hours": "1st Tuesday of every month: 8:30 pm - 9:30 pm\r\n                                    \r\n                                                                        \n* Important: Please call the food pantries to confirm that the hours have not changed. We do our best to provide full information and details, but food pantries often change their hours without notifying us. We do not want you to waste your time visiting a pantry that is not open.",
    "description": null,
    "requirements": null,
    "scraped_at": "2025-10-30T13:15:37.883434",
    "latitude": 21.304547,
    "longitude": -157.855676,
    "geocoded_address": "Honolulu, Honolulu County, Hawaii, United States of America",
    "note": "Geocoded to city center (exact address not found)"
  },
  {
    "url": "https://www.foodpantries.org/li/kaumakapili_church_96817",
    "name": "Kaumakapili Church",
    "address": "766 N King Street",
    "city": "Honolulu",
    "state": "HI",
    "zip": "96817",
    "phone": null,
    "fax": null,
    "email": null,
    "website": "http://www.freefood.org/",
    "hours": "Every Other Wednesdays 8:30 am - 9:30 am\r\n                                    \r\n                                                                        \n* Important: Please call the food pantries to confirm that the hours have not changed. We do our best to provide full information and details, but food pantries often change their hours without notifying us. We do not want you to waste your time visiting a pantry that is not open.",
    "description": null,
    "requirements": "Picture ID is required.  Breakfast Hours: Monday - Friday 8:00am - 10:30am Lunch Hours: Monday,Tuesday, Thursday and Friday 12:30pm - 2:30pm Closed on Wednesday, sack lunches are handed out at breakfast time. Dinner Hours: Monday - \nGo To Details Page For More Information",
    "scraped_at": "2025-10-30T13:15:44.657515",
    "latitude": 21.3212773,
    "longitude": -157.8666721,
    "geocoded_address": "766, North King Street, Iwilei, Honolulu, Honolulu County, Hawaii, 96817, United States of America"
  },
  {
    "url": "https://www.foodpantries.org/li/honolulu_church_of_god_96826",
    "name": "Honolulu Church of God",
    "address": "822 Coolidge Street",
    "city": "Honolulu",
    "state": "HI",
    "zip": "96826",
    "phone": null,
    "fax": null,
    "email": null,
    "website": "http://www.freefood.org/",
    "hours": "Sunday: 10:30am (Church service starts, afterwards food is distributed. Call 1st.) Wednesdays 6:45pm\r\n                                    \r\n                                                                        \n* Important: Please call the food pantries to confirm that the hours have not changed. We do our best to provide full information and details, but food pantries often change their hours without notifying us. We do not want you to waste your time visiting a pantry that is not open.",
    "description": null,
    "requirements": "Recipient must live within the service area, have an income of $1000 or less, and not have received assistance from this food pantry for the past two years. Hawaii State\nGo To Details Page For More Information",
    "scraped_at": "2025-10-30T13:15:47.291485",
    "latitude": 21.2910347,
    "longitude": -157.8255462,
    "geocoded_address": "822, Coolidge Street, Moiliili, McCully, Honolulu, Honolulu County, Hawaii, 96826, United States of America"
  },
  {
    "url": "https://www.foodpantries.org/li/full_gospel_temple_96819",
    "name": "Full Gospel Temple",
    "address": "2464 North School Street",
    "city": "Honolulu",
    "state": "HI",
    "zip": "96819",
    "phone": null,
    "fax": null,
    "email": null,
    "website": "http://www.freefood.org/",
    "hours": "Sunday: 12pm -12:30pm; Wednesdays 8am-10am\r\n                                    \r\n                                                                        \n* Important: Please call the food pantries to confirm that the hours have not changed. We do our best to provide full information and details, but food pantries often change their hours without notifying us. We do not want you to waste your time visiting a pantry that is not open.",
    "description": null,
    "requirements": "Picture ID is required.  Breakfast Hours: Monday - Friday 8:00am - 10:30am Lunch Hours: Monday,Tuesday, Thursday and Friday 12:30pm - 2:30pm Closed on Wednesday, sack lunches are handed out at breakfast time. Dinner Hours: Monday - \nGo To Details Page For More Information",
    "scraped_at": "2025-10-30T13:15:50.392063",
    "latitude": 21.3424002,
    "longitude": -157.8759124,
    "geocoded_address": "2464, North School Street, Kalihi, Honolulu, Honolulu County, Hawaii, 96819, United States of America"
  },
  {
    "url": "https://www.foodpantries.org/li/angel_network_charities_96824",
    "name": "Angel Network Charities",
    "address": "5339 Kalanianaole Hwy",
    "city": "Honolulu",
    "state": "HI",
    "zip": "96821",
    "phone": "(808) 377-1841",
    "fax": null,
    "email": null,
    "website": "http://www.freefood.org/",
    "hours": "The 1st and 3rd Thursday of each month1:00 am - 3:00 pm - Fresh ProduceFriday10:00 am - 12:00 pm - Canned goods.For more information, please call.\nVolunteering Information:https://www.angelnetworkcharities.org/get-involved \nCounty or Counties Served: Honolulu",
    "description": null,
    "requirements": "Bring identification and either EBT or Quest card. \r\n \r\nPantry Hours: \r\nTuesday \r\n1:00pm to 2:45pm \r\n \r\nFor more information, please call Waikiki Community Center Emergency Food Pantry.",
    "scraped_at": "2025-10-30T13:15:53.459499",
    "latitude": 21.3753273,
    "longitude": -157.780599,
    "geocoded_address": "Kalanianaole Highway, East Honolulu, Honolulu County, Hawaii, 96734, United States of America"
  },
  {
    "url": "https://www.foodpantries.org/li/taiheiyo-church-sunrise-food-pantry",
    "name": "Taiheiyo Church Sunrise Food Pantry",
    "address": "844 Wiliwili Street",
    "city": "Honolulu",
    "state": "HI",
    "zip": "96826",
    "phone": "(808) 949-1610",
    "fax": null,
    "email": null,
    "website": "http://www.freefood.org/",
    "hours": "Sunday: 10:30am (Church service starts, afterwards food is distributed. Call 1st.) Wednesdays 6:45pm\nGo To Details Page For More Information",
    "description": null,
    "requirements": "Recipient must live within the service area, have an income of $1000 or less, and not have received assistance from this food pantry for the past two years. Hawaii State\nGo To Details Page For More Information",
    "scraped_at": "2025-10-30T13:15:56.627286",
    "latitude": 21.2924163,
    "longitude": -157.8298982,
    "geocoded_address": "844, Wiliwili Street, McCully, Honolulu, Honolulu County, Hawaii, 96826, United States of America"
  },
  {
    "url": "https://www.foodpantries.org/li/hi_honolulu_hugs-kokua-kupboard-food-pantry",
    "name": "HUGS Kokua Kupboard Food Pantry",
    "address": "3636 Kilauea Avenue",
    "city": "Honolulu",
    "state": "HI",
    "zip": "96816",
    "phone": "(808) 732-4846",
    "fax": null,
    "email": null,
    "website": "http://www.freefood.org/",
    "hours": "Tuesday \r\n1:00pm to 2:45pm \r\n \r\nFor more information, please call Waikiki Community Center Emergency Food Pantry.",
    "description": null,
    "requirements": "Bring identification and either EBT or Quest card. \r\n \r\nPantry Hours: \r\nTuesday \r\n1:00pm to 2:45pm \r\n \r\nFor more information, please call Waikiki Community Center Emergency Food Pantry.",
    "scraped_at": "2025-10-30T13:16:04.592785",
    "latitude": 21.2938323,
    "longitude": -157.7817817,
    "geocoded_address": "Kilauea Avenue, Waialae-Kahala, Maunalani Heights, East Honolulu, Honolulu, Honolulu County, Hawaii, 96821, United States of America"
  },
  {
    "url": "https://www.foodpantries.org/li/hi_honolulu_kings-cathedral-east-honolulu-food-pantry",
    "name": "King\u02bbs Chapel Niu Valley Center Food Pantry",
    "address": "5740 Kalanianaole Hwy",
    "city": "Honolulu",
    "state": "HI",
    "zip": "96821",
    "phone": "(808) 466-3273",
    "fax": null,
    "email": null,
    "website": "http://www.freefood.org/",
    "hours": "2nd & 4th Thursdays of the Month from 11:00AM to 1:00PM\r\n                                    \r\n                                    County or Counties Served: Honolulu",
    "description": null,
    "requirements": "Bring identification and either EBT or Quest card. \r\n \r\nPantry Hours: \r\nTuesday \r\n1:00pm to 2:45pm \r\n \r\nFor more information, please call Waikiki Community Center Emergency Food Pantry.",
    "scraped_at": "2025-10-30T13:16:13.669963",
    "latitude": 21.3753273,
    "longitude": -157.780599,
    "geocoded_address": "Kalanianaole Highway, East Honolulu, Honolulu County, Hawaii, 96734, United States of America"
  },
  {
    "url": "https://www.foodpantries.org/li/hi_honolulu_life-foundation-food-pantry",
    "name": "Hawai\u2018i Health & Harm Reduction Center Food Pantry",
    "address": "677 Ala Moana Boulevard, 226",
    "city": "Honolulu",
    "state": "HI",
    "zip": "96813",
    "phone": "(808) 521-2437",
    "fax": null,
    "email": null,
    "website": "https://www.hhhrc.org/",
    "hours": "Monday, Wednesday & Thursday: 9:00 am to 4:00 pmFriday: 1:00 pm to 4:00 pm Notes:Open to allNO ID or financial eligibility requirementsFill out a quick Foodbank questionnaireNo eligibility requirements\r\n                                    \r\n                                    County or Counties Served: Honolulu",
    "description": null,
    "requirements": "Picture ID is required.  Breakfast Hours: Monday - Friday 8:00am - 10:30am Lunch Hours: Monday,Tuesday, Thursday and Friday 12:30pm - 2:30pm Closed on Wednesday, sack lunches are handed out at breakfast time. Dinner Hours: Monday - \nGo To Details Page For More Information",
    "scraped_at": "2025-10-30T13:16:16.790969",
    "latitude": 21.304547,
    "longitude": -157.855676,
    "geocoded_address": "Honolulu, Honolulu County, Hawaii, United States of America",
    "note": "Geocoded to city center (exact address not found)"
  },
  {
    "url": "https://www.foodpantries.org/li/salvation_army_kahului_corps_family_services_96732",
    "name": "Salvation Army - Kahului Corps Family Services",
    "address": "45 W. Kamehameha Avenue",
    "city": "Kahului",
    "state": "HI",
    "zip": "96732",
    "phone": "(808) 877-3074",
    "fax": null,
    "email": null,
    "website": "http://www.freefood.org/",
    "hours": "Thursday 9:00am - 12:00pm (By appointment)For more information, please call. \nCounty or Counties Served: Maui",
    "description": null,
    "requirements": "Must register first and ID is required.",
    "scraped_at": "2025-10-30T13:16:25.805864",
    "latitude": 20.8878969,
    "longitude": -156.4684533,
    "geocoded_address": "45, West Kamehameha Avenue, Kahului, Maui County, Hawaii, 96732, United States of America"
  },
  {
    "url": "https://www.foodpantries.org/li/christ_the_king_outreach_pantry_96732",
    "name": "Christ the King Outreach Pantry",
    "address": "20 West Wakea Avenue",
    "city": "Kahului",
    "state": "HI",
    "zip": "96732",
    "phone": null,
    "fax": null,
    "email": null,
    "website": "http://www.freefood.org/",
    "hours": "2nd and 4th Friday of the month: 3 - 5 pm\r\n                                    \r\n                                                                        \n* Important: Please call the food pantries to confirm that the hours have not changed. We do our best to provide full information and details, but food pantries often change their hours without notifying us. We do not want you to waste your time visiting a pantry that is not open.",
    "description": null,
    "requirements": "Must register first and ID is required.",
    "scraped_at": "2025-10-30T13:16:28.799115",
    "latitude": 20.8847664,
    "longitude": -156.4647587,
    "geocoded_address": "20, West Wakea Avenue, Kahului, Maui County, Hawaii, 96732, United States of America"
  },
  {
    "url": "https://www.foodpantries.org/li/hi_kahului_family-life-center-food-pantry",
    "name": "Family Life Center Food Pantry",
    "address": "95 S Kane Avenue",
    "city": "Kahului",
    "state": "HI",
    "zip": "96732",
    "phone": "(808) 877-0880",
    "fax": null,
    "email": null,
    "website": "http://www.freefood.org/",
    "hours": "Wednesday: 10:00 am to 1:00 pm or by appointment.",
    "description": null,
    "requirements": "Must register first and ID is required.",
    "scraped_at": "2025-10-30T13:16:31.159985",
    "latitude": 20.8894101,
    "longitude": -156.4727118,
    "geocoded_address": "Kahului, Maui County, Hawaii, 96784, United States of America",
    "note": "Geocoded to city center (exact address not found)"
  },
  {
    "url": "https://www.foodpantries.org/li/st_anthonys_outreach_96734",
    "name": "St Anthony's Outreach",
    "address": "148 Makawao Street",
    "city": "Kailua",
    "state": "HI",
    "zip": "96734",
    "phone": "(808) 266-2222",
    "fax": null,
    "email": null,
    "website": "http://www.freefood.org/",
    "hours": "Tuesday, Thursday 9:00am - 12:00 pmFor more information, please call. \nCounty or Counties Served: Honolulu",
    "description": null,
    "requirements": "Need to bring driver's license or State ID card, Social Security card, and proof of address. Pantry Hours: Tuesday, Thursday 9:00am - 12:00 pmFor more information, please call. \nCounty or Counties Served: Honolulu",
    "scraped_at": "2025-10-30T13:16:36.240285",
    "latitude": 21.4003398,
    "longitude": -157.7392388,
    "geocoded_address": "148, Makawao Street, Kailua, Honolulu County, Hawaii, 96734, United States of America"
  },
  {
    "url": "https://www.foodpantries.org/li/harbor_house_inc_96734",
    "name": "Harbor House Inc",
    "address": "1341 Aunauna Street",
    "city": "Kailua",
    "state": "HI",
    "zip": "96734",
    "phone": null,
    "fax": null,
    "email": null,
    "website": "http://www.freefood.org/",
    "hours": "1st and 2nd Friday of every month: 2pm -4:30pm\r\n                                    \r\n                                                                        \n* Important: Please call the food pantries to confirm that the hours have not changed. We do our best to provide full information and details, but food pantries often change their hours without notifying us. We do not want you to waste your time visiting a pantry that is not open.",
    "description": null,
    "requirements": "Need to bring driver's license or State ID card, Social Security card, and proof of address.  Pantry Hours:  Tuesday, Thursday 9:00am - 12:00 pm  For more information, please call.  \nGo To Details Page For More Information",
    "scraped_at": "2025-10-30T13:16:38.811630",
    "latitude": 21.3701005,
    "longitude": -157.7304627,
    "geocoded_address": "Aunauna Street, Enchanted Lake, Kailua, Honolulu County, Hawaii, 96735, United States of America"
  },
  {
    "url": "https://www.foodpantries.org/li/windward_united_church_of_christ_96734",
    "name": "Windward United Church of Christ",
    "address": "38 Kaneohe Bay Drive",
    "city": "Kailua",
    "state": "HI",
    "zip": "96734",
    "phone": null,
    "fax": null,
    "email": null,
    "website": "http://www.freefood.org/",
    "hours": "Wednesdays 10:30-12pm\r\n                                    \r\n                                                                        \n* Important: Please call the food pantries to confirm that the hours have not changed. We do our best to provide full information and details, but food pantries often change their hours without notifying us. We do not want you to waste your time visiting a pantry that is not open.",
    "description": null,
    "requirements": "Need to bring driver's license or State ID card, Social Security card, and proof of address.  Pantry Hours:  Tuesday, Thursday 9:00am - 12:00 pm  For more information, please call.  \nGo To Details Page For More Information",
    "scraped_at": "2025-10-30T13:16:41.274175",
    "latitude": 21.422862,
    "longitude": -157.749268,
    "geocoded_address": "38, Kaneohe Bay Drive, Kailua, Honolulu County, Hawaii, 96734, United States of America"
  },
  {
    "url": "https://www.foodpantries.org/li/hope_chapel_olomana_96734",
    "name": "Hope Chapel Olomana",
    "address": "1020 Keolu Drive",
    "city": "Kailua",
    "state": "HI",
    "zip": "96734",
    "phone": null,
    "fax": null,
    "email": null,
    "website": "http://www.freefood.org/",
    "hours": "Wednesdays 5pm\r\n                                    \r\n                                                                        \n* Important: Please call the food pantries to confirm that the hours have not changed. We do our best to provide full information and details, but food pantries often change their hours without notifying us. We do not want you to waste your time visiting a pantry that is not open.",
    "description": null,
    "requirements": "Need to bring driver's license or State ID card, Social Security card, and proof of address.  Pantry Hours:  Tuesday, Thursday 9:00am - 12:00 pm  For more information, please call.  \nGo To Details Page For More Information",
    "scraped_at": "2025-10-30T13:16:44.029001",
    "latitude": 21.3842167,
    "longitude": -157.7388332,
    "geocoded_address": "Keolu Drive, Enchanted Lake, Kailua, Honolulu County, Hawaii, 96735, United States of America"
  },
  {
    "url": "https://www.foodpantries.org/li/kalaheo_missionary_church_96741",
    "name": "Kalaheo Missionary Church",
    "address": "4480 Hokua Road",
    "city": "Kalaheo",
    "state": "HI",
    "zip": "96741",
    "phone": null,
    "fax": null,
    "email": null,
    "website": "http://www.freefood.org/",
    "hours": "Last Wednesday of the month\r\n                                    \r\n                                                                        \n* Important: Please call the food pantries to confirm that the hours have not changed. We do our best to provide full information and details, but food pantries often change their hours without notifying us. We do not want you to waste your time visiting a pantry that is not open.",
    "description": null,
    "requirements": "Brin\nGo To Details Page For More Information",
    "scraped_at": "2025-10-30T13:16:46.594412",
    "latitude": 21.9238991,
    "longitude": -159.5227488,
    "geocoded_address": "4480, Hokua Road, Kalaheo, Kaua\u02bbi County, Hawaii, 96741, United States of America"
  },
  {
    "url": "https://www.foodpantries.org/li/ky_42134_churches-of-christ-food-bank-3009",
    "name": "Harristown Church of Christ / Churches of Christ Food Bank #3009",
    "address": "400 Pelham St",
    "city": "Franklin",
    "state": "KY",
    "zip": "42134",
    "phone": "(270) 872-9293",
    "fax": null,
    "email": null,
    "website": "http://www.freefood.org/",
    "hours": "Tuesdays - 10:30am - 2pm.  Notes:  2 visits (1 pantry bag per visit) per household per month \r\n 1 $20 Piggly Wiggly voucher per month, if we have the funds.\r\n \nGo To Details Page For More Information",
    "description": null,
    "requirements": null,
    "scraped_at": "2025-10-30T13:16:49.269759",
    "latitude": 36.722263,
    "longitude": -86.5772177,
    "geocoded_address": "Franklin, Simpson County, Kentucky, 42134, United States of America",
    "note": "Geocoded to city center (exact address not found)"
  },
  {
    "url": "https://www.foodpantries.org/li/ma_01010_wales-community-pantry",
    "name": "Wales Community Pantry",
    "address": "172 Palmer Rd",
    "city": "Brimfield",
    "state": "MA",
    "zip": "01010",
    "phone": "(413) 245-0055",
    "fax": null,
    "email": null,
    "website": "http://www.freefood.org/",
    "hours": "Tuesdays 9:00 AM-1:00 PM and Thursdays 4:00-7:00 PM\nVolunteering Information:If you are interested in volunteeering, first call 413 245-0055 to schedule a time to meet with our staff.\r\n\r\nYou may click the volunteer button on our site to email us or contact at walescommunityfoodpantry@gmail.com\r\n\r\nor call: 413 245-0055 \nCounty or Counties Served: Hampden",
    "description": null,
    "requirements": "If you are shopping with us for the first time, please bring along a picture ID of the shopper for your family, IDs for each member of your household, any proof of income that you have, and proof of residency (if you\nGo To Details Page For More Information",
    "scraped_at": "2025-10-30T13:16:54.992002",
    "latitude": 42.1498482,
    "longitude": -72.2653892,
    "geocoded_address": "172, Dunhamtown-Palmer Road, Fentonville, Brimfield, Hampden County, Massachusetts, 01010, United States of America"
  },
  {
    "url": "https://www.foodpantries.org/li/tx_77459_the-bridge-pantry",
    "name": "The Bridge Pantry",
    "address": "2714 Cypress Point Dr",
    "city": "Missouri City",
    "state": "TX",
    "zip": "77459",
    "phone": "(979) 221-1700",
    "fax": null,
    "email": null,
    "website": "http://www.freefood.org/",
    "hours": "Tuesdays from 10:00 am -2:00 pmThursdays from 12:00 pm -2:00 pm. Notes:They distribute food by appointment onlyOnly provide non-perishable food itemsAccept donations Monday - Thursday from 9:00 am -2:00 pm.\nVolunteering Information:For all volunteer opportunities, visit our website www.shellhebert.com/pantry \nCounty or Counties Served: Fort Bend",
    "description": null,
    "requirements": "Proof of address Statement of gross income Will receive food once per calendar month For more information, please call.  \nGo To Details Page For More Information",
    "scraped_at": "2025-10-30T13:17:00.501035",
    "latitude": 29.5824976,
    "longitude": -95.5435619,
    "geocoded_address": "2714, Cypress Point Drive, Missouri City, Fort Bend County, Texas, 77459, United States of America"
  },
  {
    "url": "https://www.foodpantries.org/li/in_46157_monrovia-christian-church-food-pantry",
    "name": "Monrovia Christian Church Food Pantry",
    "address": "710 Gordon Road",
    "city": "Monrovia",
    "state": "IN",
    "zip": "46157",
    "phone": "(317) 996-2812",
    "fax": null,
    "email": null,
    "website": "http://www.freefood.org/",
    "hours": "The 2nd and 4th Tuesday of each month We are also highly involved in the downtown-Indianapolis Baptist Center outreach and the Highland Lakes Baptist Camp which is just minutes away from our church. For more information, please call. \nGo To Details Page For More Information",
    "description": null,
    "requirements": "To access the food pantry once a month, please\nGo To Details Page For More Information",
    "scraped_at": "2025-10-30T13:17:03.927715",
    "latitude": 39.5788409,
    "longitude": -86.4665122,
    "geocoded_address": "710, Gordon Road, Monrovia, Morgan County, Indiana, 46157, United States of America"
  },
  {
    "url": "https://www.foodpantries.org/li/family_connection_center_layton_84040",
    "name": "Open Doors Mobile Food Pantry",
    "address": "875 East Highway 193",
    "city": "Layton",
    "state": "UT",
    "zip": "84041",
    "phone": "(801) 771-4642",
    "fax": "(801) 773-0655",
    "email": null,
    "website": "http://www.freefood.org/",
    "hours": "Monday - Friday 9:00am - 2:00pm  For more information, please call.  \nGo To Details Page For More Information",
    "description": null,
    "requirements": null,
    "scraped_at": "2025-10-30T13:17:07.060159",
    "latitude": 41.1025759,
    "longitude": -111.9492767,
    "geocoded_address": "875, East Highway 193, Rolling Hills MHP, Layton, Davis County, Utah, 84040, United States of America"
  },
  {
    "url": "https://www.foodpantries.org/li/m_and_m_ministries_food_pantry_4769",
    "name": "M and M Ministries - Food Pantry",
    "address": "21 Parsons St\r\n            Presque Isle, ME - 4769\r\n            Phone: (207) 764-0758\n\n\n\n\nUser Questions and Answers\r\n     Help our users find out more about M and M Ministries - Food Pantry.\nAnswer a question below ONLY IF you know the answer to help people who want more information on M and M Ministries - Food Pantry.\n\n\n\n\nHow do I volunteer?\n\n\n\nAnswer\n\n\n\n\n\n\n\n\nDo you know if I can get food delivered to me?\n\n\n\nAnswer\n\n\n\n\n\n\n\n\nDo I need to make an appointment?\n\n\n\nAnswer\n\n\n\n\n\n\n\n\nHow do I make a donation?\n\n\n\nAnswer\n\n\nDrop it off\nFriday, October 24, 2025\n\n\n\n\n\n\n\n\nCan I do my community service hours at this location?\n\n\n\nAnswer\n\n\n\n\n\n\n\n\nWhat type of documentation do I need to apply for food?\n\n\n\nAnswer\n\n\nNone\nFriday, October 24, 2025\n\n\n\n\n\n\n\n 1 Review \n\n\n\n\n\n\n\n\n2025-10-24 11:24:18\n\nThank you Jesus\u2763\ufe0f\n\n\n\n\n\n\n\nYour opinion matters. Leave A Review Or Edit This Listing for M and M Ministries - Food Pantry.\nDo not request help here. Contact the Pantry directly.\n\n\n\n\n\n\n\n\n\n Name (required) \n\n\n\n eMail (will not be published) (required) \n\n\n\n Comment (required)\n\n\n\n\n\n\nSubmit\n\n\n\n\n\n\nPantry Details, hours, photos, information: M and M Ministries - Food Pantry\nM and M Ministries provides a food pantry in Presque Isle, Maine.Food Pantry hours:Monday and Friday: 3:00pm - 5:00pm\n\n* Important: Please call the food pantries to confirm that the hours have not changed. We do our best to provide full information and details, but food pantries often change their hours without notifying us. We do not want you to waste your time visiting a pantry that is not open.\n\nDonations And Volunteers\r\n            Please contact us directly by phone to donate and/or volunteer.\r\n            \nNeed More Information\r\n            We always need more information on our pantries. If you know of any details, volunteer information, website, hours or more description information about\r\n            M and M Ministries - Food Pantry please add a comment below with information. We will then display this for all visitors on this page.\r\n            \n\n\n\n\n\n\n\n\n\nNearby Area Listings \n\nGIFT (Grace Interfaith Food Table) Food Pantry\n\n\n\n\n\n\nView Website and Full Address",
    "city": "Presque Isle",
    "state": "ME",
    "zip": "04769",
    "phone": "(207) 764-0758",
    "fax": null,
    "email": null,
    "website": "http://www.freefood.org/",
    "hours": "Monday and Friday: 3:00pm - 5:00pm",
    "description": null,
    "requirements": null,
    "scraped_at": "2025-10-30T13:17:09.680882",
    "latitude": 46.6812216,
    "longitude": -68.0154578,
    "geocoded_address": "Presque Isle, Aroostook County, Maine, 04769, United States of America",
    "note": "Geocoded to city center (exact address not found)"
  },
  {
    "url": "https://www.foodpantries.org/li/nd-nc-walsh_county_food_pantry",
    "name": "Walsh County Food Pantry",
    "address": "314 W 15th Street",
    "city": "Grafton",
    "state": "ND",
    "zip": "58237",
    "phone": "(701) 352-1608",
    "fax": null,
    "email": null,
    "website": "http://www.freefood.org/",
    "hours": "Monday - Thursday 1:00pm - 4:00pmPlease contact them directly for more detailed program information.\nCounty or Counties Served: Walsh",
    "description": null,
    "requirements": null,
    "scraped_at": "2025-10-30T13:17:14.635344",
    "latitude": 48.4080439,
    "longitude": -97.4161955,
    "geocoded_address": "314, West 15th Street, Grafton, Walsh County, North Dakota, 58237, United States of America"
  },
  {
    "url": "https://www.foodpantries.org/li/welcome_manor_56034",
    "name": "Welcome Manor Family Services",
    "address": "114 West Pleasant Street",
    "city": "Garden City",
    "state": "MN",
    "zip": "56034",
    "phone": "(507) 546-3295",
    "fax": "(507) 218-2243",
    "email": null,
    "website": "http://www.freefood.org/",
    "hours": "Monday, Tuesday, Wednesday and Friday \r\n12:30pm - 4:30pm \r\nLast appointment is at 4:15pm \r\nThursday \r\n10:30am - 7:00pm \r\nLast appointment is at 6:30pm \r\n \r\nDonation Drop Off Hours: \r\nMonday - Friday \r\n9:00am - 5:00pm \r\nPlease enter through back door when dropping donations.",
    "description": null,
    "requirements": "proof of current address. Please bring bags or boxes to carr\nGo To Details Page For More Information",
    "scraped_at": "2025-10-30T13:17:20.350079",
    "latitude": 44.0480149,
    "longitude": -94.1640926,
    "geocoded_address": "114, Pleasant Street West, Garden City, Blue Earth County, Minnesota, 56034, United States of America"
  },
  {
    "url": "https://www.foodpantries.org/li/greater-shiloh-church-food-pantry",
    "name": "Greater Shiloh Church Food Pantry",
    "address": "201 Thomas Bright Avenue (lower level)",
    "city": "Easton",
    "state": "PA",
    "zip": "18042",
    "phone": "(610) 252-5640",
    "fax": "(610) 252-2715",
    "email": null,
    "website": "http://www.freefood.org/",
    "hours": "1:00 pm - 2:30 pmFood Pantry Hours:The 1st and 3rd Friday of the month 12:00 pm - 2:00 pmFor more information, please call. \nVolunteering Information:http://greatershilohchurchpa.com/get-connected \nCounty or Counties Served: Northampton",
    "description": null,
    "requirements": "Photo identification for every visit.Registration Hours:1:00 pm - 2:30 pmFood Pantry Hours:The 1st and 3rd Friday of the month 12:00 pm - 2:00 pmFor more information, please call. \nVolunteering Information:http://greatershilohchurchpa.com/get-connected \nCounty or Counties Served: Northampton",
    "scraped_at": "2025-10-30T13:17:24.678285",
    "latitude": 40.6916081,
    "longitude": -75.2099866,
    "geocoded_address": "Easton, Northampton County, Pennsylvania, United States of America",
    "note": "Geocoded to city center (exact address not found)"
  },
  {
    "url": "https://www.foodpantries.org/li/ny_14466_hemlock-community-food-pantry",
    "name": "Hemlock Community Food Pantry",
    "address": "4705 S Main Street",
    "city": "Hemlock",
    "state": "NY",
    "zip": "14466",
    "phone": "(585) 245-4651",
    "fax": null,
    "email": null,
    "website": "http://www.freefood.org/",
    "hours": "Thursdays 9:00am-11:00amDonations:Non-perishable Foods can be dropped off to Little Lakes Community Center, Hemlock United Post Office, and Hemlock United Methodist Church. Monetary may be mailed to Hemlock United Methodist of PO. Box 147, Hemlock BY 14466.\nVolunteering Information:Call 585-245-4651 \nCounty or Counties Served: Ontario",
    "description": null,
    "requirements": null,
    "scraped_at": "2025-10-30T13:17:28.492345",
    "latitude": 42.7904554,
    "longitude": -77.6057511,
    "geocoded_address": "4705, South Main Street, Glenville, Hemlock, Town of Livonia, Livingston County, New York, 14466, United States of America"
  },
  {
    "url": "https://www.foodpantries.org/li/office-for-social-ministry",
    "name": "Office for Social Ministry",
    "address": "6301 Pali Highway",
    "city": "Kaneohe",
    "state": "HI",
    "zip": "96744",
    "phone": "(877) 263-8855",
    "fax": "(808) 262-3728",
    "email": null,
    "website": "http://www.freefood.org/",
    "hours": "Tuesday, Thursday 11:00am - 1:00 pm For more information, please call.\nGo To Details Page For More Information",
    "description": null,
    "requirements": null,
    "scraped_at": "2025-10-30T13:17:31.298420",
    "latitude": 21.418555,
    "longitude": -157.804184,
    "geocoded_address": "Kaneohe, Honolulu County, Hawaii, 96744, United States of America",
    "note": "Geocoded to city center (exact address not found)"
  },
  {
    "url": "https://www.foodpantries.org/li/st_anns_catholic_church_96744",
    "name": "St Ann's Catholic Church",
    "address": "46-129 Haiku Road",
    "city": "Kaneohe",
    "state": "HI",
    "zip": "96744",
    "phone": "(808) 247-3092",
    "fax": null,
    "email": null,
    "website": "http://www.freefood.org/",
    "hours": "Monday - Friday 9:30 am - 12:00pm (for pickup that day) and 1 pm - 2:30 pm (for pickup the next day)\nCounty or Counties Served: Honolulu",
    "description": null,
    "requirements": "Need to bring driver's license or State ID card, Social Security card, and proof of address.  Pantry Hours:  Tuesday, Thursday 9:00am - 12:00 pm  For more information, please call.  \nGo To Details Page For More Information",
    "scraped_at": "2025-10-30T13:17:35.159699",
    "latitude": 21.418555,
    "longitude": -157.804184,
    "geocoded_address": "Kaneohe, Honolulu County, Hawaii, 96744, United States of America",
    "note": "Geocoded to city center (exact address not found)"
  },
  {
    "url": "https://www.foodpantries.org/li/salvation_army_kaneohe_corps_96744",
    "name": "Salvation Army - Kaneohe Corps",
    "address": "45-175 Waikalua Road",
    "city": "Kaneohe",
    "state": "HI",
    "zip": "96744",
    "phone": null,
    "fax": null,
    "email": null,
    "website": "http://www.freefood.org/",
    "hours": "Mondays through Fridays 9 am - 1 pm\r\n                                    \r\n                                                                        \n* Important: Please call the food pantries to confirm that the hours have not changed. We do our best to provide full information and details, but food pantries often change their hours without notifying us. We do not want you to waste your time visiting a pantry that is not open.",
    "description": null,
    "requirements": "Need to bring driver's license or State ID card, Social Security card, and proof of address.  Pantry Hours:  Tuesday, Thursday 9:00am - 12:00 pm  For more information, please call.  \nGo To Details Page For More Information",
    "scraped_at": "2025-10-30T13:17:39.701179",
    "latitude": 21.4127521,
    "longitude": -157.7900922,
    "geocoded_address": "Waikalua Road, Kokokahi, Kaneohe, Honolulu County, Hawaii, 96744, United States of America"
  },
  {
    "url": "https://www.foodpantries.org/li/kaneohe_seventh-day_adventist_church_96744",
    "name": "Kaneohe Seventh-day Adventist Church",
    "address": "45-566 Mahinui Road",
    "city": "Kaneohe",
    "state": "HI",
    "zip": "96744",
    "phone": "(808) 247-4345",
    "fax": null,
    "email": null,
    "website": "http://www.freefood.org/",
    "hours": "Wednesday\r\n 6:00pm\n\r\nFor more information, please call.\nCounty or Counties Served: Honolulu",
    "description": null,
    "requirements": "Need to bring driver's license or State ID card, Social Security card, and proof of address.  Pantry Hours:  Tuesday, Thursday 9:00am - 12:00 pm  For more information, please call.  \nGo To Details Page For More Information",
    "scraped_at": "2025-10-30T13:17:43.818964",
    "latitude": 21.418555,
    "longitude": -157.804184,
    "geocoded_address": "Kaneohe, Honolulu County, Hawaii, 96744, United States of America",
    "note": "Geocoded to city center (exact address not found)"
  },
  {
    "url": "https://www.foodpantries.org/li/honolulu_community_action_program_96744",
    "name": "Honolulu Community Action Program",
    "address": "47-232 Waihee Road",
    "city": "Kaneohe",
    "state": "HI",
    "zip": "96744",
    "phone": null,
    "fax": null,
    "email": null,
    "website": "http://www.freefood.org/",
    "hours": "Monday, Wednesday, & Friday: 8:30 am to 4:30 pm Tuesday & Thursday: 8:30 am to 12:30 pm  Notes:  12:30 pm to 1:30 pm - office closed for lunch  \nGo To Details Page For More Information",
    "description": null,
    "requirements": null,
    "scraped_at": "2025-10-30T13:17:47.069931",
    "latitude": 21.418555,
    "longitude": -157.804184,
    "geocoded_address": "Kaneohe, Honolulu County, Hawaii, 96744, United States of America",
    "note": "Geocoded to city center (exact address not found)"
  },
  {
    "url": "https://www.foodpantries.org/li/hi_kaneohe_our-lady-of-mount-carmel-church-food-pantry",
    "name": "Our Lady of Mount Carmel Church Food Pantry",
    "address": "48-422 Kamehameha Highway",
    "city": "Kaneohe",
    "state": "HI",
    "zip": "96744",
    "phone": "(808) 239-9269",
    "fax": null,
    "email": null,
    "website": "http://www.freefood.org/",
    "hours": "Monday, Wednesday, & Friday: 8:30 am to 4:30 pmTuesday & Thursday: 8:30 am to 12:30 pm Notes:12:30 pm to 1:30 pm - office closed for lunch\nCounty or Counties Served: Honolulu",
    "description": null,
    "requirements": null,
    "scraped_at": "2025-10-30T13:17:52.959455",
    "latitude": 21.418555,
    "longitude": -157.804184,
    "geocoded_address": "Kaneohe, Honolulu County, Hawaii, 96744, United States of America",
    "note": "Geocoded to city center (exact address not found)"
  },
  {
    "url": "https://www.foodpantries.org/li/kapaa_missionary_church_96746",
    "name": "Kapaa Missionary Church",
    "address": "4-758 Kuhio Highway",
    "city": "Kapaa",
    "state": "HI",
    "zip": "96746",
    "phone": "(808) 822-5594",
    "fax": null,
    "email": null,
    "website": "http://www.freefood.org/",
    "hours": "Saturday 5:00 pm - 6:00 pmSoup Kitchen Hours:The 2nd & 4th Saturday of each month Sometimes there are special church events that may result in the cancelation of the Food Pantry and/or Soup Kitchen. A notice is usually given the week prior. For more information, please call. \nCounty or Counties Served: Kauai",
    "description": null,
    "requirements": "Brin\nGo To Details Page For More Information",
    "scraped_at": "2025-10-30T13:17:57.936948",
    "latitude": 22.0758322,
    "longitude": -159.3184344,
    "geocoded_address": "Kuhio Highway, Kapaa, Kaua\u02bbi County, Hawaii, 96746, United States of America"
  },
  {
    "url": "https://www.foodpantries.org/li/kapaa_seventh_day_adventist_96746",
    "name": "Kapaa Seventh Day Adventist",
    "address": "6979 Kawaihua Road",
    "city": "Kapaa",
    "state": "HI",
    "zip": "96746",
    "phone": null,
    "fax": null,
    "email": null,
    "website": "http://www.freefood.org/",
    "hours": "Sunday: Until 4pm (Please call 1st)\r\n                                    \r\n                                                                        \n* Important: Please call the food pantries to confirm that the hours have not changed. We do our best to provide full information and details, but food pantries often change their hours without notifying us. We do not want you to waste your time visiting a pantry that is not open.",
    "description": null,
    "requirements": "Brin\nGo To Details Page For More Information",
    "scraped_at": "2025-10-30T13:18:00.259360",
    "latitude": 22.0747334,
    "longitude": -159.3191601,
    "geocoded_address": "Kapaa, Kaua\u02bbi County, Hawaii, United States of America",
    "note": "Geocoded to city center (exact address not found)"
  },
  {
    "url": "https://www.foodpantries.org/li/st_jude_catholic_church_outreach_96707",
    "name": "St Jude Catholic Church Outreach",
    "address": "92-455 Makakilo Drive",
    "city": "Kapolei",
    "state": "HI",
    "zip": "96707",
    "phone": null,
    "fax": null,
    "email": null,
    "website": "http://www.freefood.org/",
    "hours": "Tuesday, Thursday: 3:30 pm - 4:30 pm\r\n                                    \r\n                                                                        \n* Important: Please call the food pantries to confirm that the hours have not changed. We do our best to provide full information and details, but food pantries often change their hours without notifying us. We do not want you to waste your time visiting a pantry that is not open.",
    "description": null,
    "requirements": "Referral required by Welfare Office/Health Nurse. No walk-ins. \r\n \r\nPantry Hours: \r\n Call ahead - verify availability, dates, and times for distribution. \r\n \r\nFor more information, please call.",
    "scraped_at": "2025-10-30T13:18:03.564330",
    "latitude": 21.3432795,
    "longitude": -158.0782618,
    "geocoded_address": "St. Jude Catholic Church, 92-455, Makakilo Drive, Makakilo City, Kapolei, Honolulu County, Hawaii, 96707, United States of America"
  },
  {
    "url": "https://www.foodpantries.org/li/maui_economic_opportunity_inc_program_molokai_96748",
    "name": "Maui Economic Opportunity Inc Program - Molokai",
    "address": "380 Kolapa Place",
    "city": "Kaunakakai",
    "state": "HI",
    "zip": "96748",
    "phone": null,
    "fax": null,
    "email": null,
    "website": "http://www.freefood.org/",
    "hours": "3rd Wednesday of the Month: 7:45am-4:30pm\r\n                                    \r\n                                                                        \n* Important: Please call the food pantries to confirm that the hours have not changed. We do our best to provide full information and details, but food pantries often change their hours without notifying us. We do not want you to waste your time visiting a pantry that is not open.",
    "description": null,
    "requirements": "ID\nGo To Details Page For More Information",
    "scraped_at": "2025-10-30T13:18:06.245025",
    "latitude": 21.0901921,
    "longitude": -157.0156959,
    "geocoded_address": "Kolapa Place, Kapa\u2018akea Colony, Kaunakakai, Maui County, Hawaii, 96748, United States of America"
  },
  {
    "url": "https://www.foodpantries.org/li/paradise_park_church_of_the_nazarene_ohana_food_pantry_96749",
    "name": "Paradise Park Church of the Nazarene Ohana Food Pantry",
    "address": "15-1839 32nd Avenue",
    "city": "Keaau",
    "state": "HI",
    "zip": "96749",
    "phone": null,
    "fax": null,
    "email": null,
    "website": "http://www.freefood.org/",
    "hours": "Wednesday (except 1st week of the month): 4:30 pm - 5:30 pm Year around.\r\n                                    \r\n                                                                        \n* Important: Please call the food pantries to confirm that the hours have not changed. We do our best to provide full information and details, but food pantries often change their hours without notifying us. We do not want you to waste your time visiting a pantry that is not open.",
    "description": null,
    "requirements": "Need to bring picture ID and social security card for each household member.  Pantry Hours: Friday 8:30am - 11:00am For more information, please call. \nGo To Details Page For More Information",
    "scraped_at": "2025-10-30T13:18:08.866830",
    "latitude": 19.6225209,
    "longitude": -155.039043,
    "geocoded_address": "Keaau, Hawai\u02bbi County, Hawaii, United States of America",
    "note": "Geocoded to city center (exact address not found)"
  },
  {
    "url": "https://www.foodpantries.org/li/hawaii-island-food-bank",
    "name": "Hawaii Island Food Bank",
    "address": "73-4161 Ulu Wini Place",
    "city": "Keauhou",
    "state": "HI",
    "zip": "96740",
    "phone": "(808) 322-1418",
    "fax": "(808) 322-7373",
    "email": null,
    "website": "http://www.freefood.org/",
    "hours": "Tuesday, Thursday 11:00am - 1:00 pm For more information, please call.\nGo To Details Page For More Information",
    "description": null,
    "requirements": null,
    "scraped_at": "2025-10-30T13:18:12.801571",
    "latitude": 19.5625262,
    "longitude": -155.960842,
    "geocoded_address": "Keauhou, Kahaluu-Keauhou, Hawai\u02bbi County, Hawaii, 96725, United States of America",
    "note": "Geocoded to city center (exact address not found)"
  },
  {
    "url": "https://www.foodpantries.org/li/keolahou_church_96753",
    "name": "Keolahou Church",
    "address": "177 S Kihei Road",
    "city": "Kihei",
    "state": "HI",
    "zip": "96753",
    "phone": "(808) 879-4693",
    "fax": null,
    "email": null,
    "website": "http://www.freefood.org/",
    "hours": "Friday\r\n9:00am - 10:00am\n\r\nFor more information, please call. \nCounty or Counties Served: Maui",
    "description": null,
    "requirements": "Must register first and ID and proof of residency is required. \n\r\nPantry Hours:\r\n Friday\r\n9:00am - 10:00am\n\r\nFor more information, please call. \nCounty or Counties Served: Maui",
    "scraped_at": "2025-10-30T13:18:16.239284",
    "latitude": 20.7786475,
    "longitude": -156.4608872,
    "geocoded_address": "177, South Kihei Road, Kihei, Maui County, Hawaii, 96753, United States of America"
  },
  {
    "url": "https://www.foodpantries.org/li/hi_96753_calvary-chapel-south-maui",
    "name": "Calvary Chapel South Maui",
    "address": "320 Ohukai Rd",
    "city": "Kihei",
    "state": "HI",
    "zip": "96753",
    "phone": "(808) 463-2099",
    "fax": null,
    "email": null,
    "website": "http://www.freefood.org/",
    "hours": "Monday - Friday\r\n9:00am - 2:00pm\n\r\nFor more information, please call.",
    "description": null,
    "requirements": "Must register first and ID and proof of residency is required. \r\n \r\nPantry Hours: \r\n Friday \r\n9:00am - 10:00am \r\n \r\nFor more information, please call.",
    "scraped_at": "2025-10-30T13:18:19.192048",
    "latitude": 20.7753202,
    "longitude": -156.4539768,
    "geocoded_address": "320, Ohukai Road, Kihei, Maui County, Hawaii, 96753, United States of America"
  },
  {
    "url": "https://www.foodpantries.org/li/hi_kilauea_kauai-north-shore-food-pantry",
    "name": "Kauai North Shore Food Pantry at Anaina Hou Community Park",
    "address": "5-2723 Kuhio Hwy",
    "city": "Kilauea",
    "state": "HI",
    "zip": "96754",
    "phone": "(808) 755-9333",
    "fax": null,
    "email": null,
    "website": "http://www.freefood.org/",
    "hours": "Every Saturday 1:00 pm - 2:30 pmFood Pantry Location:Anaina Hou Community Park\nCounty or Counties Served: Kauai",
    "description": null,
    "requirements": "Brin\nGo To Details Page For More Information",
    "scraped_at": "2025-10-30T13:18:21.311178",
    "latitude": 22.2087822,
    "longitude": -159.407764,
    "geocoded_address": "Kilauea, Kaua\u02bbi County, Hawaii, 96754, United States of America",
    "note": "Geocoded to city center (exact address not found)"
  },
  {
    "url": "https://www.foodpantries.org/li/koloa_union_church_96756",
    "name": "Koloa Union Church",
    "address": "3289 Poipu Road",
    "city": "Koloa",
    "state": "HI",
    "zip": "96756",
    "phone": null,
    "fax": null,
    "email": null,
    "website": "http://www.freefood.org/",
    "hours": "3rd Wednesday of the Month: 2:45pm\r\n                                    \r\n                                                                        \n* Important: Please call the food pantries to confirm that the hours have not changed. We do our best to provide full information and details, but food pantries often change their hours without notifying us. We do not want you to waste your time visiting a pantry that is not open.",
    "description": null,
    "requirements": "Brin\nGo To Details Page For More Information",
    "scraped_at": "2025-10-30T13:18:24.895853",
    "latitude": 21.9004369,
    "longitude": -159.4663883,
    "geocoded_address": "3289, Poipu Road, Koloa, Kaua\u02bbi County, Hawaii, 96756, United States of America"
  },
  {
    "url": "https://www.foodpantries.org/li/hi_koloa_nanas-house-food-pantry",
    "name": "Nana's House Food Pantry",
    "address": "9875 Waimea Road",
    "city": "Koloa",
    "state": "HI",
    "zip": "96756",
    "phone": "(808) 338-0252",
    "fax": null,
    "email": null,
    "website": "http://www.freefood.org/",
    "hours": "Monday 2:00PM  4:00PMWednesday 9:00AM  11:00AM, and, 1:00PM  4:00PMThursday 1:00PM  4:00PMService Area:Koloa, Lawai, Kalaheo, Eleele, Hanapepe, Waimea or KekahaAdditional Services: Parenting classes Case Management Outreach Counseling Clothing Closet Immigrant Resource Center SNAP Voluntary Case Management\nCounty or Counties Served: Kauai",
    "description": null,
    "requirements": "Brin\nGo To Details Page For More Information",
    "scraped_at": "2025-10-30T13:18:27.755363",
    "latitude": 21.9042279,
    "longitude": -159.465733,
    "geocoded_address": "Koloa, Kaua\u02bbi County, Hawaii, 96756, United States of America",
    "note": "Geocoded to city center (exact address not found)"
  },
  {
    "url": "https://www.foodpantries.org/li/st_johns_episcopal_church_96790",
    "name": "St John's Episcopal Church",
    "address": "8992 Kula Hwy",
    "city": "Kula",
    "state": "HI",
    "zip": "96790",
    "phone": null,
    "fax": null,
    "email": null,
    "website": "http://www.freefood.org/",
    "hours": "Monday - Friday \r\n9:00am - 2:00pm \r\n \r\nFor more information, please call.",
    "description": null,
    "requirements": "Must register first and ID and proof of residency is required. \r\n \r\nPantry Hours: \r\n Friday \r\n9:00am - 10:00am \r\n \r\nFor more information, please call.",
    "scraped_at": "2025-10-30T13:18:30.909362",
    "latitude": 20.8017129,
    "longitude": -156.3272512,
    "geocoded_address": "Kula Highway, \u02bb\u014cma\u02bbopio, Kula, Maui County, Hawaii, 96768, United States of America"
  },
  {
    "url": "https://www.foodpantries.org/li/hi_96760_kurtistown-ag-food-pantry-distribution-center",
    "name": "Kurtistown AG Food Pantry Distribution Center",
    "address": "17-550 Volcano Road",
    "city": "Kurtistown",
    "state": "HI",
    "zip": "96760",
    "phone": "(916) 622-7628",
    "fax": null,
    "email": null,
    "website": "http://www.freefood.org/",
    "hours": "Wednesday (except 1st week of the month): 4:30 pm - 5:30 pm Year around.\nGo To Details Page For More Information",
    "description": null,
    "requirements": "Need to bring picture ID and social security card for each household member.  Pantry Hours: Friday 8:30am - 11:00am For more information, please call. \nGo To Details Page For More Information",
    "scraped_at": "2025-10-30T13:18:33.624450",
    "latitude": 19.5931487,
    "longitude": -155.058074,
    "geocoded_address": "Kurtistown, Hawai\u02bbi County, Hawaii, 96760, United States of America",
    "note": "Geocoded to city center (exact address not found)"
  },
  {
    "url": "https://www.foodpantries.org/li/salvation_army_lahaina_corps_96761",
    "name": "Salvation Army - Lahaina Corps",
    "address": "131 Shaw Street",
    "city": "Lahaina",
    "state": "HI",
    "zip": "96761",
    "phone": null,
    "fax": null,
    "email": null,
    "website": "http://www.freefood.org/",
    "hours": "Thursday: 9 am - 1:30 pm\r\n                                    \r\n                                                                        \n* Important: Please call the food pantries to confirm that the hours have not changed. We do our best to provide full information and details, but food pantries often change their hours without notifying us. We do not want you to waste your time visiting a pantry that is not open.",
    "description": null,
    "requirements": "ID\nGo To Details Page For More Information",
    "scraped_at": "2025-10-30T13:18:37.280116",
    "latitude": 20.8683,
    "longitude": -156.674168,
    "geocoded_address": "131, Shaw Street, Pu\u2018unoa, Lahaina, Maui County, Hawaii, 96761, United States of America"
  },
  {
    "url": "https://www.foodpantries.org/li/feed_my_sheep_96761",
    "name": "Feed My Sheep",
    "address": "1028 Wainee Street",
    "city": "Lahaina",
    "state": "HI",
    "zip": "96761",
    "phone": "(808) 870-9421",
    "fax": null,
    "email": null,
    "website": "http://www.freefood.org/",
    "hours": "Thursday10:30am - 11: 45amThe corner of Dickenson Street and Wainee StreetKahului Pantry Hours:Saturday9:30am - 12:00pmChrist the King Catholic Church, corner of Wakea and PuuneneRequirements:ID must be presented upon registration and for all family members being claimed. ID must be presented upon registration and for all family members being claimed. \nCounty or Counties Served: Maui",
    "description": null,
    "requirements": "ID must be presented upon registration and for all family members being claimed. ID must be presented upon registration and for all family members being claimed. \nCounty or Counties Served: Maui",
    "scraped_at": "2025-10-30T13:18:41.782589",
    "latitude": 20.8795521,
    "longitude": -156.6801176,
    "geocoded_address": "1028, Wainee Street, Lahaina, Maui County, Hawaii, 96761, United States of America"
  },
  {
    "url": "https://www.foodpantries.org/li/maui_economic_opportunity_inc_lanai_96763",
    "name": "Maui Economic Opportunity Inc Lanai",
    "address": "1144 Ilima Street",
    "city": "Lanai City",
    "state": "HI",
    "zip": "96763",
    "phone": null,
    "fax": null,
    "email": null,
    "website": "http://www.meoinc.org",
    "hours": "Thursday 10:30am - 11: 45am The corner of Dickenson Street and Wainee Street Kahului Pantry Hours: Saturday 9:30am - 12:00pm Christ the King Catholic Church, corner of Wakea and Puunene Requirements: ID\nGo To Details Page For More Information",
    "description": null,
    "requirements": "ID\nGo To Details Page For More Information",
    "scraped_at": "2025-10-30T13:18:43.831073",
    "latitude": 20.826084,
    "longitude": -156.919785,
    "geocoded_address": "L\u0101na\u02bbi City, Maui County, Hawaii, 96763, United States of America",
    "note": "Geocoded to city center (exact address not found)"
  },
  {
    "url": "https://www.foodpantries.org/li/kauai_bible_church_96765",
    "name": "Kauai Bible Church",
    "address": "2-4131 Kaumualii Highway",
    "city": "Lawai",
    "state": "HI",
    "zip": "96765",
    "phone": null,
    "fax": null,
    "email": null,
    "website": "http://www.freefood.org/",
    "hours": "Sunday: 11:30am-12:30pm\r\n                                    \r\n                                                                        \n* Important: Please call the food pantries to confirm that the hours have not changed. We do our best to provide full information and details, but food pantries often change their hours without notifying us. We do not want you to waste your time visiting a pantry that is not open.",
    "description": null,
    "requirements": "Brin\nGo To Details Page For More Information",
    "scraped_at": "2025-10-30T13:18:47.178705",
    "latitude": 21.9262362,
    "longitude": -159.507987,
    "geocoded_address": "Lawai, Kaua\u02bbi County, Hawaii, 96765, United States of America",
    "note": "Geocoded to city center (exact address not found)"
  },
  {
    "url": "https://www.foodpantries.org/li/kauai-food-bank",
    "name": "Kauai Food Bank",
    "address": "3285 Waapa Street",
    "city": "Lihue",
    "state": "HI",
    "zip": "96766",
    "phone": "(808) 246-3809",
    "fax": "(808) 246-4737",
    "email": null,
    "website": "http://www.freefood.org/",
    "hours": "3rd Wednesday of the month\nGo To Details Page For More Information",
    "description": null,
    "requirements": "Brin\nGo To Details Page For More Information",
    "scraped_at": "2025-10-30T13:18:51.607045",
    "latitude": 21.9769622,
    "longitude": -159.3687721,
    "geocoded_address": "Lihue, Kaua\u02bbi County, Hawaii, 96766, United States of America",
    "note": "Geocoded to city center (exact address not found)"
  },
  {
    "url": "https://www.foodpantries.org/li/st_michaels_and_all_angels_church_96766",
    "name": "St. Michael's and All Angels - Loaves and Fishes",
    "address": "4364 Hardy Street",
    "city": "Lihue",
    "state": "HI",
    "zip": "96766",
    "phone": "(808) 245-3796",
    "fax": null,
    "email": null,
    "website": "http://www.freefood.org/",
    "hours": "Drive-thru distribution at Vidinha Stadium parking lot the 1st and 3rd Wednesday of each month from 9:00am-10:30am. Additional Services:Emergency food available the alternating Wednesday of each month from 9:00am-11:00am. Requirements:Bring a form of ID to receive food.All food is prepackaged for your convenience and safety. \nCounty or Counties Served: Kauai",
    "description": null,
    "requirements": "Bring a form of ID to receive food.All food is prepackaged for your convenience and safety. \nCounty or Counties Served: Kauai",
    "scraped_at": "2025-10-30T13:18:55.007319",
    "latitude": 21.9764606,
    "longitude": -159.3643571,
    "geocoded_address": "4364, Hardy Street, Kupolo, Lihue, Kaua\u02bbi County, Hawaii, 96766, United States of America"
  },
  {
    "url": "https://www.foodpantries.org/li/salvation_army_lihue_corps_96766",
    "name": "Salvation Army - Lihue Corps",
    "address": "4182 Hardy Street",
    "city": "Lihue",
    "state": "HI",
    "zip": "96766",
    "phone": "(808) 245-2571",
    "fax": null,
    "email": null,
    "website": "http://www.freefood.org/",
    "hours": "Tuesday and Thursday11:3-am - 12:30pm\nCounty or Counties Served: Kauai",
    "description": null,
    "requirements": "Brin\nGo To Details Page For More Information",
    "scraped_at": "2025-10-30T13:18:57.660860",
    "latitude": 21.972878,
    "longitude": -159.36347,
    "geocoded_address": "4182, Hardy Street, Kupolo, Lihue, Kaua\u02bbi County, Hawaii, 96766, United States of America"
  },
  {
    "url": "https://www.foodpantries.org/li/lihue_court_townhomes_96766",
    "name": "Lihue Court Townhomes",
    "address": "4160 Hoala Street",
    "city": "Lihue",
    "state": "HI",
    "zip": "96766",
    "phone": null,
    "fax": null,
    "email": null,
    "website": "http://www.freefood.org/",
    "hours": "3rd Wednesday of the month\r\n                                    \r\n                                                                        \n* Important: Please call the food pantries to confirm that the hours have not changed. We do our best to provide full information and details, but food pantries often change their hours without notifying us. We do not want you to waste your time visiting a pantry that is not open.",
    "description": null,
    "requirements": "Brin\nGo To Details Page For More Information",
    "scraped_at": "2025-10-30T13:18:59.784643",
    "latitude": 21.9695661,
    "longitude": -159.363632,
    "geocoded_address": "4160, Hoala Street, Kupolo, Lihue, Kaua\u02bbi County, Hawaii, 96766, United States of America"
  },
  {
    "url": "https://www.foodpantries.org/li/aloha_church_96766",
    "name": "Aloha Church",
    "address": "4334 Uahi Road",
    "city": "Lihue",
    "state": "HI",
    "zip": "96766",
    "phone": null,
    "fax": null,
    "email": null,
    "website": "http://www.freefood.org/",
    "hours": "3rd Friday of the Month: 12 pm\r\n                                    \r\n                                                                        \n* Important: Please call the food pantries to confirm that the hours have not changed. We do our best to provide full information and details, but food pantries often change their hours without notifying us. We do not want you to waste your time visiting a pantry that is not open.",
    "description": null,
    "requirements": "Brin\nGo To Details Page For More Information",
    "scraped_at": "2025-10-30T13:19:04.486936",
    "latitude": 21.9735448,
    "longitude": -159.3782416,
    "geocoded_address": "Uahi Road, Ulu Mahi, L\u012bhu\u02bbe, Kaua\u02bbi County, Hawaii, 96766, United States of America"
  },
  {
    "url": "https://www.foodpantries.org/li/hi_lihue_hawaii-food-bank-lihue-food-pantry",
    "name": "Hawaii Food Bank Lihue Food Pantry",
    "address": "4241 Hanahao Pl",
    "city": "Lihue",
    "state": "HI",
    "zip": "96766",
    "phone": "(808) 482-2224",
    "fax": null,
    "email": null,
    "website": "http://www.freefood.org/",
    "hours": "3rd Friday of the Month: 12 pm\nGo To Details Page For More Information",
    "description": null,
    "requirements": "Brin\nGo To Details Page For More Information",
    "scraped_at": "2025-10-30T13:19:06.841005",
    "latitude": 21.9769622,
    "longitude": -159.3687721,
    "geocoded_address": "Lihue, Kaua\u02bbi County, Hawaii, 96766, United States of America",
    "note": "Geocoded to city center (exact address not found)"
  },
  {
    "url": "https://www.foodpantries.org/li/st_joseph_church_outreach_program_makawao_96768",
    "name": "St Joseph Church Outreach Program - Makawao",
    "address": "1294 Makawao Avenue",
    "city": "Makawao",
    "state": "HI",
    "zip": "96768",
    "phone": null,
    "fax": null,
    "email": null,
    "website": "http://www.freefood.org/",
    "hours": "4th Thursday of every month: 9 am - 11:30 am\r\n                                    \r\n                                                                        \n* Important: Please call the food pantries to confirm that the hours have not changed. We do our best to provide full information and details, but food pantries often change their hours without notifying us. We do not want you to waste your time visiting a pantry that is not open.",
    "description": null,
    "requirements": "Must register first and ID is required.",
    "scraped_at": "2025-10-30T13:19:10.994672",
    "latitude": 20.8557958,
    "longitude": -156.3085324,
    "geocoded_address": "Saint Joseph Catholic Church, 1294, Makawao Avenue, Makawao, Maui County, Hawaii, 96768, United States of America"
  },
  {
    "url": "https://www.foodpantries.org/li/sacred-heart-church-pahoa",
    "name": "Sacred Heart Church - Pahoa",
    "address": "15-3033 Pahoa Village Road",
    "city": "Pahoa",
    "state": "HI",
    "zip": "96778",
    "phone": "(808) 965-8202",
    "fax": "(808) 965-8202",
    "email": null,
    "website": "http://www.freefood.org/",
    "hours": "Third Thursday of the month10:00 am to 12:00pmWe are located in Avery Hall.  Free parking, coffee and snacks.\r\n                                    \r\n                                    County or Counties Served: Hawaii",
    "description": null,
    "requirements": "Need to bring picture ID and social security card for each household member.  Pantry Hours: Friday 8:30am - 11:00am For more information, please call. \nGo To Details Page For More Information",
    "scraped_at": "2025-10-30T13:19:13.421078",
    "latitude": 19.4967518,
    "longitude": -154.950072,
    "geocoded_address": "Pahoa, Hawai\u02bbi County, Hawaii, United States of America",
    "note": "Geocoded to city center (exact address not found)"
  },
  {
    "url": "https://www.foodpantries.org/li/peniel_pearl_gates_church_96782",
    "name": "Peniel Pearl Gates Church",
    "address": "944 Hugh Street",
    "city": "Pearl City",
    "state": "HI",
    "zip": "96782",
    "phone": null,
    "fax": null,
    "email": null,
    "website": "http://www.freefood.org/",
    "hours": "1st Thursday of every month: 10 am - 11:30 am. Please call 1st\r\n                                    \r\n                                                                        \n* Important: Please call the food pantries to confirm that the hours have not changed. We do our best to provide full information and details, but food pantries often change their hours without notifying us. We do not want you to waste your time visiting a pantry that is not open.",
    "description": null,
    "requirements": "Referral required by Welfare Office/Health Nurse. No walk-ins. \r\n \r\nPantry Hours: \r\n Call ahead - verify availability, dates, and times for distribution. \r\n \r\nFor more information, please call.",
    "scraped_at": "2025-10-30T13:19:16.966103",
    "latitude": 21.3921163,
    "longitude": -157.9726535,
    "geocoded_address": "944, Hugh Street, Pearl City, Honolulu County, Hawaii, 96782, United States of America"
  },
  {
    "url": "https://www.foodpantries.org/li/our_lady_of_good_counsel_church_outreach_96782",
    "name": "Our Lady of Good Counsel Church Outreach",
    "address": "1525 Waimano Home Road",
    "city": "Pearl City",
    "state": "HI",
    "zip": "96782",
    "phone": "(808) 455-3012",
    "fax": "(808) 456-9443",
    "email": null,
    "website": "http://www.freefood.org/",
    "hours": "Wednesdays: \r\n8:30am - 11:30am\n\r\nCall 1st - ensure availability, closed on holidays.\r\n                                    \r\n                                    County or Counties Served: Honolulu",
    "description": null,
    "requirements": "Referral required by Welfare Office/Health Nurse. No walk-ins. \r\n \r\nPantry Hours: \r\n Call ahead - verify availability, dates, and times for distribution. \r\n \r\nFor more information, please call.",
    "scraped_at": "2025-10-30T13:19:22.731887",
    "latitude": 21.4054664,
    "longitude": -157.9647488,
    "geocoded_address": "Our Lady Of Good Council, 1525, Waimano Home Road, Pearl City, Honolulu County, Hawaii, 96782, United States of America"
  },
  {
    "url": "https://www.foodpantries.org/li/church_of_the_pacific_96722",
    "name": "Church of the Pacific",
    "address": "4521 Kapa Ka Street",
    "city": "Princeville",
    "state": "HI",
    "zip": "96722",
    "phone": "(808) 826-6481",
    "fax": null,
    "email": null,
    "website": "http://www.freefood.org/",
    "hours": "Wednesday 4:15pm - 5:00pmFor more information, please call. \nCounty or Counties Served: Kauai",
    "description": null,
    "requirements": "Brin\nGo To Details Page For More Information",
    "scraped_at": "2025-10-30T13:19:26.218637",
    "latitude": 22.223611,
    "longitude": -159.485278,
    "geocoded_address": "Princeville, Kaua\u02bbi County, Hawaii, 96714, United States of America",
    "note": "Geocoded to city center (exact address not found)"
  },
  {
    "url": "https://www.foodpantries.org/li/grace_church_96788",
    "name": "Grace Church",
    "address": "55 Maka'ena Road",
    "city": "Pukalani",
    "state": "HI",
    "zip": "96788",
    "phone": null,
    "fax": null,
    "email": null,
    "website": "http://www.freefood.org/",
    "hours": "Wednesdays 12-1 pm\r\n                                    \r\n                                                                        \n* Important: Please call the food pantries to confirm that the hours have not changed. We do our best to provide full information and details, but food pantries often change their hours without notifying us. We do not want you to waste your time visiting a pantry that is not open.",
    "description": null,
    "requirements": "Must register first and ID and proof of residency is required. \r\n \r\nPantry Hours: \r\n Friday \r\n9:00am - 10:00am \r\n \r\nFor more information, please call.",
    "scraped_at": "2025-10-30T13:19:32.020906",
    "latitude": 20.8355938,
    "longitude": -156.336124,
    "geocoded_address": "Pukalani, Maui County, Hawaii, United States of America",
    "note": "Geocoded to city center (exact address not found)"
  },
  {
    "url": "https://www.foodpantries.org/li/ka-hale-pomaikai",
    "name": "Ka Hale Pomaika'i",
    "address": "7533 Kamehameha V Hwy",
    "city": "Ualapue",
    "state": "HI",
    "zip": "96748",
    "phone": null,
    "fax": null,
    "email": null,
    "website": "http://www.freefood.org/",
    "hours": "3rd Wednesday of the Month: 7:45am-4:30pm\nGo To Details Page For More Information",
    "description": null,
    "requirements": "ID\nGo To Details Page For More Information",
    "scraped_at": "2025-10-30T13:19:37.964207",
    "latitude": 21.0601677,
    "longitude": -156.8337692,
    "geocoded_address": "\u2018Ualapu\u2018e Place, \u2018Ualapu\u2018e, Maui County, Hawaii, United States of America",
    "note": "Geocoded to city center (exact address not found)"
  },
  {
    "url": "https://www.foodpantries.org/li/hi_wahiawa_our-lady-of-sorrow-wahiawa-food-pantry",
    "name": "Our Lady Of Sorrow (Wahiawa) Food Pantry",
    "address": "1403-A California Avenue",
    "city": "Wahiawa",
    "state": "HI",
    "zip": "96786",
    "phone": "(808) 621-5109",
    "fax": null,
    "email": null,
    "website": "http://www.freefood.org/",
    "hours": "LAST SATURDAY of every month.Donations may be dropped off at the Parish Office during regular business hours.\nCounty or Counties Served: Honolulu",
    "description": null,
    "requirements": null,
    "scraped_at": "2025-10-30T13:19:41.961416",
    "latitude": 21.4959984,
    "longitude": -158.0296608,
    "geocoded_address": "California Avenue, Wahiawa, Honolulu County, Hawaii, 96786, United States of America"
  },
  {
    "url": "https://www.foodpantries.org/li/wahiawa_7th_day_adventist_church_96786",
    "name": "Wahiawa 7th Day Adventist Church",
    "address": "1313 California Avenue",
    "city": "Wahiawa",
    "state": "HI",
    "zip": "96786",
    "phone": "(808) 622-3440",
    "fax": null,
    "email": null,
    "website": "http://www.freefood.org/",
    "hours": "Last Sunday of every month\r\n9:00am - 11:00am\n\r\nFor more information, please call. \nCounty or Counties Served: Honolulu",
    "description": null,
    "requirements": null,
    "scraped_at": "2025-10-30T13:19:45.669303",
    "latitude": 21.5015026,
    "longitude": -158.0184879,
    "geocoded_address": "1313, California Avenue, Wahiawa, Honolulu County, Hawaii, 96786, United States of America"
  },
  {
    "url": "https://www.foodpantries.org/li/st_stephens_episcopal_church_food_pantry_96786",
    "name": "St Stephen's Episcopal Church Food Pantry",
    "address": "1679 California Avenue",
    "city": "Wahiawa",
    "state": "HI",
    "zip": "96786",
    "phone": "(808) 621-8662",
    "fax": null,
    "email": null,
    "website": "http://www.freefood.org/",
    "hours": "Tuesday and Friday\r\n 9:00am - 11z;00am\n\r\nFor more information, please call. \nCounty or Counties Served: Honolulu",
    "description": null,
    "requirements": "Referral required by Welfare Office/Health Nurse. No walk-ins. \r\n \r\nPantry Hours: \r\n Call ahead - verify availability, dates, and times for distribution. \r\n \r\nFor more information, please call.",
    "scraped_at": "2025-10-30T13:19:48.550432",
    "latitude": 21.5023475,
    "longitude": -158.0083708,
    "geocoded_address": "1679, California Avenue, Wahiawa, Honolulu County, Hawaii, 96786, United States of America"
  },
  {
    "url": "https://www.foodpantries.org/li/hi_wahiawa_new-life-body-of-christ-church-food-pantry",
    "name": "New Life Body of Christ Church Food Pantry",
    "address": "74 S Kamehameha Highway",
    "city": "Wahiawa",
    "state": "HI",
    "zip": "96786",
    "phone": "(808) 622-6650",
    "fax": null,
    "email": null,
    "website": "http://www.freefood.org/",
    "hours": "Tuesday and Thursday 9:00 am to 2:00 pm\nCounty or Counties Served: Honolulu",
    "description": null,
    "requirements": "Referral required by Welfare Office/Health Nurse. No walk-ins. \r\n \r\nPantry Hours: \r\n Call ahead - verify availability, dates, and times for distribution. \r\n \r\nFor more information, please call.",
    "scraped_at": "2025-10-30T13:19:50.766259",
    "latitude": 21.4943915,
    "longitude": -158.0291678,
    "geocoded_address": "Kamehameha Highway, Wahiawa, Honolulu County, Hawaii, 96786, United States of America"
  },
  {
    "url": "https://www.foodpantries.org/li/st_michaels_church_parish_outreach_96791",
    "name": "St Michael's Church Parish Outreach",
    "address": "67-390 Goodale Avenue",
    "city": "Waialua",
    "state": "HI",
    "zip": "96791",
    "phone": null,
    "fax": null,
    "email": null,
    "website": "http://www.freefood.org/",
    "hours": "Monday, Tuesday and Thursday: 8:30 am - 10 am\r\n                                    \r\n                                                                        \n* Important: Please call the food pantries to confirm that the hours have not changed. We do our best to provide full information and details, but food pantries often change their hours without notifying us. We do not want you to waste your time visiting a pantry that is not open.",
    "description": null,
    "requirements": "Registration is required. Forms are available at 10:00am on site ID Proof of residence. \nGo To Details Page For More Information",
    "scraped_at": "2025-10-30T13:19:53.250873",
    "latitude": 21.575719,
    "longitude": -158.124847,
    "geocoded_address": "Waialua, Honolulu County, Hawaii, 96791, United States of America",
    "note": "Geocoded to city center (exact address not found)"
  },
  {
    "url": "https://www.foodpantries.org/li/waianae_seventh_day_adventist_church_96792",
    "name": "Waianae Seventh Day Adventist Church",
    "address": "86-72 Farrington Hwy",
    "city": "Waianae",
    "state": "HI",
    "zip": "96792",
    "phone": "(808) 696-7790",
    "fax": "(808) 696-7790",
    "email": null,
    "website": "http://www.freefood.org/",
    "hours": "The 3rd Wednesday of the month 7:00am - 9:00am  Requirements: Picture ID needed.  For more information, please call. \nGo To Details Page For More Information",
    "description": null,
    "requirements": "Picture ID needed.  For more information, please call. \nGo To Details Page For More Information",
    "scraped_at": "2025-10-30T13:19:56.663922",
    "latitude": 21.4471728,
    "longitude": -158.1888762,
    "geocoded_address": "Farrington Highway, Waianae, Honolulu County, Hawaii, 96792, United States of America"
  },
  {
    "url": "https://www.foodpantries.org/li/waianae_assembly_of_god_food_pantry_96792",
    "name": "Waianae Assembly of God - Food Pantry",
    "address": "85-251 Farrington Hwy",
    "city": "Waianae",
    "state": "HI",
    "zip": "96792",
    "phone": "(808) 306-3931",
    "fax": null,
    "email": null,
    "website": "http://www.freefood.org/",
    "hours": "1st and 2nd Tuesday of every month 1:30pm - 2:30 pmFor more information, please call. \nCounty or Counties Served: Honolulu",
    "description": null,
    "requirements": "Registration is required. Forms are available at 10:00am on site ID Proof of residence. \nGo To Details Page For More Information",
    "scraped_at": "2025-10-30T13:19:59.299336",
    "latitude": 21.4471728,
    "longitude": -158.1888762,
    "geocoded_address": "Farrington Highway, Waianae, Honolulu County, Hawaii, 96792, United States of America"
  },
  {
    "url": "https://www.foodpantries.org/li/paradise_chapel_maili_96792",
    "name": "Paradise Chapel Ma'ili",
    "address": "87-125 Maipaloa Street",
    "city": "Waianae",
    "state": "HI",
    "zip": "96792",
    "phone": "(808) 668-1588",
    "fax": null,
    "email": null,
    "website": "http://www.freefood.org/",
    "hours": "The 3rd Wednesday of the month7:00am - 9:00amRequirements: Picture ID needed.For more information, please call.\nCounty or Counties Served: Honolulu",
    "description": null,
    "requirements": "Picture ID needed.For more information, please call.\nCounty or Counties Served: Honolulu",
    "scraped_at": "2025-10-30T13:20:02.285939",
    "latitude": 21.446678,
    "longitude": -158.185272,
    "geocoded_address": "Waianae, Honolulu County, Hawaii, 96792, United States of America",
    "note": "Geocoded to city center (exact address not found)"
  },
  {
    "url": "https://www.foodpantries.org/li/honolulu_community_action_program_inc_96792",
    "name": "Honolulu Community Action Program Inc. Leeward District",
    "address": "85-555 Farrington Hwy",
    "city": "Waianae",
    "state": "HI",
    "zip": "96792",
    "phone": "(808) 696-4261",
    "fax": "(808) 696-4261",
    "email": null,
    "website": "http://www.hcapweb.org",
    "hours": "The 3rd Wednesday of the month 7:00am - 9:00am  Requirements: Picture ID needed.  For more information, please call. \nGo To Details Page For More Information",
    "description": null,
    "requirements": "Registration is required. Forms are available at 10:00am on siteIDProof of residence.\nCounty or Counties Served: Honolulu",
    "scraped_at": "2025-10-30T13:20:05.752253",
    "latitude": 21.4471728,
    "longitude": -158.1888762,
    "geocoded_address": "Farrington Highway, Waianae, Honolulu County, Hawaii, 96792, United States of America"
  },
  {
    "url": "https://www.foodpantries.org/li/hi_96792_waianae-baptist-church",
    "name": "Waianae Baptist Church Food Pantry",
    "address": "85-131 Ala Hema Street",
    "city": "Waianae",
    "state": "HI",
    "zip": "96792",
    "phone": "(808) 696-4374",
    "fax": null,
    "email": null,
    "website": "http://www.freefood.org/",
    "hours": "The 3rd Wednesday of the month 7:00am - 9:00am  Requirements: Picture ID needed.  For more information, please call. \nGo To Details Page For More Information",
    "description": null,
    "requirements": "Picture ID needed.  For more information, please call. \nGo To Details Page For More Information",
    "scraped_at": "2025-10-30T13:20:09.628563",
    "latitude": 21.4525295,
    "longitude": -158.1889295,
    "geocoded_address": "Ala Hema Street, Waianae, Honolulu County, Hawaii, 96792, United States of America"
  },
  {
    "url": "https://www.foodpantries.org/li/hi_waianae_nanaikapono-protestant-church-food-pantry",
    "name": "Nanaikapono Protestant Church Food Pantry",
    "address": "89-235 Pua Avenue",
    "city": "Waianae",
    "state": "HI",
    "zip": "96792",
    "phone": "(808) 668-1184",
    "fax": null,
    "email": null,
    "website": "http://www.freefood.org/",
    "hours": "Mondays from 8:00am to 10:00am\nCounty or Counties Served: Honolulu",
    "description": null,
    "requirements": "Picture ID needed.  For more information, please call. \nGo To Details Page For More Information",
    "scraped_at": "2025-10-30T13:20:13.789450",
    "latitude": 21.446678,
    "longitude": -158.185272,
    "geocoded_address": "Waianae, Honolulu County, Hawaii, 96792, United States of America",
    "note": "Geocoded to city center (exact address not found)"
  },
  {
    "url": "https://www.foodpantries.org/li/maui-food-bank",
    "name": "Maui Food Bank",
    "address": "760 Kolu Street",
    "city": "Wailuku",
    "state": "HI",
    "zip": "96793",
    "phone": "(808) 243-9500",
    "fax": null,
    "email": null,
    "website": "http://mauifoodbank.org",
    "hours": "Saturday \r\n 9:30am - 12:00pm \r\n \r\nFor more information, please call.",
    "description": null,
    "requirements": "Proof of income on the 1st visit. \r\n \r\nPantry Hours: \r\nSaturday \r\n 9:30am - 12:00pm \r\n \r\nFor more information, please call.",
    "scraped_at": "2025-10-30T13:20:20.832727",
    "latitude": 20.9042485,
    "longitude": -156.4868396,
    "geocoded_address": "760, Kolu Street, Paukukalo, Wailuku, Maui County, Hawaii, 96793, United States of America"
  },
  {
    "url": "https://www.foodpantries.org/li/maui-individualized-learning-center",
    "name": "Maui Individualized Learning Center",
    "address": "PO Box 2988",
    "city": "Wailuku",
    "state": "HI",
    "zip": "96793",
    "phone": "(808)244-6119",
    "fax": null,
    "email": null,
    "website": "http://www.freefood.org/",
    "hours": "Saturday \r\n 9:30am - 12:00pm \r\n \r\nFor more information, please call.",
    "description": null,
    "requirements": "Proof of income on the 1st visit. \r\n \r\nPantry Hours: \r\nSaturday \r\n 9:30am - 12:00pm \r\n \r\nFor more information, please call.",
    "scraped_at": "2025-10-30T13:20:25.089239",
    "latitude": 20.8905443,
    "longitude": -156.503093,
    "geocoded_address": "Wailuku, Maui County, Hawaii, United States of America",
    "note": "Geocoded to city center (exact address not found)"
  },
  {
    "url": "https://www.foodpantries.org/li/wailuku_church_of_god_96793",
    "name": "Wailuku Church of God",
    "address": "2123 Kahookele Street",
    "city": "Wailuku",
    "state": "HI",
    "zip": "96793",
    "phone": "(808) 264-0435",
    "fax": null,
    "email": null,
    "website": "http://www.freefood.org/",
    "hours": "Saturday: 8:30 am - 11:30 am\nGo To Details Page For More Information",
    "description": null,
    "requirements": "Proof of income on the 1st visit. \r\n \r\nPantry Hours: \r\nSaturday \r\n 9:30am - 12:00pm \r\n \r\nFor more information, please call.",
    "scraped_at": "2025-10-30T13:20:28.586227",
    "latitude": 20.8823977,
    "longitude": -156.5031536,
    "geocoded_address": "2123, Kahookele Street, Hopoi Village, Wailuku, Maui County, Hawaii, 96793, United States of America"
  },
  {
    "url": "https://www.foodpantries.org/li/wailuku_union_church_96793",
    "name": "Wailuku Union Church",
    "address": "327 High Street",
    "city": "Wailuku",
    "state": "HI",
    "zip": "96793",
    "phone": null,
    "fax": null,
    "email": null,
    "website": "http://www.freefood.org/",
    "hours": "Saturday: 8:30 am - 11:30 am\r\n                                    \r\n                                                                        \n* Important: Please call the food pantries to confirm that the hours have not changed. We do our best to provide full information and details, but food pantries often change their hours without notifying us. We do not want you to waste your time visiting a pantry that is not open.",
    "description": null,
    "requirements": "Proof of income on the 1st visit. \r\n \r\nPantry Hours: \r\nSaturday \r\n 9:30am - 12:00pm \r\n \r\nFor more information, please call.",
    "scraped_at": "2025-10-30T13:20:35.039575",
    "latitude": 20.884148,
    "longitude": -156.5047888,
    "geocoded_address": "South High Street, Hopoi Village, Wailuku, Maui County, Hawaii, 96793, United States of America"
  },
  {
    "url": "https://www.foodpantries.org/li/ka_hale_ake_ola_96793",
    "name": "Ka Hale Ake Ola",
    "address": "670 Waiale Road",
    "city": "Wailuku",
    "state": "HI",
    "zip": "96793",
    "phone": null,
    "fax": null,
    "email": null,
    "website": "http://www.freefood.org/",
    "hours": "Monday and Wednesdays 1 pm - 3 pm\r\n                                    \r\n                                                                        \n* Important: Please call the food pantries to confirm that the hours have not changed. We do our best to provide full information and details, but food pantries often change their hours without notifying us. We do not want you to waste your time visiting a pantry that is not open.",
    "description": null,
    "requirements": "Proof of income on the 1st visit. \r\n \r\nPantry Hours: \r\nSaturday \r\n 9:30am - 12:00pm \r\n \r\nFor more information, please call.",
    "scraped_at": "2025-10-30T13:20:40.998039",
    "latitude": 20.8648408,
    "longitude": -156.4994322,
    "geocoded_address": "Waiale Road, Wailuku, Maui County, Hawaii, 96793, United States of America"
  },
  {
    "url": "https://www.foodpantries.org/li/feed_my_sheep_96793",
    "name": "Feed My Sheep",
    "address": "W Vineyard St and N Church St",
    "city": "Wailuku",
    "state": "HI",
    "zip": "96793",
    "phone": "(808) 870-9421",
    "fax": "(808) 872-9100",
    "email": null,
    "website": "http://www.freefood.org/",
    "hours": "Saturday\r\n 9:30am - 12:00pm\n\r\nFor more information, please call. \nVolunteering Information:http://feedmysheepmaui.com/index.php/department-contacts/14-volunteer-coordination \nCounty or Counties Served: Maui",
    "description": null,
    "requirements": "Proof of income on the 1st visit.\n\r\nPantry Hours: \r\nSaturday\r\n 9:30am - 12:00pm\n\r\nFor more information, please call. \nVolunteering Information:http://feedmysheepmaui.com/index.php/department-contacts/14-volunteer-coordination \nCounty or Counties Served: Maui",
    "scraped_at": "2025-10-30T13:20:43.582522",
    "latitude": 20.8905443,
    "longitude": -156.503093,
    "geocoded_address": "Wailuku, Maui County, Hawaii, United States of America",
    "note": "Geocoded to city center (exact address not found)"
  },
  {
    "url": "https://www.foodpantries.org/li/hi_96793_iao-united-church-of-christ",
    "name": "Iao United Church of Christ Food Pantry",
    "address": "2371 W. Vineyard Street",
    "city": "Wailuku",
    "state": "HI",
    "zip": "96793",
    "phone": "(808) 244-7353",
    "fax": null,
    "email": null,
    "website": "http://www.freefood.org/",
    "hours": "Monday-Friday 9:00am - 4:00pm. Closed all Federal and State holidays.Notes:Call before coming in. \nCounty or Counties Served: Maui",
    "description": null,
    "requirements": "Proof of income on the 1st visit. \r\n \r\nPantry Hours: \r\nSaturday \r\n 9:30am - 12:00pm \r\n \r\nFor more information, please call.",
    "scraped_at": "2025-10-30T13:20:48.825027",
    "latitude": 20.8872815,
    "longitude": -156.5069614,
    "geocoded_address": "2371, West Vineyard Street, Hopoi Village, Wailuku, Maui County, Hawaii, 96793, United States of America"
  },
  {
    "url": "https://www.foodpantries.org/li/st_matthews_episcopal_church_96795",
    "name": "St Matthew's Episcopal Church",
    "address": "41-054 Ehukai Street",
    "city": "Waimanalo",
    "state": "HI",
    "zip": "96795",
    "phone": "(808) 259-8664",
    "fax": null,
    "email": null,
    "website": "http://www.freefood.org/",
    "hours": "Wednesday 5:30pm - 6:30pmFor more information, please call. \nCounty or Counties Served: Honolulu",
    "description": null,
    "requirements": "Need to bring driver's license or State ID card, Social Security card, and proof of address.  Pantry Hours:  Tuesday, Thursday 9:00am - 12:00 pm  For more information, please call.  \nGo To Details Page For More Information",
    "scraped_at": "2025-10-30T13:20:52.173795",
    "latitude": 21.3395777,
    "longitude": -157.7019633,
    "geocoded_address": "Ehukai Street, Waimanalo Beach, Honolulu County, Hawaii, 96795, United States of America"
  },
  {
    "url": "https://www.foodpantries.org/li/st_george_catholic_church_96795",
    "name": "St George Catholic Church",
    "address": "41-1323 Kalanianaole Hwy",
    "city": "Waimanalo",
    "state": "HI",
    "zip": "96795",
    "phone": null,
    "fax": null,
    "email": null,
    "website": "http://www.freefood.org/",
    "hours": "Tuesday and Thursday, 9am-12pm; closed on holidays. \r\n                                    \r\n                                                                        \n* Important: Please call the food pantries to confirm that the hours have not changed. We do our best to provide full information and details, but food pantries often change their hours without notifying us. We do not want you to waste your time visiting a pantry that is not open.",
    "description": null,
    "requirements": "Need to bring driver's license or State ID card, Social Security card, and proof of address.  Pantry Hours:  Tuesday, Thursday 9:00am - 12:00 pm  For more information, please call.  \nGo To Details Page For More Information",
    "scraped_at": "2025-10-30T13:20:55.048974",
    "latitude": 21.346304,
    "longitude": -157.7211,
    "geocoded_address": "Waimanalo, Honolulu County, Hawaii, United States of America",
    "note": "Geocoded to city center (exact address not found)"
  },
  {
    "url": "https://www.foodpantries.org/li/st_joseph_church_outreach_waipahu_96797",
    "name": "St Joseph Church Outreach Waipahu",
    "address": "94-675 Farrington Hwy",
    "city": "Waipahu",
    "state": "HI",
    "zip": "96797",
    "phone": "(808) 677-4276",
    "fax": "(808) 671-3215",
    "email": null,
    "website": "http://www.freefood.org/",
    "hours": "Call ahead - verify availability, dates, and times for distribution.\n\r\nFor more information, please call. \nCounty or Counties Served: Honolulu",
    "description": null,
    "requirements": "Referral required by Welfare Office/Health Nurse. No walk-ins. \n\r\nPantry Hours:\r\n Call ahead - verify availability, dates, and times for distribution.\n\r\nFor more information, please call. \nCounty or Counties Served: Honolulu",
    "scraped_at": "2025-10-30T13:21:02.390047",
    "latitude": 21.3829193,
    "longitude": -158.0077754,
    "geocoded_address": "St. Joseph Church, 94-675, Farrington Highway, Waipahu, Honolulu County, Hawaii, 96797, United States of America"
  },
  {
    "url": "https://www.foodpantries.org/li/lighthouse_outreach_center_96797",
    "name": "Lighthouse Outreach Center",
    "address": "94-230 Leokane Street",
    "city": "Waipahu",
    "state": "HI",
    "zip": "96797",
    "phone": null,
    "fax": null,
    "email": null,
    "website": "http://www.freefood.org/",
    "hours": "1st and 3rd Wednesday (of every month); 2nd and 4th Monday (of every month): 9am-2pm\r\n                                    \r\n                                                                        \n* Important: Please call the food pantries to confirm that the hours have not changed. We do our best to provide full information and details, but food pantries often change their hours without notifying us. We do not want you to waste your time visiting a pantry that is not open.",
    "description": null,
    "requirements": "Referral required by Welfare Office/Health Nurse. No walk-ins. \r\n \r\nPantry Hours: \r\n Call ahead - verify availability, dates, and times for distribution. \r\n \r\nFor more information, please call.",
    "scraped_at": "2025-10-30T13:21:04.942482",
    "latitude": 21.3805756,
    "longitude": -158.020752,
    "geocoded_address": "94-230, Leokane Street, West Loch, Waipahu, Honolulu County, Hawaii, 96797, United States of America"
  },
  {
    "url": "https://www.foodpantries.org/li/calvary_chapel_pearl_harbor_96797",
    "name": "Calvary Chapel - Pearl Harbor",
    "address": "94-1044 Waipio Uka Street",
    "city": "Waipahu",
    "state": "HI",
    "zip": "96797",
    "phone": null,
    "fax": null,
    "email": null,
    "website": "http://www.freefood.org/",
    "hours": "Monday, Wednesday, Friday: 9am-11am (by appointment)\r\n                                    \r\n                                                                        \n* Important: Please call the food pantries to confirm that the hours have not changed. We do our best to provide full information and details, but food pantries often change their hours without notifying us. We do not want you to waste your time visiting a pantry that is not open.",
    "description": null,
    "requirements": "Referral required by Welfare Office/Health Nurse. No walk-ins. \r\n \r\nPantry Hours: \r\n Call ahead - verify availability, dates, and times for distribution. \r\n \r\nFor more information, please call.",
    "scraped_at": "2025-10-30T13:21:08.343143",
    "latitude": 21.4131664,
    "longitude": -157.9990595,
    "geocoded_address": "Calvary Chapel Pearl Harbor, 94-1044, Waipio Uka Street, Waipio, Crestview, Waipahu, Honolulu County, Hawaii, 96797, United States of America"
  },
  {
    "url": "https://www.foodpantries.org/li/brethren_of_christ_international_96797",
    "name": "Brethren of Christ International",
    "address": "94-133 Pahu Street",
    "city": "Waipahu",
    "state": "HI",
    "zip": "96797",
    "phone": null,
    "fax": null,
    "email": null,
    "website": "http://www.freefood.org/",
    "hours": "Every 3rd Sunday (of every month): 1 pm - 2 pm\r\n                                    \r\n                                                                        \n* Important: Please call the food pantries to confirm that the hours have not changed. We do our best to provide full information and details, but food pantries often change their hours without notifying us. We do not want you to waste your time visiting a pantry that is not open.",
    "description": null,
    "requirements": "Referral required by Welfare Office/Health Nurse. No walk-ins. \r\n \r\nPantry Hours: \r\n Call ahead - verify availability, dates, and times for distribution. \r\n \r\nFor more information, please call.",
    "scraped_at": "2025-10-30T13:21:11.846585",
    "latitude": 21.3821723,
    "longitude": -158.0073755,
    "geocoded_address": "Pahu Street, Waipahu, Honolulu County, Hawaii, 96797, United States of America"
  },
  {
    "url": "https://www.foodpantries.org/li/the_international_city_of_refuge_christian_church_ministries_96797",
    "name": "The International City of Refuge Christian Church Ministries",
    "address": "94-929 Waipahu Street",
    "city": "Waipahu",
    "state": "HI",
    "zip": "96797",
    "phone": null,
    "fax": null,
    "email": null,
    "website": "http://www.corcc.org",
    "hours": "Food Giveaway every Friday at 3:30pm (until the food is gone). We serve Waianae Tuesdays at 11:30am.",
    "description": null,
    "requirements": "Referral required by Welfare Office/Health Nurse. No walk-ins. \r\n \r\nPantry Hours: \r\n Call ahead - verify availability, dates, and times for distribution. \r\n \r\nFor more information, please call.",
    "scraped_at": "2025-10-30T13:21:14.446052",
    "latitude": 21.386756,
    "longitude": -158.0056175,
    "geocoded_address": "94-929, Waipahu Street, Waipahu, Honolulu County, Hawaii, 96797, United States of America"
  }
]