[
  {
    "url": "https://www.foodpantries.org/li/willow_bay_baptist_church_83211",
    "name": "Willow Bay Baptist Church",
    "address": "246 Lee Street",
    "city": "American Falls",
    "state": "ID",
    "zip": "83211",
    "phone": "(208) 226-2244",
    "fax": null,
    "email": null,
    "website": "http://www.eisba.org",
    "hours": "3rd Saturday of the month\r\n 12:00pm\n\r\nFor more information, please call.",
    "description": null,
    "requirements": null,
    "scraped_at": "2025-10-30T13:39:13.614291",
    "latitude": 42.79241,
    "longitude": -112.8497892,
    "geocoded_address": "246, Lee Street, American Falls, Power County, Idaho, 83211, United States of America"
  },
  {
    "url": "https://www.foodpantries.org/li/blaine_county_hunger_coalition_83638",
    "name": "Blaine County Hunger Coalition",
    "address": "121 Honeysuckle St.",
    "city": "Bellevue",
    "state": "ID",
    "zip": "83638",
    "phone": null,
    "fax": null,
    "email": null,
    "website": "http://www.freefood.org/",
    "hours": "Monday through Thursday 9:00am - 5:00pm\r\n                                    \r\n                                    County or Counties Served: Valley",
    "description": null,
    "requirements": null,
    "scraped_at": "2025-10-30T13:39:16.438505",
    "latitude": 43.4521897,
    "longitude": -114.2535607,
    "geocoded_address": "121, Honeysuckle Street, Bellevue, Blaine County, Idaho, 83313, United States of America"
  },
  {
    "url": "https://www.foodpantries.org/li/id_83221_blackfoot-community-pantry",
    "name": "Blackfoot Community Pantry",
    "address": "245 W Sexton Street",
    "city": "Blackfoot",
    "state": "ID",
    "zip": "83221",
    "phone": "(208) 680-3492",
    "fax": null,
    "email": null,
    "website": "http://www.freefood.org/",
    "hours": "Wednesday\r\n3:00pm to 6:00pm\n\r\nFor more information, please call. \nVolunteering Information:We are always looking for people to volunteer.  Just contact us to set up a time. \nCounty or Counties Served: Bingham",
    "description": null,
    "requirements": null,
    "scraped_at": "2025-10-30T13:39:19.501438",
    "latitude": 43.1927989,
    "longitude": -112.3554383,
    "geocoded_address": "Sexton street, Blackfoot, Bingham County, Idaho, 83221, United States of America"
  },
  {
    "url": "https://www.foodpantries.org/li/north_bingham_community_foodbank_83274",
    "name": "North Bingham Community Foodbank",
    "address": "763 Aspen Ave",
    "city": "Shelley",
    "state": "ID",
    "zip": "83274",
    "phone": null,
    "fax": null,
    "email": null,
    "website": "http://www.freefood.org/",
    "hours": "Tuesday12:00pm - 2:00pm\r\n                                    \r\n                                    County or Counties Served: Bingham",
    "description": null,
    "requirements": null,
    "scraped_at": "2025-10-30T13:39:25.441185",
    "latitude": 43.3692288,
    "longitude": -112.1220479,
    "geocoded_address": "763, Aspen Avenue, Shelley, Bingham County, Idaho, 83274, United States of America"
  },
  {
    "url": "https://www.foodpantries.org/li/north-bingham-county-ccommunity-foodbank",
    "name": "North Bingham County Community Food Bank",
    "address": "180 South Holmes Avenue",
    "city": "Shelley",
    "state": "ID",
    "zip": "83274",
    "phone": "(208) 881-5106",
    "fax": null,
    "email": null,
    "website": "http://www.freefood.org/",
    "hours": "Tuesday\r\n 12:00pm - 2:00pm\n\r\nFor more information, please call.\r\n                                    \r\n                                    County or Counties Served: Bingham",
    "description": null,
    "requirements": null,
    "scraped_at": "2025-10-30T13:39:28.928547",
    "latitude": 43.3800927,
    "longitude": -112.1211964,
    "geocoded_address": "180, South Holmes Avenue, Shelley, Bingham County, Idaho, 83274, United States of America"
  },
  {
    "url": "https://www.foodpantries.org/li/hate-city-christian-church-pantry",
    "name": "Gate City Christian Church Pantry",
    "address": "202 W Siphon Rd",
    "city": "Chubbuck",
    "state": "ID",
    "zip": "83202",
    "phone": "(208) 237-5002",
    "fax": "(208) 237-1969",
    "email": null,
    "website": "http://www.freefood.org/",
    "hours": "Seniors over 60 - Friday 2:00pm - 3:00pm\r\nGeneral public - Friday 3:00PM to 6:00pm.\r\nSe habla espanol.\r\nFor more information, please call.\nVolunteering Information:Volunteers are always welcome to drop-in and help the last Wednesday of each month from 4:15-6:30pm. \nCounty or Counties Served: Twin Falls",
    "description": null,
    "requirements": null,
    "scraped_at": "2025-10-30T13:39:36.522193",
    "latitude": 42.935066,
    "longitude": -112.468982,
    "geocoded_address": "202, West Siphon Road, Chubbuck, Bannock County, Idaho, 83202, United States of America"
  },
  {
    "url": "https://www.foodpantries.org/li/gods_home_of_compassion_83201",
    "name": "God's Home of Compassion",
    "address": "845 Hyde Ave",
    "city": "Pocatello",
    "state": "ID",
    "zip": "83201",
    "phone": "(208) 236-0075",
    "fax": null,
    "email": null,
    "website": "http://www.freefood.org/",
    "hours": "Tuesdays 9:00am - 12:00pmNotes:No appointments necessaryNo requirements\r\n                                    \r\n                                    County or Counties Served: Bannock",
    "description": null,
    "requirements": null,
    "scraped_at": "2025-10-30T13:39:40.629064",
    "latitude": 42.8882217,
    "longitude": -112.4367605,
    "geocoded_address": "845, Hyde Avenue, Pocatello, Bannock County, Idaho, 83201, United States of America"
  },
  {
    "url": "https://www.foodpantries.org/li/salvation_army-pocatello_83201",
    "name": "Salvation Army-Pocatello",
    "address": "400 N 4th Ave",
    "city": "Pocatello",
    "state": "ID",
    "zip": "83201",
    "phone": "(208) 232-5318",
    "fax": null,
    "email": null,
    "website": "http://www.freefood.org/",
    "hours": "Sunday: 1:30 pm to 2:30\u202fpm \nGo To Details Page For More Information",
    "description": null,
    "requirements": null,
    "scraped_at": "2025-10-30T13:39:43.257434",
    "latitude": 42.86831,
    "longitude": -112.447176,
    "geocoded_address": "400, North 4th Avenue, Pocatello, Bannock County, Idaho, 83201, United States of America"
  },
  {
    "url": "https://www.foodpantries.org/li/first_baptist_church_of_pocatello_83204",
    "name": "First Baptist Church of Pocatello",
    "address": "408 N Athur Ave.",
    "city": "Pocatello",
    "state": "ID",
    "zip": "83204",
    "phone": "(208) 232-6305",
    "fax": null,
    "email": null,
    "website": "http://www.fbcpoky.com",
    "hours": "Thursday3:30pm - 7:00pmFor more information, please call\nCounty or Counties Served: Bannock",
    "description": null,
    "requirements": null,
    "scraped_at": "2025-10-30T13:39:46.332195",
    "latitude": 42.8620287,
    "longitude": -112.450627,
    "geocoded_address": "Pocatello, Bannock County, Idaho, United States of America",
    "note": "Geocoded to city center (exact address not found)"
  },
  {
    "url": "https://www.foodpantries.org/li/pantry_aid_for_friends_83201",
    "name": "Pantry Aid For Friends",
    "address": "653 S 4th Ave",
    "city": "Pocatello",
    "state": "ID",
    "zip": "83201",
    "phone": null,
    "fax": null,
    "email": null,
    "website": "http://www.freefood.org/",
    "hours": "Monday-Friday 1:00pm - 4:00pm\r\n                                    \r\n                                    County or Counties Served: Bannock",
    "description": null,
    "requirements": null,
    "scraped_at": "2025-10-30T13:39:50.376839",
    "latitude": 42.8617017,
    "longitude": -112.4398091,
    "geocoded_address": "653, South 4th Avenue, Pocatello, Bannock County, Idaho, 83201, United States of America"
  },
  {
    "url": "https://www.foodpantries.org/li/id_pocatello_my-brothers-table",
    "name": "My Brothers Table Food Pantry at Trinity Church",
    "address": "355 W Lander",
    "city": "Pocatello",
    "state": "ID",
    "zip": "83204",
    "phone": "(208) 237-3064",
    "fax": null,
    "email": null,
    "website": "http://www.freefood.org/",
    "hours": "Sunday: 1:30 pm to 2:30\u202fpm\nCounty or Counties Served: Bannock",
    "description": null,
    "requirements": null,
    "scraped_at": "2025-10-30T13:39:53.493269",
    "latitude": 42.8596022,
    "longitude": -112.4587407,
    "geocoded_address": "West Lander Street, Pocatello, Bannock County, Idaho, 83204, United States of America"
  },
  {
    "url": "https://www.foodpantries.org/li/st_vincent_de_paul-pocatello_83201",
    "name": "St Vincent de Paul-Pocatello",
    "address": "855 S 2nd Ave",
    "city": "Pocatello",
    "state": "ID",
    "zip": "83201",
    "phone": null,
    "fax": null,
    "email": null,
    "website": "http://svdppoc.com",
    "hours": "Wednesday 10:00am - 1:00pm\r\n                                    \r\n                                    County or Counties Served: Bannock",
    "description": null,
    "requirements": null,
    "scraped_at": "2025-10-30T13:39:58.641228",
    "latitude": 42.8631219,
    "longitude": -112.4448906,
    "geocoded_address": "South 2nd Avenue, Pocatello, Bannock County, Idaho, 83209, United States of America"
  },
  {
    "url": "https://www.foodpantries.org/li/idaho-food-bank",
    "name": "Idaho Food Bank",
    "address": "3562 South TK Ave",
    "city": "Boise",
    "state": "ID",
    "zip": "83705",
    "phone": "(208) 336-9643",
    "fax": "(208) 336-9692",
    "email": null,
    "website": "http://www.freefood.org/",
    "hours": "Monday to Friday: 8:00 am to 4:00 pm  Requirements:  Must qualify and be enrolled in their CSBG program. Demographic information about the household No ID or income verification is required to receive a food box  Notes:  May visit the food pantry once every 60 days\nGo To Details Page For More Information",
    "description": null,
    "requirements": "Must qualify and be enrolled in their CSBG program. Demographic information about the household No ID or income verification is required to receive a food box  Notes:  May visit the food pantry once every 60 days\nGo To Details Page For More Information",
    "scraped_at": "2025-10-30T13:40:04.560768",
    "latitude": 43.6166163,
    "longitude": -116.200886,
    "geocoded_address": "Boise, Ada County, Idaho, United States of America",
    "note": "Geocoded to city center (exact address not found)"
  },
  {
    "url": "https://www.foodpantries.org/li/boise-rescue-mission-ministries",
    "name": "Boise Rescue Mission Ministries",
    "address": "308 S 24th Street",
    "city": "Boise",
    "state": "ID",
    "zip": "83702",
    "phone": null,
    "fax": null,
    "email": null,
    "website": "https://boiserm.org",
    "hours": "Please call. \nGo To Details Page For More Information",
    "description": null,
    "requirements": null,
    "scraped_at": "2025-10-30T13:40:12.159058",
    "latitude": 43.6199541,
    "longitude": -116.2193194,
    "geocoded_address": "Boise Rescue Mission, 308, South 24th Street, West End, North End, Boise, Ada County, Idaho, 83702, United States of America"
  },
  {
    "url": "https://www.foodpantries.org/li/treasure_valley_full_gospel_83638",
    "name": "Treasure Valley Full Gospel",
    "address": "3838 S Cole Rd",
    "city": "Boise",
    "state": "ID",
    "zip": "83709",
    "phone": "(208) 562-0651",
    "fax": null,
    "email": null,
    "website": "http://www.freefood.org/",
    "hours": "Tuesday12:00pm - 3:00pmFor more information, please call.\nCounty or Counties Served: Valley",
    "description": null,
    "requirements": "Must qualify and be enrolled in their CSBG program. Demographic information about the household No ID or income verification is required to receive a food box  Notes:  May visit the food pantry once every 60 days\nGo To Details Page For More Information",
    "scraped_at": "2025-10-30T13:40:19.032551",
    "latitude": 43.5684711,
    "longitude": -116.2739543,
    "geocoded_address": "3838, South Cole Road, Boise, Ada County, Idaho, 83709, United States of America"
  },
  {
    "url": "https://www.foodpantries.org/li/st_johns_cathedral_83611",
    "name": "St John's Food Bank",
    "address": "775 N. 8th St.",
    "city": "Boise",
    "state": "ID",
    "zip": "83702",
    "phone": "(208) 342-3511",
    "fax": "(208) 342-1564",
    "email": null,
    "website": "http://www.freefood.org/",
    "hours": "Mondays, Tuesdays & Wednesdays 1:00pm - 3:00pmExcept for major federal holidays. Requirements and services:\u00a0Provide photo ID.\u00a0Pre-made boxes \u00a0Diapers and wipes once every 30 days\u00a05 one-day bus passes every 30 days \u00a0Personal hygiene items Donations:Accept donations of non-perishable foodAccept monetary donationsChecks to: St. Johns Food Bank , 707 N. 8th St. Boise, Idaho 83702For more information, please call.",
    "description": null,
    "requirements": null,
    "scraped_at": "2025-10-30T13:40:25.864186",
    "latitude": 43.620945,
    "longitude": -116.1989109,
    "geocoded_address": "775, North 8th Street, Downtown, North End, Boise, Ada County, Idaho, 83702, United States of America"
  },
  {
    "url": "https://www.foodpantries.org/li/st_marks_food_bank_83672",
    "name": "St Mark's Food Bank",
    "address": "7960 W Northview Street",
    "city": "Boise",
    "state": "ID",
    "zip": "83704",
    "phone": "(208) 375-6651",
    "fax": null,
    "email": null,
    "website": "http://www.freefood.org/",
    "hours": "Monday - Friday\r\n 10:00pm - 2:00pm\n\r\nWe are happy to announce the addition of a food storage shed! This shed will provide much-needed space and will enable us to load and unload food more efficiently. The construction of the storage unit was made possible by a private donation.\n\r\nFor more information, please call. \nCounty or Counties Served: Washington",
    "description": null,
    "requirements": null,
    "scraped_at": "2025-10-30T13:40:29.870620",
    "latitude": 43.6271749,
    "longitude": -116.2803219,
    "geocoded_address": "Saint Mark Catholic Church, 7960, West Northview Street, West Bench Neighborhood Association, Boise, Ada County, Idaho, 83704, United States of America"
  },
  {
    "url": "https://www.foodpantries.org/li/st_marys_church_and_food_bank_83638",
    "name": "St. Mary's Church and Food Bank",
    "address": "3890 W State Street",
    "city": "Boise",
    "state": "ID",
    "zip": "83703",
    "phone": "(208) 345-2734",
    "fax": "(208) 344-9337",
    "email": null,
    "website": "http://www.freefood.org/",
    "hours": "Monday, Wednesdays and Friday\r\n11:00pm - 3:00pm\n\r\nFor more information, please call. \nCounty or Counties Served: Valley",
    "description": null,
    "requirements": null,
    "scraped_at": "2025-10-30T13:40:32.729497",
    "latitude": 43.6417157,
    "longitude": -116.236889,
    "geocoded_address": "St. Mary's Food Bank, 3890, West State Street, Boise, Ada County, Idaho, 83703, United States of America"
  },
  {
    "url": "https://www.foodpantries.org/li/mountain_view_church_of_the_brethren_83672",
    "name": "Mountain View Church of the Brethren",
    "address": "2823 N. Cole Rd.",
    "city": "Boise",
    "state": "ID",
    "zip": "83704",
    "phone": "(208) 375-0604",
    "fax": null,
    "email": null,
    "website": "http://www.mtndove.org",
    "hours": "Tuesday - Thursday 10:30am - 1:30pmOr On Call\r\n                                    \r\n                                    County or Counties Served: Washington",
    "description": null,
    "requirements": null,
    "scraped_at": "2025-10-30T13:40:36.531517",
    "latitude": 43.6306795,
    "longitude": -116.274997,
    "geocoded_address": "Mountain View Church of the Brethren, 2823, North Cole Road, West Bench Neighborhood Association, Boise, Ada County, Idaho, 83704, United States of America"
  },
  {
    "url": "https://www.foodpantries.org/li/heritage_bible_83611",
    "name": "Heritage Bible",
    "address": "7071 W Emerald",
    "city": "Boise",
    "state": "ID",
    "zip": "83704",
    "phone": null,
    "fax": null,
    "email": null,
    "website": "http://www.freefood.org/",
    "hours": "Sunday 12:30pm - 2:30pm\r\n                                    \r\n                                    County or Counties Served: Valley",
    "description": null,
    "requirements": null,
    "scraped_at": "2025-10-30T13:40:40.003671",
    "latitude": 43.6119171,
    "longitude": -116.2696657,
    "geocoded_address": "7071, West Emerald Street, Boise, Ada County, Idaho, 83704, United States of America"
  },
  {
    "url": "https://www.foodpantries.org/li/friendship_food_pantry_83672",
    "name": "Friendship Food Pantry",
    "address": "950 W State Street",
    "city": "Boise",
    "state": "ID",
    "zip": "83702",
    "phone": "(208) 345-3441",
    "fax": null,
    "email": null,
    "website": "http://www.freefood.org/",
    "hours": "Monday\r\n5:00pm - 7:00pm\n\r\nFor more information, please call. \nCounty or Counties Served: Washington",
    "description": null,
    "requirements": null,
    "scraped_at": "2025-10-30T13:40:44.707279",
    "latitude": 43.6198413,
    "longitude": -116.2020798,
    "geocoded_address": "First Presbyterian Church, 950, West State Street, Downtown, North End, Boise, Ada County, Idaho, 83702, United States of America"
  },
  {
    "url": "https://www.foodpantries.org/li/first_bible_missionary_church_83611",
    "name": "First Bible Missionary Church",
    "address": "375 N Roosevelt St.",
    "city": "Boise",
    "state": "ID",
    "zip": "83706",
    "phone": "(208) 297-8292",
    "fax": null,
    "email": null,
    "website": "http://www.freefood.org/",
    "hours": "By appointment\r\n                                    \r\n                                    County or Counties Served: Valley",
    "description": null,
    "requirements": "Must qualify and be enrolled in their CSBG program. Demographic information about the household No ID or income verification is required to receive a food box  Notes:  May visit the food pantry once every 60 days\nGo To Details Page For More Information",
    "scraped_at": "2025-10-30T13:40:49.034273",
    "latitude": 43.6076563,
    "longitude": -116.2338925,
    "geocoded_address": "375, North Roosevelt Street, Boise, Ada County, Idaho, 83706, United States of America"
  },
  {
    "url": "https://www.foodpantries.org/li/community_ministries_center_83611",
    "name": "Community Ministries Center",
    "address": "3000 Esquire Drive",
    "city": "Boise",
    "state": "ID",
    "zip": "83704",
    "phone": null,
    "fax": null,
    "email": null,
    "website": "http://www.freefood.org/",
    "hours": "Tuesday - Friday 12:00pm - 3:30pmFor more information, please call.\nCounty or Counties Served: Valley",
    "description": null,
    "requirements": null,
    "scraped_at": "2025-10-30T13:40:52.304198",
    "latitude": 43.632175,
    "longitude": -116.261046,
    "geocoded_address": "3000, North Esquire Drive, Willow Lane, Boise, Ada County, Idaho, 83704, United States of America"
  },
  {
    "url": "https://www.foodpantries.org/li/city_light_83702",
    "name": "City Light",
    "address": "1404 W Jefferson Street",
    "city": "Boise",
    "state": "ID",
    "zip": "83702",
    "phone": "(208) 368-9901",
    "fax": "(208) 368-9844",
    "email": null,
    "website": "https://boiserm.org",
    "hours": "Please call.\nCounty or Counties Served: Ada",
    "description": null,
    "requirements": null,
    "scraped_at": "2025-10-30T13:40:57.043689",
    "latitude": 43.6218832,
    "longitude": -116.2083365,
    "geocoded_address": "City Light, 1404, West Jefferson Street, Downtown, North End, Boise, Ada County, Idaho, 83702, United States of America"
  },
  {
    "url": "https://www.foodpantries.org/li/calvary_chapel_of_boise_83638",
    "name": "Calvary Chapel of Boise",
    "address": "123 S. Auto Drive",
    "city": "Boise",
    "state": "ID",
    "zip": "83709",
    "phone": "(208) 321-7440",
    "fax": null,
    "email": null,
    "website": "http://www.ccboise.org",
    "hours": "Monday - Friday9:00am - 5:00pmFood pantry modular building (on the east side of New Again Thrift Store)\r\n                                    \r\n                                    County or Counties Served: Valley",
    "description": null,
    "requirements": null,
    "scraped_at": "2025-10-30T13:41:04.039707",
    "latitude": 43.6031401,
    "longitude": -116.2764042,
    "geocoded_address": "Calvary Chapel, 123, South Auto Drive, Boise, Ada County, Idaho, 83709, United States of America"
  },
  {
    "url": "https://www.foodpantries.org/li/st-vincent-de-paul-food-bank1",
    "name": "St Vincent De Paul Food Bank",
    "address": "3209 W Overland Rd",
    "city": "Boise",
    "state": "ID",
    "zip": "83705",
    "phone": "(208) 331-1460",
    "fax": null,
    "email": null,
    "website": "http://www.svdpid.org",
    "hours": "Tuesday\r\n 10:00am - 12:00pm\r\nFriday\r\n10:00am - 12:00pm",
    "description": null,
    "requirements": "Must qualify and be enrolled in their CSBG program. Demographic information about the household No ID or income verification is required to receive a food box  Notes:  May visit the food pantry once every 60 days\nGo To Details Page For More Information",
    "scraped_at": "2025-10-30T13:41:07.970808",
    "latitude": 43.5897216,
    "longitude": -116.2216776,
    "geocoded_address": "3209, West Overland Road, Boise, Ada County, Idaho, 83705, United States of America"
  },
  {
    "url": "https://www.foodpantries.org/li/grace-chapel-food-pantry",
    "name": "Grace Chapel - Food Pantry",
    "address": "8650 Fairview Ave.",
    "city": "Boise",
    "state": "ID",
    "zip": "83704",
    "phone": null,
    "fax": null,
    "email": null,
    "website": "http://gracechapel.com",
    "hours": "Monday - Thursday 9:30am to 11:30am May pick up food once per week. For more information, please call. \nGo To Details Page For More Information",
    "description": null,
    "requirements": null,
    "scraped_at": "2025-10-30T13:41:12.348059",
    "latitude": 43.6209795,
    "longitude": -116.2898586,
    "geocoded_address": "8650, West Fairview Avenue, West Bench Neighborhood Association, Boise, Ada County, Idaho, 83704, United States of America"
  },
  {
    "url": "https://www.foodpantries.org/li/city-hope-food-pantry",
    "name": "City Hope Food Pantry",
    "address": "8401 W. Fairview Ave.",
    "city": "Boise",
    "state": "ID",
    "zip": "83704",
    "phone": "(208) 376-7272",
    "fax": null,
    "email": null,
    "website": "http://www.freefood.org/",
    "hours": "Monday - Thursday9:30am to 11:30amMay pick up food once per week. For more information, please call.\nCounty or Counties Served: Ada",
    "description": null,
    "requirements": null,
    "scraped_at": "2025-10-30T13:41:17.279069",
    "latitude": 43.619214,
    "longitude": -116.2869094,
    "geocoded_address": "8401, West Fairview Avenue, West Bench Neighborhood Association, Boise, Ada County, Idaho, 83704, United States of America"
  },
  {
    "url": "https://www.foodpantries.org/li/the-river-of-life-rescue-mission",
    "name": "The River of Life Rescue Mission for Men",
    "address": "575 South 13th Street",
    "city": "Boise",
    "state": "ID",
    "zip": "83701",
    "phone": "(208) 389-9840",
    "fax": "(208) 389-9773",
    "email": null,
    "website": "http://www.freefood.org/",
    "hours": "Please call. \nGo To Details Page For More Information",
    "description": null,
    "requirements": null,
    "scraped_at": "2025-10-30T13:41:20.542607",
    "latitude": 43.6155713,
    "longitude": -116.2141654,
    "geocoded_address": "River of Life Men's Shelter, 575, South 13th Street, Downtown, Boise, Ada County, Idaho, 83702, United States of America"
  },
  {
    "url": "https://www.foodpantries.org/li/seventh-day-adventist-church1",
    "name": "Cloverdale Seventh Day Adventist Church Food Pantry",
    "address": "1115 N Cloverdale Rd",
    "city": "Boise",
    "state": "ID",
    "zip": "83713",
    "phone": "(208) 377-8447",
    "fax": null,
    "email": null,
    "website": "http://www.freefood.org/",
    "hours": "Monday - Thursday 9:30am to 11:30am May pick up food once per week. For more information, please call. \nGo To Details Page For More Information",
    "description": null,
    "requirements": "Photo ID Proof of\nGo To Details Page For More Information",
    "scraped_at": "2025-10-30T13:41:25.081755",
    "latitude": 43.6151474,
    "longitude": -116.33493,
    "geocoded_address": "1115, North Cloverdale Road, Boise, Ada County, Idaho, 83713, United States of America"
  },
  {
    "url": "https://www.foodpantries.org/li/cathedral-of-the-rockies-amity-campus",
    "name": "Cathedral of the Rockies Food Pantry - Amity Campus",
    "address": "4464 S. Maple Grove Rd",
    "city": "Boise",
    "state": "ID",
    "zip": "83709",
    "phone": "(208) 362-2168",
    "fax": null,
    "email": null,
    "website": "http://www.freefood.org/",
    "hours": "Tuesday 12:00pm - 3:00pm  For more information, please call.  \nGo To Details Page For More Information",
    "description": null,
    "requirements": "Must qualify and be enrolled in their CSBG program. Demographic information about the household No ID or income verification is required to receive a food box  Notes:  May visit the food pantry once every 60 days\nGo To Details Page For More Information",
    "scraped_at": "2025-10-30T13:41:28.125862",
    "latitude": 43.5624857,
    "longitude": -116.2940005,
    "geocoded_address": "4464, South Maple Grove Road, Boise, Ada County, Idaho, 83709, United States of America"
  },
  {
    "url": "https://www.foodpantries.org/li/the-salvation-army-boise",
    "name": "The Salvation Army Food Pantry - Boise",
    "address": "9492 W Emerald St.",
    "city": "Boise",
    "state": "ID",
    "zip": "83704",
    "phone": "(208) 343-5420",
    "fax": null,
    "email": null,
    "website": "http://www.freefood.org/",
    "hours": "Monday - Thursday 9:30am to 11:30am May pick up food once per week. For more information, please call. \nGo To Details Page For More Information",
    "description": null,
    "requirements": null,
    "scraped_at": "2025-10-30T13:41:32.123177",
    "latitude": 43.60985,
    "longitude": -116.3004467,
    "geocoded_address": "9492, West Emerald Street, Corporate Center, Boise, Ada County, Idaho, 83704, United States of America"
  },
  {
    "url": "https://www.foodpantries.org/li/agape-in-action-food-pantry",
    "name": "Agape in Action Food Pantry",
    "address": "5232 Fairview Avenue",
    "city": "Boise",
    "state": "ID",
    "zip": "83706",
    "phone": "(208) 685-0612",
    "fax": null,
    "email": null,
    "website": "http://www.freefood.org/",
    "hours": "Last Saturday of every month 1:00 pm",
    "description": null,
    "requirements": null,
    "scraped_at": "2025-10-30T13:41:35.294225",
    "latitude": 43.619819,
    "longitude": -116.2462358,
    "geocoded_address": "5232, West Fairview Avenue, Boise, Ada County, Idaho, 83706, United States of America"
  },
  {
    "url": "https://www.foodpantries.org/li/id_boise_agape-in-action-foodbank",
    "name": "Agape in Action Foodbank",
    "address": "1001 N Orchard St",
    "city": "Boise",
    "state": "ID",
    "zip": "83705",
    "phone": "(208) 685-0612",
    "fax": null,
    "email": null,
    "website": "http://www.freefood.org/",
    "hours": "Last Saturday of every month 1:00 pm",
    "description": null,
    "requirements": null,
    "scraped_at": "2025-10-30T13:41:39.047654",
    "latitude": 43.613545,
    "longitude": -116.243557,
    "geocoded_address": "1001, North Orchard Street, Boise, Ada County, Idaho, 83706, United States of America"
  },
  {
    "url": "https://www.foodpantries.org/li/id_boise_el-ada-community-action-food-pantry",
    "name": "Boise Food Pantry - El-ada Community Action",
    "address": "2250 S Vista Avenue",
    "city": "Boise",
    "state": "ID",
    "zip": "83705",
    "phone": "(208) 345-2820",
    "fax": null,
    "email": null,
    "website": "http://www.freefood.org/",
    "hours": "Monday to Friday: 8:00 am to 4:00 pmRequirements:Must qualify and be enrolled in their CSBG program.Demographic information about the householdNo ID or income verification is required to receive a food boxNotes:May visit the food pantry once every 60 daysFood boxes provide 2-4 days worth of foodGarden seeds may also be available\nCounty or Counties Served: Ada",
    "description": null,
    "requirements": "Must qualify and be enrolled in their CSBG program.Demographic information about the householdNo ID or income verification is required to receive a food boxNotes:May visit the food pantry once every 60 daysFood boxes provide 2-4 days worth of foodGarden seeds may also be available\nCounty or Counties Served: Ada",
    "scraped_at": "2025-10-30T13:41:44.199576",
    "latitude": 43.5820727,
    "longitude": -116.2133022,
    "geocoded_address": "El-Ada Boise Community Resource Center, 2250, South Vista Avenue, Boise, Ada County, Idaho, 83705, United States of America"
  },
  {
    "url": "https://www.foodpantries.org/li/id_83316_w-e-m-a-emergency-food-panty",
    "name": "W.E.M.A. Emergency Food Panty",
    "address": "908 Maple Street",
    "city": "Buhl",
    "state": "ID",
    "zip": "83316",
    "phone": "(208) 329-2393",
    "fax": null,
    "email": null,
    "website": "http://www.freefood.org/",
    "hours": "The 1st, 3rd and 4th Tuesday\r\n 1:30pm - 4:30pm \r\nThe 2nd Wednesday\r\n 1:30pm - 4:30pm\r\n(also available on call)\r\nFor more information, please call. \nCounty or Counties Served: Twin Falls",
    "description": null,
    "requirements": null,
    "scraped_at": "2025-10-30T13:41:48.118156",
    "latitude": 42.6013926,
    "longitude": -114.761478,
    "geocoded_address": "908, Maple Street, Buhl, Twin Falls County, Idaho, 83316, United States of America"
  },
  {
    "url": "https://www.foodpantries.org/li/little_flower_catholic_church_83318",
    "name": "Little Flower Catholic Church",
    "address": "1601 Oakley Ave",
    "city": "Burley",
    "state": "ID",
    "zip": "83318",
    "phone": null,
    "fax": null,
    "email": null,
    "website": "http://www.freefood.org/",
    "hours": "Monday - Thursday 11:00am - 12:00pmDonations are accepted anytime during the week.\r\n                                    \r\n                                    County or Counties Served: Cassia",
    "description": null,
    "requirements": null,
    "scraped_at": "2025-10-30T13:41:52.195082",
    "latitude": 42.532556,
    "longitude": -113.7942527,
    "geocoded_address": "Saint Th\u00e9r\u00e8se the Little Flower Catholic Church, 1601, Oakley Avenue, Burley, Cassia County, Idaho, 83318, United States of America"
  },
  {
    "url": "https://www.foodpantries.org/li/community_council_of_idaho_83318",
    "name": "Community Council of Idaho",
    "address": "437 E 13th Street",
    "city": "Burley",
    "state": "ID",
    "zip": "83318",
    "phone": null,
    "fax": null,
    "email": null,
    "website": "http://www.freefood.org/",
    "hours": "Monday-Friday8:30am - 3:30pm\r\n                                    \r\n                                    County or Counties Served: Cassia",
    "description": null,
    "requirements": null,
    "scraped_at": "2025-10-30T13:41:57.916944",
    "latitude": 42.536847,
    "longitude": -113.7885003,
    "geocoded_address": "437, East 13th Street, Burley, Cassia County, Idaho, 83318, United States of America"
  },
  {
    "url": "https://www.foodpantries.org/li/id_83318_south-central-community-action-partnership",
    "name": "South Central Community Action Partnership",
    "address": "314 E. 5th Street",
    "city": "Burley",
    "state": "ID",
    "zip": "83318",
    "phone": "(208) 678-3514",
    "fax": null,
    "email": null,
    "website": "http://www.sccap-id.org",
    "hours": "Monday, Tuesday, Thursday8:00 am - 11:00 am1:00 pm - 4:00 pmFor more information, please call.\nVolunteering Information:To volunteer please call 208-678-3514 \nCounty or Counties Served: Cassia",
    "description": null,
    "requirements": null,
    "scraped_at": "2025-10-30T13:42:01.184728",
    "latitude": 42.5472893,
    "longitude": -113.788328,
    "geocoded_address": "East 5th Street, Burley, Cassia County, Idaho, 83318, United States of America"
  },
  {
    "url": "https://www.foodpantries.org/li/world_harvest_church_of_god_of_prophecy_83611",
    "name": "World Harvest Church of God of Prophecy",
    "address": "803 Main St",
    "city": "Caldwell",
    "state": "ID",
    "zip": "83605",
    "phone": null,
    "fax": null,
    "email": null,
    "website": "http://www.freefood.org/",
    "hours": "3rd Saturday of month 10:00am - 12:00pm\r\n                                    \r\n                                    County or Counties Served: Valley",
    "description": null,
    "requirements": "ID and proof of address (just any piece of mail).\u00a0 Once you're entered into their system, they give you a pink slip of paper and you drive \nGo To Details Page For More Information",
    "scraped_at": "2025-10-30T13:42:04.996609",
    "latitude": 43.6662724,
    "longitude": -116.6869512,
    "geocoded_address": "803, Main Street, Caldwell, Canyon County, Idaho, 83605, United States of America"
  },
  {
    "url": "https://www.foodpantries.org/li/wicap-caldwell_83672",
    "name": "WICAP Caldwell",
    "address": "502 Main Street",
    "city": "Caldwell",
    "state": "ID",
    "zip": "83605",
    "phone": "(208) 454-0675",
    "fax": "(208) 642-9201",
    "email": null,
    "website": "http://www.wicap.org",
    "hours": "Monday, Tuesday, Thursday 8:00 am - 4:00 pmFriday1:00 pm - 4:00 pmFor more information, please call. \nCounty or Counties Served: Washington",
    "description": null,
    "requirements": "ID and proof of address (just any piece of mail).\u00a0 Once you're entered into their system, they give you a pink slip of paper and you drive \nGo To Details Page For More Information",
    "scraped_at": "2025-10-30T13:42:09.446850",
    "latitude": 43.6682888,
    "longitude": -116.6902554,
    "geocoded_address": "502, Main Street, Caldwell, Canyon County, Idaho, 83605, United States of America"
  },
  {
    "url": "https://www.foodpantries.org/li/salvation_army-caldwell_83672",
    "name": "Salvation Army-Caldwell",
    "address": "1015 E Chicago Street",
    "city": "Caldwell",
    "state": "ID",
    "zip": "83672",
    "phone": "(208) 459-2011",
    "fax": null,
    "email": null,
    "website": "http://www.freefood.org/",
    "hours": "Wednesday\r\n 1:00pm - 3:30pm\n\r\nGo into the smaller office building, not the worship center",
    "description": null,
    "requirements": "ID and proof of address (just any piece of mail).\u00a0 Once you're entered into their system, they give you a pink slip of paper and you drive around to the back of the building, hand the paper to the attendant, and pick up your box. \n\r\nFor more information, please call.",
    "scraped_at": "2025-10-30T13:42:14.164063",
    "latitude": 43.6672629,
    "longitude": -116.681559,
    "geocoded_address": "1015, East Chicago Street, Caldwell, Canyon County, Idaho, 83605, United States of America"
  },
  {
    "url": "https://www.foodpantries.org/li/seventh_day_adventist-caldwell_83672",
    "name": "Seventh Day Adventist - Food Pantry",
    "address": "2106 E Linden Street",
    "city": "Caldwell",
    "state": "ID",
    "zip": "83605",
    "phone": "(208) 459-2451",
    "fax": null,
    "email": null,
    "website": "http://www.freefood.org/",
    "hours": "Monday 5:30pm to 8:30pm (Come before 8:00pm to get clothing.)Tuesday 10:00 am - 12:30 pmRequirements:Bring ID for yourself and some type of paperwork or ID for members of your household. Location:Across the parking lot from the Seventh-day Adventist ChurchThey have a clothing bank and household item shelf available as well. For more information, please call.  \nCounty or Counties Served: Washington",
    "description": null,
    "requirements": "Bring ID for yourself and some type of paperwork or ID for members of your household. Location:Across the parking lot from the Seventh-day Adventist ChurchThey have a clothing bank and household item shelf available as well. For more information, please call.  \nCounty or Counties Served: Washington",
    "scraped_at": "2025-10-30T13:42:17.488619",
    "latitude": 43.6480336,
    "longitude": -116.6728357,
    "geocoded_address": "2106, East Linden Street, Caldwell, Canyon County, Idaho, 83605, United States of America"
  },
  {
    "url": "https://www.foodpantries.org/li/st_vincent_de_paul-caldwell_83611",
    "name": "St Vincent de Paul",
    "address": "3719 E Cleveland Blvd",
    "city": "Caldwell",
    "state": "ID",
    "zip": "83611",
    "phone": "(208) 454-2132",
    "fax": null,
    "email": null,
    "website": "http://www.svdpusa.org",
    "hours": "Wednesday11:30 am - 2:30 pmFor more information, please call.\nCounty or Counties Served: Valley",
    "description": null,
    "requirements": "Bring ID for yourself and some type of paperwork or ID for members of your household. Location: Across the parking l\nGo To Details Page For More Information",
    "scraped_at": "2025-10-30T13:42:20.459284",
    "latitude": 43.6202058,
    "longitude": -116.6245965,
    "geocoded_address": "Cleveland Boulevard, Caldwell, Canyon County, Idaho, 83652, United States of America"
  },
  {
    "url": "https://www.foodpantries.org/li/oasis_worship_center_83606",
    "name": "Oasis Worship Center",
    "address": "506 W Simplot Blvd.",
    "city": "Caldwell",
    "state": "ID",
    "zip": "83605",
    "phone": null,
    "fax": null,
    "email": null,
    "website": "http://www.oasiswc.org",
    "hours": "Wednesday12:00pm - 2:00pmHot Meals and Food BoxThursday4:00pm - 6:00pmFood BoxFor first time individuals, please call.\r\n                                    \r\n                                    County or Counties Served: Canyon",
    "description": null,
    "requirements": "ID and proof of address (just any piece of mail).\u00a0 Once you're entered into their system, they give you a pink slip of paper and you drive \nGo To Details Page For More Information",
    "scraped_at": "2025-10-30T13:42:26.709531",
    "latitude": 43.6678736,
    "longitude": -116.689415,
    "geocoded_address": "Caldwell, Canyon County, Idaho, United States of America",
    "note": "Geocoded to city center (exact address not found)"
  },
  {
    "url": "https://www.foodpantries.org/li/alpha_and_omega_ministries_83638",
    "name": "Alpha and Omega Ministries",
    "address": "220 6th Ave",
    "city": "Caldwell",
    "state": "ID",
    "zip": "83606",
    "phone": "(208) 318-6135",
    "fax": null,
    "email": null,
    "website": "http://www.freefood.org/",
    "hours": "2nd and 3rd Saturday of monthBy appointment onlyAppointment Hours:Monday - Friday9:00am - 5:00pmFor more information, please call. \nCounty or Counties Served: Valley",
    "description": null,
    "requirements": "ID and proof of address (just any piece of mail).\u00a0 Once you're entered into their system, they give you a pink slip of paper and you drive \nGo To Details Page For More Information",
    "scraped_at": "2025-10-30T13:42:30.706537",
    "latitude": 43.6669164,
    "longitude": -116.6904575,
    "geocoded_address": "220, South 6th Avenue, Caldwell, Canyon County, Idaho, 83605, United States of America"
  },
  {
    "url": "https://www.foodpantries.org/li/wicap-cascade_83611",
    "name": "WICAP-Cascade",
    "address": "110 W. Pine St.",
    "city": "Cascade",
    "state": "ID",
    "zip": "83611",
    "phone": null,
    "fax": null,
    "email": null,
    "website": "http://www.wicap.org",
    "hours": "Monday-Friday 8:00am - 12:00pm and 1:00pm - 5:00pm\r\n                                    \r\n                                    County or Counties Served: Valley",
    "description": null,
    "requirements": "Photo identification \u00a0\u00a0\u00a0 Names and birth dates of all individuals residing in your household  Notes:  Visit the facility at least one hour before closing, within operating hours. A volunte\nGo To Details Page For More Information",
    "scraped_at": "2025-10-30T13:42:34.253143",
    "latitude": 44.5162156,
    "longitude": -116.0438837,
    "geocoded_address": "West Pine Street, Cascade, Valley County, Idaho, United States of America"
  },
  {
    "url": "https://www.foodpantries.org/li/id_cascade_meridian-food-bank",
    "name": "Meridian Food Bank and Emergency Pantry",
    "address": "133 W Broadway Avenue",
    "city": "Cascade",
    "state": "ID",
    "zip": "83611",
    "phone": "(208) 888-5102",
    "fax": null,
    "email": null,
    "website": "http://www.freefood.org/",
    "hours": "Monday, Wednesday to Thursday: 12:00 pm to 4:00 pmRequirements:\u00a0\u00a0\u00a0 Photo identification\u00a0\u00a0\u00a0 Names and birth dates of all individuals residing in your householdNotes:Visit the facility at least one hour before closing, within operating hours.A volunteer will inquire about your circumstances and assist you in completing necessary paperwork.\nCounty or Counties Served: Valley",
    "description": null,
    "requirements": "Photo identification\u00a0\u00a0\u00a0 Names and birth dates of all individuals residing in your householdNotes:Visit the facility at least one hour before closing, within operating hours.A volunteer will inquire about your circumstances and assist you in completing necessary paperwork.\nCounty or Counties Served: Valley",
    "scraped_at": "2025-10-30T13:42:38.450765",
    "latitude": 47.5077608,
    "longitude": -111.3306519,
    "geocoded_address": "Central Avenue West, Westside, Great Falls, Cascade County, Montana, 59404, United States of America"
  },
  {
    "url": "https://www.foodpantries.org/li/id_cascade_middleton-food-bank",
    "name": "Middleton Food Pantry",
    "address": "307 E 1st Street",
    "city": "Cascade",
    "state": "ID",
    "zip": "83611",
    "phone": "(208) 585-6634",
    "fax": null,
    "email": null,
    "website": "http://www.freefood.org/",
    "hours": "Monday, Wednesday, and Friday 12:00pm to 1:00pmDonations:Monetary donations: PO Box 100, Middleton, ID, United States, Idaho.\nCounty or Counties Served: Valley",
    "description": null,
    "requirements": null,
    "scraped_at": "2025-10-30T13:42:44.297152",
    "latitude": 47.5463338,
    "longitude": -111.4909297,
    "geocoded_address": "1st Street East, Sun Prairie, Cascade County, Montana, 59487, United States of America"
  },
  {
    "url": "https://www.foodpantries.org/li/id_cascade_apostolic-assembly-nampa-foodbank",
    "name": "Apostolic Assembly-Nampa Food Pantry",
    "address": "119 First Avenue N",
    "city": "Cascade",
    "state": "ID",
    "zip": "83611",
    "phone": "(208) 409-6860",
    "fax": null,
    "email": null,
    "website": "http://www.freefood.org/",
    "hours": "Tuesday and Thursday: 6:00 pm to 9:00 pm or By appointment.",
    "description": null,
    "requirements": null,
    "scraped_at": "2025-10-30T13:42:52.996244",
    "latitude": 47.50673,
    "longitude": -111.3120985,
    "geocoded_address": "First Avenue North Bridge, Downtown, Great Falls, Cascade County, Montana, 59045, United States of America"
  },
  {
    "url": "https://www.foodpantries.org/li/helping_hands_83226",
    "name": "Helping Hands",
    "address": "610 Clinic Rd",
    "city": "Challis",
    "state": "ID",
    "zip": "83226",
    "phone": null,
    "fax": null,
    "email": null,
    "website": "http://www.freefood.org/",
    "hours": "By appointment only. Please call.\r\n                                    \r\n                                    County or Counties Served: Custer",
    "description": null,
    "requirements": null,
    "scraped_at": "2025-10-30T13:42:57.219063",
    "latitude": 44.5123227,
    "longitude": -114.2243379,
    "geocoded_address": "Eastern Idaho Public Health, 610, Clinic Road, North Challis, Challis, Custer County, Idaho, 83226, United States of America"
  },
  {
    "url": "https://www.foodpantries.org/li/ky_42134_churches-of-christ-food-bank-3009",
    "name": "Harristown Church of Christ / Churches of Christ Food Bank #3009",
    "address": "400 Pelham St",
    "city": "Franklin",
    "state": "KY",
    "zip": "42134",
    "phone": "(270) 872-9293",
    "fax": null,
    "email": null,
    "website": "http://www.freefood.org/",
    "hours": "Tuesdays - 10:30am - 2pm.  Notes:  2 visits (1 pantry bag per visit) per household per month \r\n 1 $20 Piggly Wiggly voucher per month, if we have the funds.\r\n \nGo To Details Page For More Information",
    "description": null,
    "requirements": null,
    "scraped_at": "2025-10-30T13:43:00.632130",
    "latitude": 36.722263,
    "longitude": -86.5772177,
    "geocoded_address": "Franklin, Simpson County, Kentucky, 42134, United States of America",
    "note": "Geocoded to city center (exact address not found)"
  },
  {
    "url": "https://www.foodpantries.org/li/ma_01010_wales-community-pantry",
    "name": "Wales Community Pantry",
    "address": "172 Palmer Rd",
    "city": "Brimfield",
    "state": "MA",
    "zip": "01010",
    "phone": "(413) 245-0055",
    "fax": null,
    "email": null,
    "website": "http://www.freefood.org/",
    "hours": "Tuesdays 9:00 AM-1:00 PM and Thursdays 4:00-7:00 PM\nVolunteering Information:If you are interested in volunteeering, first call 413 245-0055 to schedule a time to meet with our staff.\r\n\r\nYou may click the volunteer button on our site to email us or contact at walescommunityfoodpantry@gmail.com\r\n\r\nor call: 413 245-0055 \nCounty or Counties Served: Hampden",
    "description": null,
    "requirements": "If you are shopping with us for the first time, please bring along a picture ID of the shopper for your family, IDs for each member of your household, any proof of income that you have, and proof of residency (if you\nGo To Details Page For More Information",
    "scraped_at": "2025-10-30T13:43:09.505510",
    "latitude": 42.1498482,
    "longitude": -72.2653892,
    "geocoded_address": "172, Dunhamtown-Palmer Road, Fentonville, Brimfield, Hampden County, Massachusetts, 01010, United States of America"
  },
  {
    "url": "https://www.foodpantries.org/li/tx_77459_the-bridge-pantry",
    "name": "The Bridge Pantry",
    "address": "2714 Cypress Point Dr",
    "city": "Missouri City",
    "state": "TX",
    "zip": "77459",
    "phone": "(979) 221-1700",
    "fax": null,
    "email": null,
    "website": "http://www.freefood.org/",
    "hours": "Tuesdays from 10:00 am -2:00 pmThursdays from 12:00 pm -2:00 pm. Notes:They distribute food by appointment onlyOnly provide non-perishable food itemsAccept donations Monday - Thursday from 9:00 am -2:00 pm.\nVolunteering Information:For all volunteer opportunities, visit our website www.shellhebert.com/pantry \nCounty or Counties Served: Fort Bend",
    "description": null,
    "requirements": "Proof of address Statement of gross income Will receive food once per calendar month For more information, please call.  \nGo To Details Page For More Information",
    "scraped_at": "2025-10-30T13:43:16.272881",
    "latitude": 29.5824976,
    "longitude": -95.5435619,
    "geocoded_address": "2714, Cypress Point Drive, Missouri City, Fort Bend County, Texas, 77459, United States of America"
  },
  {
    "url": "https://www.foodpantries.org/li/in_46157_monrovia-christian-church-food-pantry",
    "name": "Monrovia Christian Church Food Pantry",
    "address": "710 Gordon Road",
    "city": "Monrovia",
    "state": "IN",
    "zip": "46157",
    "phone": "(317) 996-2812",
    "fax": null,
    "email": null,
    "website": "http://www.freefood.org/",
    "hours": "The 2nd and 4th Tuesday of each month We are also highly involved in the downtown-Indianapolis Baptist Center outreach and the Highland Lakes Baptist Camp which is just minutes away from our church. For more information, please call. \nGo To Details Page For More Information",
    "description": null,
    "requirements": "To access the food pantry once a month, please\nGo To Details Page For More Information",
    "scraped_at": "2025-10-30T13:43:19.638882",
    "latitude": 39.5788409,
    "longitude": -86.4665122,
    "geocoded_address": "710, Gordon Road, Monrovia, Morgan County, Indiana, 46157, United States of America"
  },
  {
    "url": "https://www.foodpantries.org/li/family_connection_center_layton_84040",
    "name": "Open Doors Mobile Food Pantry",
    "address": "875 East Highway 193",
    "city": "Layton",
    "state": "UT",
    "zip": "84041",
    "phone": "(801) 771-4642",
    "fax": "(801) 773-0655",
    "email": null,
    "website": "http://www.freefood.org/",
    "hours": "Monday - Friday 9:00am - 2:00pm  For more information, please call.  \nGo To Details Page For More Information",
    "description": null,
    "requirements": null,
    "scraped_at": "2025-10-30T13:43:22.565392",
    "latitude": 41.1025759,
    "longitude": -111.9492767,
    "geocoded_address": "875, East Highway 193, Rolling Hills MHP, Layton, Davis County, Utah, 84040, United States of America"
  },
  {
    "url": "https://www.foodpantries.org/li/nd-nc-walsh_county_food_pantry",
    "name": "Walsh County Food Pantry",
    "address": "314 W 15th Street",
    "city": "Grafton",
    "state": "ND",
    "zip": "58237",
    "phone": "(701) 352-1608",
    "fax": null,
    "email": null,
    "website": "http://www.freefood.org/",
    "hours": "Monday - Thursday 1:00pm - 4:00pmPlease contact them directly for more detailed program information.\nCounty or Counties Served: Walsh",
    "description": null,
    "requirements": null,
    "scraped_at": "2025-10-30T13:43:28.647147",
    "latitude": 48.4080439,
    "longitude": -97.4161955,
    "geocoded_address": "314, West 15th Street, Grafton, Walsh County, North Dakota, 58237, United States of America"
  },
  {
    "url": "https://www.foodpantries.org/li/welcome_manor_56034",
    "name": "Welcome Manor Family Services",
    "address": "114 West Pleasant Street",
    "city": "Garden City",
    "state": "MN",
    "zip": "56034",
    "phone": "(507) 546-3295",
    "fax": "(507) 218-2243",
    "email": null,
    "website": "http://www.freefood.org/",
    "hours": "Monday, Tuesday, Wednesday and Friday \r\n12:30pm - 4:30pm \r\nLast appointment is at 4:15pm \r\nThursday \r\n10:30am - 7:00pm \r\nLast appointment is at 6:30pm \r\n \r\nDonation Drop Off Hours: \r\nMonday - Friday \r\n9:00am - 5:00pm \r\nPlease enter through back door when dropping donations.",
    "description": null,
    "requirements": "proof of current address. Please bring bags or boxes to carr\nGo To Details Page For More Information",
    "scraped_at": "2025-10-30T13:43:33.799088",
    "latitude": 44.0480149,
    "longitude": -94.1640926,
    "geocoded_address": "114, Pleasant Street West, Garden City, Blue Earth County, Minnesota, 56034, United States of America"
  },
  {
    "url": "https://www.foodpantries.org/li/greater-shiloh-church-food-pantry",
    "name": "Greater Shiloh Church Food Pantry",
    "address": "201 Thomas Bright Avenue (lower level)",
    "city": "Easton",
    "state": "PA",
    "zip": "18042",
    "phone": "(610) 252-5640",
    "fax": "(610) 252-2715",
    "email": null,
    "website": "http://www.freefood.org/",
    "hours": "1:00 pm - 2:30 pmFood Pantry Hours:The 1st and 3rd Friday of the month 12:00 pm - 2:00 pmFor more information, please call. \nVolunteering Information:http://greatershilohchurchpa.com/get-connected \nCounty or Counties Served: Northampton",
    "description": null,
    "requirements": "Photo identification for every visit.Registration Hours:1:00 pm - 2:30 pmFood Pantry Hours:The 1st and 3rd Friday of the month 12:00 pm - 2:00 pmFor more information, please call. \nVolunteering Information:http://greatershilohchurchpa.com/get-connected \nCounty or Counties Served: Northampton",
    "scraped_at": "2025-10-30T13:43:37.766685",
    "latitude": 40.6916081,
    "longitude": -75.2099866,
    "geocoded_address": "Easton, Northampton County, Pennsylvania, United States of America",
    "note": "Geocoded to city center (exact address not found)"
  },
  {
    "url": "https://www.foodpantries.org/li/ny_14466_hemlock-community-food-pantry",
    "name": "Hemlock Community Food Pantry",
    "address": "4705 S Main Street",
    "city": "Hemlock",
    "state": "NY",
    "zip": "14466",
    "phone": "(585) 245-4651",
    "fax": null,
    "email": null,
    "website": "http://www.freefood.org/",
    "hours": "Thursdays 9:00am-11:00amDonations:Non-perishable Foods can be dropped off to Little Lakes Community Center, Hemlock United Post Office, and Hemlock United Methodist Church. Monetary may be mailed to Hemlock United Methodist of PO. Box 147, Hemlock BY 14466.\nVolunteering Information:Call 585-245-4651 \nCounty or Counties Served: Ontario",
    "description": null,
    "requirements": null,
    "scraped_at": "2025-10-30T13:43:41.986662",
    "latitude": 42.7904554,
    "longitude": -77.6057511,
    "geocoded_address": "4705, South Main Street, Glenville, Hemlock, Town of Livonia, Livingston County, New York, 14466, United States of America"
  },
  {
    "url": "https://www.foodpantries.org/li/loaves_and_fishes_food_pantry_83611",
    "name": "Loaves and Fishes Food Pantry",
    "address": "102 S Exeter St",
    "city": "Council",
    "state": "ID",
    "zip": "83612",
    "phone": null,
    "fax": null,
    "email": null,
    "website": "http://www.freefood.org/",
    "hours": "3rd Tuesday of the month 3:00pm - 5:00pm\r\n                                    \r\n                                    County or Counties Served: Valley",
    "description": null,
    "requirements": "Photo identification \u00a0\u00a0\u00a0 Names and birth dates of all individuals residing in your household  Notes:  Visit the facility at least one hour before closing, within operating hours. A volunte\nGo To Details Page For More Information",
    "scraped_at": "2025-10-30T13:43:45.526215",
    "latitude": 44.7286103,
    "longitude": -116.434181,
    "geocoded_address": "102, South Exeter Street, Council, Adams County, Idaho, 83612, United States of America"
  },
  {
    "url": "https://www.foodpantries.org/li/council_senior_citizens_83612",
    "name": "Council Senior Citizens",
    "address": "103 S Main Street",
    "city": "Council",
    "state": "ID",
    "zip": "83612",
    "phone": null,
    "fax": null,
    "email": null,
    "website": "http://www.freefood.org/",
    "hours": "Tuesday, Wednesday and Friday 8:00am - 3:0pm\r\n                                    \r\n                                    County or Counties Served: Adams",
    "description": null,
    "requirements": "Photo identification \u00a0\u00a0\u00a0 Names and birth dates of all individuals residing in your household  Notes:  Visit the facility at least one hour before closing, within operating hours. A volunte\nGo To Details Page For More Information",
    "scraped_at": "2025-10-30T13:43:48.201201",
    "latitude": 41.2594403,
    "longitude": -95.8500275,
    "geocoded_address": "103, South Main Street, Council Bluffs, Kane Township, Pottawattamie County, Iowa, 51503, United States of America"
  },
  {
    "url": "https://www.foodpantries.org/li/adventist_community_services_83823",
    "name": "Adventist Services Food Pantry in Deary",
    "address": "408 Line Street",
    "city": "Deary",
    "state": "ID",
    "zip": "83823",
    "phone": null,
    "fax": null,
    "email": null,
    "website": "http://www.freefood.org/",
    "hours": "Tuesday 10:00 am to 4:00 pmSaturday: 4:00 pm to 7:00 pm\r\n                                    \r\n                                    County or Counties Served: Latah",
    "description": null,
    "requirements": null,
    "scraped_at": "2025-10-30T13:43:55.144269",
    "latitude": 46.8000565,
    "longitude": -116.5620495,
    "geocoded_address": "408, Line Street, Deary, Latah County, Idaho, 83823, United States of America"
  },
  {
    "url": "https://www.foodpantries.org/li/id_donnelly_calvary-christian-center-food-pantry",
    "name": "Calvary Christian Center Food Pantry",
    "address": "370 Main Street",
    "city": "Donnelly",
    "state": "ID",
    "zip": "83672",
    "phone": "(208) 315-0367",
    "fax": null,
    "email": null,
    "website": "http://www.freefood.org/",
    "hours": "Tuesday: 10:00 am to 12:00 pm - On Call/By appointment.\r\n                                    \r\n                                    County or Counties Served: Washington",
    "description": null,
    "requirements": "Photo identification \u00a0\u00a0\u00a0 Names and birth dates of all individuals residing in your household  Notes:  Visit the facility at least one hour before closing, within operating hours. A volunte\nGo To Details Page For More Information",
    "scraped_at": "2025-10-30T13:43:57.389172",
    "latitude": 44.7334558,
    "longitude": -116.0784304,
    "geocoded_address": "370, Main Street, Donnelly, Valley County, Idaho, 83615, United States of America"
  },
  {
    "url": "https://www.foodpantries.org/li/marsh_valley_senior_citizens_83234",
    "name": "Marsh Valley Senior Citizens",
    "address": "21 S Main St",
    "city": "Downey",
    "state": "ID",
    "zip": "83234",
    "phone": null,
    "fax": null,
    "email": null,
    "website": "http://www.freefood.org/",
    "hours": "Mondays - Thursday 9:00am - 3:00pm Tuesday - Thursday12:00pm\r\n                                    \r\n                                    County or Counties Served: Bannock",
    "description": null,
    "requirements": null,
    "scraped_at": "2025-10-30T13:44:00.574185",
    "latitude": 42.4283946,
    "longitude": -112.1244271,
    "geocoded_address": "21, South Main Street, Downey, Bannock County, Idaho, 83234, United States of America"
  },
  {
    "url": "https://www.foodpantries.org/li/good-smaritan-mission",
    "name": "Good Smaritan Mission",
    "address": "285 West Pearl Ave",
    "city": "Jackson",
    "state": "WY",
    "zip": "83001",
    "phone": null,
    "fax": null,
    "email": null,
    "website": "http://www.freefood.org/",
    "hours": "Wednesday 6:00pm - 7:30pm\nGo To Details Page For More Information",
    "description": null,
    "requirements": null,
    "scraped_at": "2025-10-30T13:44:06.563249",
    "latitude": 43.4786123,
    "longitude": -110.7661161,
    "geocoded_address": "285, West Pearl Avenue, Jackson, Teton County, Wyoming, 83001, United States of America"
  },
  {
    "url": "https://www.foodpantries.org/li/id_83616_eagle-community-foodbank",
    "name": "Eagle Community Foodbank - Neighbors Helping Neighbors",
    "address": "310 E. State Street",
    "city": "Eagle",
    "state": "ID",
    "zip": "83616",
    "phone": "(208) 631-0702",
    "fax": null,
    "email": null,
    "website": "http://www.freefood.org/",
    "hours": "1st and 3rd Thursdays of each month from 9:00am to 11:00am2nd and 4th Thursdays of each month from 5:00pm to 7:00pm \nCounty or Counties Served: Ada",
    "description": null,
    "requirements": null,
    "scraped_at": "2025-10-30T13:44:10.828741",
    "latitude": 43.695823,
    "longitude": -116.3502845,
    "geocoded_address": "City of Eagle Senior Center, 310, East State Street, Eagle, Ada County, Idaho, 83616, United States of America"
  },
  {
    "url": "https://www.foodpantries.org/li/hope_lutheran_church_83672",
    "name": "Hope Lutheran Church",
    "address": "331 N Linder Rd",
    "city": "Eagle",
    "state": "ID",
    "zip": "83672",
    "phone": null,
    "fax": null,
    "email": null,
    "website": "http://www.freefood.org/",
    "hours": "Mondays through Wednesdays 10:00am -1:00pm\r\n                                    \r\n                                    County or Counties Served: Washington",
    "description": null,
    "requirements": "Photo ID Proof of\nGo To Details Page For More Information",
    "scraped_at": "2025-10-30T13:44:15.134199",
    "latitude": 43.6947957,
    "longitude": -116.4142544,
    "geocoded_address": "331, North Linder Road, Eagle, Ada County, Idaho, 83616, United States of America"
  },
  {
    "url": "https://www.foodpantries.org/li/wicap-emmettt_83611",
    "name": "WICAP-Emmettt",
    "address": "213 E Main St.",
    "city": "Emmett",
    "state": "ID",
    "zip": "83617",
    "phone": null,
    "fax": null,
    "email": null,
    "website": "http://www.freefood.org/",
    "hours": null,
    "description": null,
    "requirements": "ID and proof of address (just any piece of mail).\u00a0 Once you're entered into their system, they give you a pink slip of paper and you drive \nGo To Details Page For More Information",
    "scraped_at": "2025-10-30T13:44:18.716597",
    "latitude": 43.8752905,
    "longitude": -116.498137,
    "geocoded_address": "213, East Main Street, Emmett, Gem County, Idaho, 83617, United States of America"
  },
  {
    "url": "https://www.foodpantries.org/li/gem_county_senior_citizen_center_83617",
    "name": "Gem County Senior Citizen Center",
    "address": "719 S Johns Ave",
    "city": "Emmett",
    "state": "ID",
    "zip": "83617",
    "phone": null,
    "fax": null,
    "email": null,
    "website": "http://www.freefood.org/",
    "hours": "Monday - Friday12:00pm on site, 10:00am M.O.W.\r\n                                    \r\n                                    County or Counties Served: Gem",
    "description": null,
    "requirements": "ID and proof of address (just any piece of mail).\u00a0 Once you're entered into their system, they give you a pink slip of paper and you drive \nGo To Details Page For More Information",
    "scraped_at": "2025-10-30T13:44:24.767240",
    "latitude": 43.869184,
    "longitude": -116.4930455,
    "geocoded_address": "719, South Johns Avenue, Emmett, Gem County, Idaho, 83617, United States of America"
  },
  {
    "url": "https://www.foodpantries.org/li/emmett_valley_friendship_coalition_83617",
    "name": "Emmett Valley Friendship Coalition",
    "address": "719 S Johns Ave.",
    "city": "Emmett",
    "state": "ID",
    "zip": "83617",
    "phone": "(208) 369-7915",
    "fax": null,
    "email": null,
    "website": "http://www.freefood.org/",
    "hours": "Tuesday 3:15pm - 6:00 pmThe Emmett Valley Friendship Coalition is a non-profit group of volunteers who work to help others in Gem County.  Programs include a weekly dinner, pantry, and the Christmas Cheer food baskets and toy distribution.For more information, please call. \nCounty or Counties Served: Gem",
    "description": null,
    "requirements": "ID and proof of address (just any piece of mail).\u00a0 Once you're entered into their system, they give you a pink slip of paper and you drive \nGo To Details Page For More Information",
    "scraped_at": "2025-10-30T13:44:27.459344",
    "latitude": 43.869184,
    "longitude": -116.4930455,
    "geocoded_address": "719, South Johns Avenue, Emmett, Gem County, Idaho, 83617, United States of America"
  },
  {
    "url": "https://www.foodpantries.org/li/lighthouse_pentecostal_church_of_god_83672",
    "name": "Lighthouse Pentecostal Church of God",
    "address": "500 5th Street",
    "city": "Filer",
    "state": "ID",
    "zip": "83328",
    "phone": "(208) 543-4647",
    "fax": null,
    "email": null,
    "website": "http://www.freefood.org/",
    "hours": "Monday-Saturday: On CallFor more information, please call. \nCounty or Counties Served: Washington",
    "description": null,
    "requirements": null,
    "scraped_at": "2025-10-30T13:44:30.199984",
    "latitude": 42.569337,
    "longitude": -114.610786,
    "geocoded_address": "500, West 5th Street, Filer, Twin Falls County, Idaho, 83328, United States of America"
  },
  {
    "url": "https://www.foodpantries.org/li/sunshine-cathedral-food-pantry",
    "name": "Sunshine Cathedral Food Pantry",
    "address": "1480 SW 9th Avenue",
    "city": "Flor",
    "state": "ID",
    "zip": "33315",
    "phone": "(954) 462-2004",
    "fax": null,
    "email": null,
    "website": "http://www.freefood.org/",
    "hours": "Every Wednesday from 12:00pm  2:00pm or by appointmentFood Collection:First Sunday of each monthBrown Lunch Bag:Wednesday between 11:00am  1:00pm\nCounty or Counties Served: Broward",
    "description": null,
    "requirements": null,
    "scraped_at": "2025-10-30T13:44:33.013515",
    "latitude": 26.1706175,
    "longitude": -80.1322137,
    "geocoded_address": "Flor Mosura, 1105, Northeast 34th Court, Coral Woods, Oakland Park, Broward County, Florida, 33334, United States of America",
    "note": "Geocoded to city center (exact address not found)"
  },
  {
    "url": "https://www.foodpantries.org/li/west_valley_free_methodist_83638",
    "name": "West Valley Free Methodist Food Pantry",
    "address": "100 E 1st Street",
    "city": "Fruitland",
    "state": "ID",
    "zip": "83619",
    "phone": "(208) 452-3460",
    "fax": "(208) 452-5825",
    "email": null,
    "website": "https://thewvc.org",
    "hours": "Wednesday 10:00 am to 2:00 pmFor an appointment please call Debbie O'Dell.For more information, please call.\u00a0 Alternate number 208-571-7845\nCounty or Counties Served: Valley",
    "description": null,
    "requirements": null,
    "scraped_at": "2025-10-30T13:44:39.745503",
    "latitude": 44.010846,
    "longitude": -116.910561,
    "geocoded_address": "100, East 1st Street, Fruitland, Payette County, Idaho, 83619, United States of America"
  },
  {
    "url": "https://www.foodpantries.org/li/highway_assembly_of_god_83611",
    "name": "Highway Worship Center",
    "address": "100 S Whitley Dr.",
    "city": "Fruitland",
    "state": "ID",
    "zip": "83619",
    "phone": "(208) 452-3437",
    "fax": null,
    "email": null,
    "website": "http://www.freefood.org/",
    "hours": "3rd Monday of the month 10:00 am - 1:00 pmFor more information, please call. \nCounty or Counties Served: Valley",
    "description": null,
    "requirements": null,
    "scraped_at": "2025-10-30T13:44:42.992038",
    "latitude": 44.030077,
    "longitude": -116.9233883,
    "geocoded_address": "North Whitley Drive, Fruitland, Payette County, Idaho, 83619, United States of America"
  },
  {
    "url": "https://www.foodpantries.org/li/el-ada_garden_city_83672",
    "name": "El-ada - Garden City Food Pantry",
    "address": "701 E 44th St",
    "city": "Garden City",
    "state": "ID",
    "zip": "83714",
    "phone": "(208) 377-0700",
    "fax": null,
    "email": null,
    "website": "http://eladacap.org",
    "hours": "Monday to Thursday 12:00pm-3:30pmEligibility:Must qualify and sign an eligibility formBe enrolled in their TEFAP programProvide demographic information\nCounty or Counties Served: Washington",
    "description": null,
    "requirements": null,
    "scraped_at": "2025-10-30T13:44:46.678204",
    "latitude": 43.6393116,
    "longitude": -116.2468635,
    "geocoded_address": "701, East 44th Street, Fairview Acres, Garden City, Ada County, Idaho, 83714, United States of America"
  },
  {
    "url": "https://www.foodpantries.org/li/boise_vineyard_83672",
    "name": "Vineyard Boise",
    "address": "4950 N Bradley Street",
    "city": "Garden City",
    "state": "ID",
    "zip": "83672",
    "phone": null,
    "fax": null,
    "email": null,
    "website": "http://www.freefood.org/",
    "hours": "Wednesday10:00am - 12:00pmSaturday10:00am - 12:00pm\r\n                                    \r\n                                    County or Counties Served: Washington",
    "description": null,
    "requirements": null,
    "scraped_at": "2025-10-30T13:44:50.114301",
    "latitude": 43.6423265,
    "longitude": -116.263122,
    "geocoded_address": "4950, North Bradley Street, Garden City, Ada County, Idaho, 83714, United States of America"
  },
  {
    "url": "https://www.foodpantries.org/li/agape_in_action_83705",
    "name": "Agape in Action",
    "address": "5555 N. Glenwood Street",
    "city": "Garden City",
    "state": "ID",
    "zip": "83714",
    "phone": "(208) 685-0612",
    "fax": null,
    "email": null,
    "website": "http://www.freefood.org/",
    "hours": "The last Saturday of the month 1:00pmFor more information, please call. \nCounty or Counties Served: Ada",
    "description": null,
    "requirements": null,
    "scraped_at": "2025-10-30T13:44:53.849581",
    "latitude": 43.654948,
    "longitude": -116.2816371,
    "geocoded_address": "5555, North Glenwood Street, Garden City, Ada County, Idaho, 83714, United States of America"
  },
  {
    "url": "https://www.foodpantries.org/li/garden_valley_senior_center_83622",
    "name": "Garden Valley Senior Center",
    "address": "261 S Middlefork Rd.",
    "city": "Garden Valley",
    "state": "ID",
    "zip": "83622",
    "phone": null,
    "fax": null,
    "email": null,
    "website": "http://www.freefood.org/",
    "hours": "Tuesday 6:00pm - 7:00pm Thursday 9:30am and 6:00pm - 7:00pm\r\n                                    \r\n                                    County or Counties Served: Boise",
    "description": null,
    "requirements": "Photo identification \u00a0\u00a0\u00a0 Names and birth dates of all individuals residing in your household  Notes:  Visit the facility at least one hour before closing, within operating hours. A volunte\nGo To Details Page For More Information",
    "scraped_at": "2025-10-30T13:44:58.479708",
    "latitude": 44.1172066,
    "longitude": -115.9751648,
    "geocoded_address": "261, South Middlefork Road, Crouch, Boise County, Idaho, 83622, United States of America"
  },
  {
    "url": "https://www.foodpantries.org/li/crouch_community_church_83611",
    "name": "Crouch Community Church",
    "address": "8 One Way Circle",
    "city": "Garden Valley",
    "state": "ID",
    "zip": "83611",
    "phone": null,
    "fax": null,
    "email": null,
    "website": "http://www.freefood.org/",
    "hours": "On Call\r\n                                    \r\n                                    County or Counties Served: Valley",
    "description": null,
    "requirements": null,
    "scraped_at": "2025-10-30T13:45:03.271420",
    "latitude": 44.089894,
    "longitude": -115.9520638,
    "geocoded_address": "Garden Valley, Boise County, Idaho, 83622, United States of America",
    "note": "Geocoded to city center (exact address not found)"
  },
  {
    "url": "https://www.foodpantries.org/li/id_garden-valley_calvary-chapel-garden-valley-food-pantry",
    "name": "Calvary Chapel - Garden Valley Food Pantry",
    "address": "872 S Middlefork Road",
    "city": "Garden Valley",
    "state": "ID",
    "zip": "83622",
    "phone": "(208) 462-5035",
    "fax": null,
    "email": null,
    "website": "http://www.freefood.org/",
    "hours": "Second and fourth Friday of every month from 3:30pm to 5:00pmLocation:Calvary Chapel in Garden Valley.\nVolunteering Information:Always in need of volunteers, and financial and or food donations.\r\nCall for more information. \nCounty or Counties Served: Boise",
    "description": null,
    "requirements": null,
    "scraped_at": "2025-10-30T13:45:34.183165",
    "latitude": 44.089894,
    "longitude": -115.9520638,
    "geocoded_address": "Garden Valley, Boise County, Idaho, 83622, United States of America",
    "note": "Geocoded to city center (exact address not found)"
  },
  {
    "url": "https://www.foodpantries.org/li/three_island_senior_center_83623",
    "name": "Three Island Senior Center",
    "address": "492 E Cleveland",
    "city": "Glenns Ferry",
    "state": "ID",
    "zip": "83623",
    "phone": null,
    "fax": null,
    "email": null,
    "website": "http://www.freefood.org/",
    "hours": "Open 2nd full week every month onMonday, Tuesday and Thursday9:00am - 11:00am By appointment/On call\r\n                                    \r\n                                    County or Counties Served: Elmore",
    "description": null,
    "requirements": null,
    "scraped_at": "2025-10-30T13:45:40.457754",
    "latitude": 42.9526776,
    "longitude": -115.2943029,
    "geocoded_address": "492, East Cleveland Avenue, Glenns Ferry, Elmore County, Idaho, 83623, United States of America"
  },
  {
    "url": "https://www.foodpantries.org/li/helping_hearts_and_hands_83611",
    "name": "Helping Hearts and Hands",
    "address": "237 Main Street",
    "city": "Gooding",
    "state": "ID",
    "zip": "83330",
    "phone": null,
    "fax": null,
    "email": null,
    "website": "http://www.freefood.org/",
    "hours": "Monday10:00am - 2:45pmTuesday11:00am - 1:45pmWednesday10:00 - 2:45pmThursday11:00am - 1:45pmFriday 11:00am - 1:45pm\r\n                                    \r\n                                    County or Counties Served: Valley",
    "description": null,
    "requirements": null,
    "scraped_at": "2025-10-30T13:45:44.843730",
    "latitude": 42.9433522,
    "longitude": -114.7130039,
    "geocoded_address": "237, Main Street, Gooding, Gooding County, Idaho, 83330, United States of America"
  },
  {
    "url": "https://www.foodpantries.org/li/gooding_county_senior_citizens_83330",
    "name": "Gooding County Senior Citizens",
    "address": "308 Senior Ave",
    "city": "Gooding",
    "state": "ID",
    "zip": "83330",
    "phone": null,
    "fax": null,
    "email": null,
    "website": "http://www.freefood.org/",
    "hours": "Monday, Wednesday and Thursday 8:30am - 4:00pmSuggested donation is $3.50.\r\n                                    \r\n                                    County or Counties Served: Gooding",
    "description": null,
    "requirements": null,
    "scraped_at": "2025-10-30T13:45:47.809212",
    "latitude": 42.9361308,
    "longitude": -114.7162337,
    "geocoded_address": "308, Senior Avenue, Gooding, Gooding County, Idaho, 83330, United States of America"
  },
  {
    "url": "https://www.foodpantries.org/li/helping-hearts-hands-hagerman",
    "name": "Helping Hearts & Hands",
    "address": "237 Main Street",
    "city": "Gooding",
    "state": "ID",
    "zip": "83330",
    "phone": null,
    "fax": null,
    "email": null,
    "website": "http://www.freefood.org/",
    "hours": "Monday, Wednesday and Thursday 8:30am - 4:00pm Suggested donation is $3.50.\nGo To Details Page For More Information",
    "description": null,
    "requirements": null,
    "scraped_at": "2025-10-30T13:45:50.148749",
    "latitude": 42.9433522,
    "longitude": -114.7130039,
    "geocoded_address": "237, Main Street, Gooding, Gooding County, Idaho, 83330, United States of America"
  },
  {
    "url": "https://www.foodpantries.org/li/rimrock_community_foodbank_83672",
    "name": "Rimrock Community Foodbank",
    "address": "630 Idaho Street",
    "city": "Grand View",
    "state": "ID",
    "zip": "83624",
    "phone": null,
    "fax": null,
    "email": null,
    "website": "http://www.freefood.org/",
    "hours": "2nd and 4th Saturday every month 9:00am - 11:00am\r\n                                    \r\n                                    County or Counties Served: Washington",
    "description": null,
    "requirements": null,
    "scraped_at": "2025-10-30T13:45:53.430495",
    "latitude": 42.9896139,
    "longitude": -116.09343,
    "geocoded_address": "Grand View, Owyhee County, Idaho, 83624, United States of America",
    "note": "Geocoded to city center (exact address not found)"
  },
  {
    "url": "https://www.foodpantries.org/li/rimrock_senior_center_83624",
    "name": "Rimrock Senior Center",
    "address": "525 Main St",
    "city": "Grand View",
    "state": "ID",
    "zip": "83624",
    "phone": null,
    "fax": null,
    "email": null,
    "website": "http://www.freefood.org/",
    "hours": "Tuesday 10:00am - 7:00pm Thursday 9:00am - 2:00pm\r\n                                    \r\n                                    County or Counties Served: Owyhee",
    "description": null,
    "requirements": null,
    "scraped_at": "2025-10-30T13:46:00.079646",
    "latitude": 42.9876977,
    "longitude": -116.0966729,
    "geocoded_address": "Rimrock Senior Center, 525, Main Street, Grand View, Owyhee County, Idaho, 83624, United States of America"
  },
  {
    "url": "https://www.foodpantries.org/li/idaho-county-food-bank",
    "name": "Idaho County Food Bank",
    "address": "320 NW 6th Street",
    "city": "Grangeville",
    "state": "ID",
    "zip": "83530",
    "phone": "(208) 983-6114",
    "fax": null,
    "email": null,
    "website": "http://www.freefood.org/",
    "hours": "Monday- Friday 9:00am - 4:00pm  For more information, please call.  \nGo To Details Page For More Information",
    "description": null,
    "requirements": null,
    "scraped_at": "2025-10-30T13:46:05.716642",
    "latitude": 45.9308302,
    "longitude": -116.1210133,
    "geocoded_address": "West North 6th Street, Grangeville, Idaho County, Idaho, 83530, United States of America"
  },
  {
    "url": "https://www.foodpantries.org/li/community-action-food-bank",
    "name": "Community Action Partnership",
    "address": "117 W. North St.",
    "city": "Grangeville",
    "state": "ID",
    "zip": "83530",
    "phone": "(208) 983-0437",
    "fax": "(208) 983-0238",
    "email": null,
    "website": "http://www.freefood.org/",
    "hours": "Monday- Friday 9:00am - 4:00pm  For more information, please call.  \nGo To Details Page For More Information",
    "description": null,
    "requirements": null,
    "scraped_at": "2025-10-30T13:46:13.501543",
    "latitude": 45.9266932,
    "longitude": -116.1202236,
    "geocoded_address": "117, West North Street, Grangeville, Idaho County, Idaho, 83530, United States of America"
  },
  {
    "url": "https://www.foodpantries.org/li/idaho_county_foodbank_83530",
    "name": "Idaho County Foodbank",
    "address": "320 NW 6th Street",
    "city": "Grangeville",
    "state": "ID",
    "zip": "83530",
    "phone": "(208) 983-6114",
    "fax": null,
    "email": null,
    "website": "http://www.freefood.org/",
    "hours": "Monday- Friday 9:00am - 4:00pmFor more information, please call.\nCounty or Counties Served: Idaho",
    "description": null,
    "requirements": null,
    "scraped_at": "2025-10-30T13:46:15.993823",
    "latitude": 45.9308302,
    "longitude": -116.1210133,
    "geocoded_address": "West North 6th Street, Grangeville, Idaho County, Idaho, 83530, United States of America"
  },
  {
    "url": "https://www.foodpantries.org/li/id_grangeville_camas-prairie-food-bank",
    "name": "Camas Prairie Food Bank",
    "address": "411 E North Street",
    "city": "Grangeville",
    "state": "ID",
    "zip": "83530",
    "phone": "(208) 507-2365",
    "fax": null,
    "email": null,
    "website": "http://www.freefood.org/",
    "hours": "Tuesdays and Fridays 10:00am to 2:00pmService Area:Idaho County, primarily Grangeville and the surrounding areas.\nMission Statement\r\n               Working together we will change the statistics of the hungry in our community with kindness and dignity.\r\n            \nVolunteering Information:Volunteers welcome.",
    "description": null,
    "requirements": null,
    "scraped_at": "2025-10-30T13:46:19.987705",
    "latitude": 45.9251549,
    "longitude": -116.1134388,
    "geocoded_address": "411, East North Street, Grangeville, Idaho County, Idaho, 83530, United States of America"
  },
  {
    "url": "https://www.foodpantries.org/li/greenleaf_friends_church_83672",
    "name": "Greenleaf Friends Church",
    "address": "20535 N Academy Rd.",
    "city": "Greenleaf",
    "state": "ID",
    "zip": "83672",
    "phone": "(208) 459-3896",
    "fax": null,
    "email": null,
    "website": "http://www.freefood.org/",
    "hours": "By appointment only once a month\r\n                                 Mission Statement\r\n               At Greenleaf Friends Church, our mission is to be a community that is growing together in the POWER of Christ.\r\nWe are ordinary people asking an extraordinary God to move among us.\r\n            \nCounty or Counties Served: Washington",
    "description": null,
    "requirements": "ID and proof of address (just any piece of mail).\u00a0 Once you're entered into their system, they give you a pink slip of paper and you drive \nGo To Details Page For More Information",
    "scraped_at": "2025-10-30T13:46:26.457744",
    "latitude": 43.675917,
    "longitude": -116.8212221,
    "geocoded_address": "Greenleaf, Canyon County, Idaho, United States of America",
    "note": "Geocoded to city center (exact address not found)"
  },
  {
    "url": "https://www.foodpantries.org/li/hagerman_christian_center_83672",
    "name": "Hagerman Christian Center",
    "address": "2750 S 900 E",
    "city": "Hagerman",
    "state": "ID",
    "zip": "83332",
    "phone": null,
    "fax": null,
    "email": null,
    "website": "http://www.freefood.org/",
    "hours": "Tuesday - Friday9:00am - 1:00pm, as needed\r\n                                    \r\n                                    County or Counties Served: Washington",
    "description": null,
    "requirements": null,
    "scraped_at": "2025-10-30T13:46:30.413483",
    "latitude": 42.8121244,
    "longitude": -114.898669,
    "geocoded_address": "Hagerman, Gooding County, Idaho, 83332, United States of America",
    "note": "Geocoded to city center (exact address not found)"
  },
  {
    "url": "https://www.foodpantries.org/li/hagerman_valley_senior_and_community_center_83332",
    "name": "Hagerman Valley Senior and Community Center",
    "address": "140 E Lake St",
    "city": "Hagerman",
    "state": "ID",
    "zip": "83332",
    "phone": null,
    "fax": null,
    "email": null,
    "website": "http://www.freefood.org/",
    "hours": "Monday, Wednesday and Friday 12:00pm - 12:30pmMembership is free but does require a form specified by the Office 0n Aging.\u00a0 Once completed, the noon meal is slightly subsidized by the Office On Aging.\u00a0 Members are asked to donate $5.00 per meal, guests and visitors are $6.00.\r\n                                    \r\n                                    County or Counties Served: Gooding",
    "description": null,
    "requirements": null,
    "scraped_at": "2025-10-30T13:46:34.374208",
    "latitude": 42.8182499,
    "longitude": -114.8971955,
    "geocoded_address": "140, East Lake Street, Hagerman, Gooding County, Idaho, 83332, United States of America"
  },
  {
    "url": "https://www.foodpantries.org/li/homedale_senior_citizens_center_83628",
    "name": "Homedale Senior Citizens Center",
    "address": "224 W Idaho Ave.",
    "city": "Homedale",
    "state": "ID",
    "zip": "83628",
    "phone": null,
    "fax": null,
    "email": null,
    "website": "http://www.freefood.org/",
    "hours": "Tuesday - Thursday 11:30am - 1:00pm\r\n                                    \r\n                                    County or Counties Served: Owyhee",
    "description": null,
    "requirements": null,
    "scraped_at": "2025-10-30T13:46:38.816638",
    "latitude": 43.6180821,
    "longitude": -116.9391425,
    "geocoded_address": "224, West Idaho Avenue, Homedale, Owyhee County, Idaho, 83628, United States of America"
  },
  {
    "url": "https://www.foodpantries.org/li/el-ada-homedale_83638",
    "name": "El-Ada-Homedale",
    "address": "15 W Colorado Ave.",
    "city": "Homedale",
    "state": "ID",
    "zip": "83638",
    "phone": null,
    "fax": null,
    "email": null,
    "website": "http://eladacap.org",
    "hours": "Monday - Friday 8:30am - 4:00pm\r\n                                    \r\n                                    County or Counties Served: Valley",
    "description": null,
    "requirements": null,
    "scraped_at": "2025-10-30T13:46:41.469483",
    "latitude": 43.615516,
    "longitude": -116.935844,
    "geocoded_address": "15, West Colorado Avenue, Homedale, Owyhee County, Idaho, 83628, United States of America"
  },
  {
    "url": "https://www.foodpantries.org/li/id_homedale_el-ada-owyhee-county-office-food-pantry",
    "name": "Mountain Home Food Pantry El-ada Owyhee County Office",
    "address": "15 W Colorado Avenue",
    "city": "Homedale",
    "state": "ID",
    "zip": "83628",
    "phone": "(208) 337-4812",
    "fax": null,
    "email": null,
    "website": "http://www.freefood.org/",
    "hours": "Monday to Friday: 8:00am to 4:00pmMay visit the food pantry once every 60 daysFood boxes provide 2-4 days worth of foodGarden seeds may also be available in the springtime\nCounty or Counties Served: Owyhee",
    "description": null,
    "requirements": null,
    "scraped_at": "2025-10-30T13:46:44.554620",
    "latitude": 43.615516,
    "longitude": -116.935844,
    "geocoded_address": "15, West Colorado Avenue, Homedale, Owyhee County, Idaho, 83628, United States of America"
  },
  {
    "url": "https://www.foodpantries.org/li/horseshoe-bend-community-pantry",
    "name": "Horseshoe Bend Community Pantry",
    "address": "100 Madison",
    "city": "Horseshoe Bend",
    "state": "ID",
    "zip": "83629",
    "phone": "(208) 781-1098",
    "fax": null,
    "email": null,
    "website": "http://www.freefood.org/",
    "hours": "Every 2nd and 4th Fridays of the month from 11:00am to 3:00pm\nCounty or Counties Served: Boise",
    "description": null,
    "requirements": null,
    "scraped_at": "2025-10-30T13:46:47.000261",
    "latitude": 43.905056,
    "longitude": -116.200011,
    "geocoded_address": "100, Madison Avenue, Horseshoe Bend, Boise County, Idaho, 83629, United States of America"
  },
  {
    "url": "https://www.foodpantries.org/li/boise_basin_senior_center_83631",
    "name": "Boise Basin Senior Center",
    "address": "102 Bear Run Rd.",
    "city": "Idaho City",
    "state": "ID",
    "zip": "83631",
    "phone": "(208) 392-4918",
    "fax": null,
    "email": null,
    "website": "http://www.freefood.org/",
    "hours": "the 2nd and 4th Wednesday of the month11:30 am - 2:00 pmLunch Hours:Tuesday and Thursday12:00 pm - 1:30 pmA financial donation of $5.00 or more helps with operationsFor more information, please call. \nCounty or Counties Served: Boise",
    "description": null,
    "requirements": null,
    "scraped_at": "2025-10-30T13:46:51.141176",
    "latitude": 43.8305875,
    "longitude": -115.8314675,
    "geocoded_address": "102, Bear Run Road, Idaho City, Boise County, Idaho, 83631, United States of America"
  },
  {
    "url": "https://www.foodpantries.org/li/cornerstone-pentecostal-church",
    "name": "Cornerstone Pentecostal Church",
    "address": "793 Cleveland Street",
    "city": "Idaho Falls",
    "state": "ID",
    "zip": "83401",
    "phone": "(208) 529-1066",
    "fax": null,
    "email": null,
    "website": "http://cpcif.com",
    "hours": "Every Thursday 10:30 am -11:00 am Donations of bakery and deli from a local grocery store. Food drive items and monthly USDA (low-income requirements for USDA only.For more information, please call. \nCounty or Counties Served: Bonneville",
    "description": null,
    "requirements": null,
    "scraped_at": "2025-10-30T13:46:57.556446",
    "latitude": 43.4997026,
    "longitude": -112.0166826,
    "geocoded_address": "793, Cleveland Street, Idaho Falls, Bonneville County, Idaho, 83401, United States of America"
  },
  {
    "url": "https://www.foodpantries.org/li/salvation_army-idaho_falls_83402",
    "name": "Salvation Army Idaho Falls",
    "address": "605 N Blvd",
    "city": "Idaho Falls",
    "state": "ID",
    "zip": "83402",
    "phone": "(208) 522-7200",
    "fax": null,
    "email": null,
    "website": "http://www.freefood.org/",
    "hours": "Monday, Tuesday, Thursday, Friday \r\n9:30am to 12:30pm\n\r\nFor more information, please call. \nCounty or Counties Served: Bonneville",
    "description": null,
    "requirements": null,
    "scraped_at": "2025-10-30T13:47:00.758092",
    "latitude": 43.501468,
    "longitude": -112.0337748,
    "geocoded_address": "605, North Boulevard, Idaho Falls, Bonneville County, Idaho, 83402, United States of America"
  },
  {
    "url": "https://www.foodpantries.org/li/st_vicent_de_paul-idaho_falls_83401",
    "name": "St Vicent de Paul-Idaho Falls",
    "address": "433 May St.",
    "city": "Idaho Falls",
    "state": "ID",
    "zip": "83401",
    "phone": null,
    "fax": null,
    "email": null,
    "website": "http://www.freefood.org/",
    "hours": "Monday, Tuesday, Thursday, Friday \r\n9:30am to 12:30pm \r\n \r\nFor more information, please call.",
    "description": null,
    "requirements": null,
    "scraped_at": "2025-10-30T13:47:03.899314",
    "latitude": 43.5014629,
    "longitude": -112.0253454,
    "geocoded_address": "433, May Street, Idaho Falls, Bonneville County, Idaho, 83401, United States of America"
  },
  {
    "url": "https://www.foodpantries.org/li/idaho_falls_community_foodbank_83402",
    "name": "Community Food Basket Of Idaho Falls",
    "address": "351 W 14th St",
    "city": "Idaho Falls",
    "state": "ID",
    "zip": "83402",
    "phone": "(208) 524-0994",
    "fax": null,
    "email": null,
    "website": "http://www.freefood.org/",
    "hours": "Monday 3:00pm - 5:00pmTuesday, Wednesday and Friday 4:00pm - 5:00pmThursday 5:00pm - 6:00pmLow-Mobility Hours* 2nd Tuesday of the month 1:00pm - 2:00pm*(includes caseworkers and caregivers on behalf of a client)For more information, please call. \nMission Statement\r\n               Our mission is to provide emergency food to struggling families and individuals, without judgment. \r\n            \nCounty or Counties Served: Bonneville",
    "description": null,
    "requirements": null,
    "scraped_at": "2025-10-30T13:47:08.291102",
    "latitude": 43.4854176,
    "longitude": -112.037767,
    "geocoded_address": "351, West 14th Street, Idaho Falls, Bonneville County, Idaho, 83402, United States of America"
  },
  {
    "url": "https://www.foodpantries.org/li/id_idaho-falls_casa-de-oracion-hispanic-foursquare-church",
    "name": "Idaho Falls Hispanic Foursquare Church Food Pantry",
    "address": "211 S 45th W",
    "city": "Idaho Falls",
    "state": "ID",
    "zip": "83402",
    "phone": "(818) 919-0382",
    "fax": null,
    "email": null,
    "website": "http://www.freefood.org/",
    "hours": "Thursday: 7:00 am to 9:00 pmSunday: 10:00 am to 1:00 pm \nCounty or Counties Served: Bonneville",
    "description": null,
    "requirements": null,
    "scraped_at": "2025-10-30T13:47:16.221691",
    "latitude": 43.4887907,
    "longitude": -112.03628,
    "geocoded_address": "Idaho Falls, Bonneville County, Idaho, United States of America",
    "note": "Geocoded to city center (exact address not found)"
  },
  {
    "url": "https://www.foodpantries.org/li/id_83442_the-giving-cupboard",
    "name": "The Giving Cupboard",
    "address": "153 N 3900 E",
    "city": "Rigby",
    "state": "ID",
    "zip": "83442",
    "phone": "(208) 557-9089",
    "fax": null,
    "email": null,
    "website": "http://www.freefood.org/",
    "hours": "Tuesday \r\n3:30pm - 6:30pm\r\nThe third Saturday of each month\r\n11:00am - 2:00pm\n\r\nFor more information, please call.",
    "description": null,
    "requirements": null,
    "scraped_at": "2025-10-30T13:47:22.370208",
    "latitude": 43.6661253,
    "longitude": -111.9236113,
    "geocoded_address": "North 3900 East, Rigby, Jefferson County, Idaho, 83442, United States of America"
  },
  {
    "url": "https://www.foodpantries.org/li/eicap-rexburg-food-bank",
    "name": "Rexburg Food Pantry - EICAP Upper Valley (Rexburg) Food Bank",
    "address": "275 Stationery Rd.",
    "city": "Rexburg",
    "state": "ID",
    "zip": "83440",
    "phone": "(208) 356-8849",
    "fax": "(208) 356-8217",
    "email": null,
    "website": "http://www.eicap.org",
    "hours": "Every Wednesday 10:00am to 3:00pm.  Notes:Income-eligible families may pick up one time per month.USDA Commodities and donated food boxes distributed.Location:Inside the WEST entrance of the Upper Valley Industries Building nearby Artco.For more information, please call.\nMission Statement\r\n               Eastern Idaho Community Action Partnership helps and empowers at risk individuals and families meet their basic needs and increase their independence through support and education.",
    "description": null,
    "requirements": null,
    "scraped_at": "2025-10-30T13:47:25.714383",
    "latitude": 43.8518625,
    "longitude": -111.7752593,
    "geocoded_address": "275, Stationery Road, Rexburg, Madison County, Idaho, 83440, United States of America"
  },
  {
    "url": "https://www.foodpantries.org/li/id_83440-1927_second-helpings-food-bank",
    "name": "Second Helpings Food Bank",
    "address": "16 E Main Street",
    "city": "Rexburg",
    "state": "ID",
    "zip": "83440",
    "phone": "(208) 356-0065",
    "fax": null,
    "email": null,
    "website": "http://www.freefood.org/",
    "hours": "Wednesday  11:30 to 12:00pmMadison County Residents Food Bank Hours: Friday 12:00 pm to 1:00 pmWe are located in the basement of the Family Crisis Center. To access the foodbank please enter through our back door in the Gringo's/Florence's parking lot.For more information, please call. \nVolunteering Information:https://familycrisiscenter.wixsite.com/familycrisiscenter/volunteer-in-the-food-bank \nCounty or Counties Served: Madison",
    "description": null,
    "requirements": null,
    "scraped_at": "2025-10-30T13:47:28.058035",
    "latitude": 43.8257363,
    "longitude": -111.7831571,
    "geocoded_address": "Family Crisis Center, 16, East Main Street, Rexburg, Madison County, Idaho, 83440, United States of America"
  },
  {
    "url": "https://www.foodpantries.org/li/martha-and-mary-food-pantry",
    "name": "Martha & Mary's Food Pantry",
    "address": "212 3rd Ave E.",
    "city": "Jerome",
    "state": "ID",
    "zip": "83338",
    "phone": "(208) 595-4839",
    "fax": null,
    "email": null,
    "website": "http://www.freefood.org/",
    "hours": "Monday thru Thursday 1:00 pm to 4:00 pm   \nGo To Details Page For More Information",
    "description": null,
    "requirements": null,
    "scraped_at": "2025-10-30T13:47:31.462653",
    "latitude": 42.7271198,
    "longitude": -114.5163547,
    "geocoded_address": "212, 3rd Avenue East, Jerome, Jerome County, Idaho, 83338, United States of America"
  },
  {
    "url": "https://www.foodpantries.org/li/wendell",
    "name": "Wendell Food Pantry",
    "address": "335 East 1st Ave. E",
    "city": "Wendell",
    "state": "ID",
    "zip": "83355",
    "phone": null,
    "fax": null,
    "email": null,
    "website": "http://www.freefood.org/",
    "hours": "Monday, Wednesday and Friday 12:00pm - 12:30pm Membership is free but does require a form specified by the Office 0n Aging.\u00a0 Once completed, the noon meal is slightly subsidized by the Office On Aging.\u00a0 Members are asked to donate $5.00 per meal, guest\nGo To Details Page For More Information",
    "description": null,
    "requirements": null,
    "scraped_at": "2025-10-30T13:47:45.038206",
    "latitude": 42.7757368,
    "longitude": -114.7042168,
    "geocoded_address": "Wendell, Gooding County, Idaho, 83355, United States of America",
    "note": "Geocoded to city center (exact address not found)"
  },
  {
    "url": "https://www.foodpantries.org/li/id_twin-falls_mustard-seed-food-pantry",
    "name": "Mustard Seed Main Street Ministries Food Pantry and Thrift Store",
    "address": "702 Main Avenue W",
    "city": "Twin Falls",
    "state": "ID",
    "zip": "83301",
    "phone": "(208) 733-9515",
    "fax": null,
    "email": null,
    "website": "http://www.freefood.org/",
    "hours": "Monday thru Thursday 1:00 pm to 4:00 pm\nCounty or Counties Served: Twin Falls",
    "description": null,
    "requirements": null,
    "scraped_at": "2025-10-30T13:47:49.868180",
    "latitude": 42.5558542,
    "longitude": -114.4700684,
    "geocoded_address": "Twin Falls, Twin Falls County, Idaho, 83301, United States of America",
    "note": "Geocoded to city center (exact address not found)"
  },
  {
    "url": "https://www.foodpantries.org/li/salvation_army-twin_falls_83301",
    "name": "Salvation Army-Twin Falls",
    "address": "348 4th Ave N",
    "city": "Twin Falls",
    "state": "ID",
    "zip": "83301",
    "phone": "(208) 733-8720",
    "fax": null,
    "email": null,
    "website": "http://www.freefood.org/",
    "hours": "Tuesday - Friday9:00 am to 12:30 pmFor more information, please call. \nCounty or Counties Served: Twin Falls",
    "description": null,
    "requirements": null,
    "scraped_at": "2025-10-30T13:47:58.077328",
    "latitude": 42.5601897,
    "longitude": -114.4702766,
    "geocoded_address": "348, 4th Avenue North, Twin Falls, Twin Falls County, Idaho, 83301, United States of America"
  },
  {
    "url": "https://www.foodpantries.org/li/id_twin-falls_center-of-prayer-and-worship-food-pantry",
    "name": "Center of Prayer and Worship Food Pantry",
    "address": "259 Main Avenue",
    "city": "Twin Falls",
    "state": "ID",
    "zip": "83301",
    "phone": "(208) 735-2249",
    "fax": null,
    "email": null,
    "website": "http://www.freefood.org/",
    "hours": "Monday, Wednesday, and Friday: 11:30 am to 1:00 pmDinner and food box available at 5:30pm on Thursdays.\nCounty or Counties Served: Twin Falls",
    "description": null,
    "requirements": null,
    "scraped_at": "2025-10-30T13:48:01.358918",
    "latitude": 42.5589763,
    "longitude": -114.4743522,
    "geocoded_address": "Main Avenue North, Twin Falls, Twin Falls County, Idaho, 83301, United States of America"
  },
  {
    "url": "https://www.foodpantries.org/li/id_83301_south-central-community-action-partnership",
    "name": "South Central Community Action Partnership",
    "address": "550 Washington Street",
    "city": "Twin Falls",
    "state": "ID",
    "zip": "83301",
    "phone": "(208) 733-9351",
    "fax": null,
    "email": null,
    "website": "http://www.sccap-id.org",
    "hours": "Monday, Tuesday, Thursday8:00-11:00 am1:00-4:00 pmFor more information, please call.\nVolunteering Information:http://www.sccap-id.org/contact-us \nCounty or Counties Served: Twin Falls",
    "description": null,
    "requirements": null,
    "scraped_at": "2025-10-30T13:48:07.282775",
    "latitude": 42.5309407,
    "longitude": -114.3592533,
    "geocoded_address": "550, Washington Street, Kimberly, Twin Falls County, Idaho, 83341, United States of America"
  },
  {
    "url": "https://www.foodpantries.org/li/rock-creek-food-pantry",
    "name": "Rock Creek Food Pantry",
    "address": "325 1/2 Madison Street",
    "city": "Kimberly",
    "state": "ID",
    "zip": "83341",
    "phone": "(208) 212-0787",
    "fax": null,
    "email": null,
    "website": "http://www.freefood.org/",
    "hours": "Tuesday - Friday 9:00 am to 12:30 pm  For more information, please call.  \nGo To Details Page For More Information",
    "description": null,
    "requirements": "ID & proof of residence\u00a0in the Kimberly - Hansen area (power or water bill) is required.",
    "scraped_at": "2025-10-30T13:48:10.869422",
    "latitude": 42.5346141,
    "longitude": -114.3619934,
    "geocoded_address": "Madison Street, Kimberly, Twin Falls County, Idaho, 83341, United States of America"
  },
  {
    "url": "https://www.foodpantries.org/li/kamiah_food_bank_83536",
    "name": "Kamiah Food Bank/Pantry",
    "address": "4432 Highway 12",
    "city": "Kamiah",
    "state": "ID",
    "zip": "83536",
    "phone": "(208) 935-0362",
    "fax": null,
    "email": null,
    "website": "http://www.freefood.org/",
    "hours": "Thursdays 10:00AM - 1:00PM in the Little brown building in the parking lot of the Life Center Church Hwy 12 outside Kamiah.Bread Distribution Hours:Thursday from 10:30 to 11:30 in the back part of the Life Center ChurchService Area:Clearwater ValleyFor more information, please call. \nCounty or Counties Served: Lewis",
    "description": null,
    "requirements": null,
    "scraped_at": "2025-10-30T13:48:14.136853",
    "latitude": 46.2270934,
    "longitude": -116.029022,
    "geocoded_address": "Kamiah, Lewis County, Idaho, 83536, United States of America",
    "note": "Geocoded to city center (exact address not found)"
  },
  {
    "url": "https://www.foodpantries.org/li/id_83539_kooskia-mobile-food-pantry",
    "name": "Kooskia Mobile Food Pantry (Kooskia City Park)",
    "address": "4th & Front St. (Kooskia City Park)",
    "city": "Kooskia",
    "state": "ID",
    "zip": "83539",
    "phone": "(208) 926-7020",
    "fax": null,
    "email": null,
    "website": "http://www.freefood.org/",
    "hours": "Thursdays 10:00AM - 1:00PM in the Little brown building in the parking lot of the Life Center Church Hwy 12 outside Kamiah.   Bread Distribution Hours:  Thursday from 10:30 to 11:30 in the back part of the Life Center Church   Service Area:  Clearwater \nGo To Details Page For More Information",
    "description": null,
    "requirements": null,
    "scraped_at": "2025-10-30T13:48:17.536154",
    "latitude": 46.1448942,
    "longitude": -115.9779188,
    "geocoded_address": "Kooskia / leewikees, Idaho County, Idaho, United States of America",
    "note": "Geocoded to city center (exact address not found)"
  },
  {
    "url": "https://www.foodpantries.org/li/kuna_community_food_bank_83638",
    "name": "Kuna Community Food Bank",
    "address": "260 W 4th Street",
    "city": "Kuna",
    "state": "ID",
    "zip": "83634",
    "phone": "(208) 922-4745",
    "fax": null,
    "email": null,
    "website": "http://www.freefood.org/",
    "hours": "By appointment only, they arrange pick up appointments for Tuesday - Thursday from 9:00am-10:30am, but they are flexible.",
    "description": null,
    "requirements": "Photo ID Proof of\nGo To Details Page For More Information",
    "scraped_at": "2025-10-30T13:48:23.128249",
    "latitude": 43.4919295,
    "longitude": -116.4159574,
    "geocoded_address": "260, West 4th Street, Townsite of Kuna, Kuna, Ada County, Idaho, 83634, United States of America"
  },
  {
    "url": "https://www.foodpantries.org/li/tribe_emegency_foodbank_83540",
    "name": "Nez PerceTribe Emegency Foodbank",
    "address": "107 Lolo Street",
    "city": "Lapwai",
    "state": "ID",
    "zip": "83540",
    "phone": "(208) 843-7305",
    "fax": null,
    "email": null,
    "website": "http://www.freefood.org/",
    "hours": "Monday - Friday 8:00am - 1:00pm 1:00pm -4:30pmFor more information, please call.\nCounty or Counties Served: Nez Perce",
    "description": null,
    "requirements": null,
    "scraped_at": "2025-10-30T13:48:27.311309",
    "latitude": 46.4048423,
    "longitude": -116.804588,
    "geocoded_address": "Lapwai / l\u00e9epwey, Nez Perce County, Idaho, 83540, United States of America",
    "note": "Geocoded to city center (exact address not found)"
  },
  {
    "url": "https://www.foodpantries.org/li/lava_senior_center_83246",
    "name": "Lava Hot Springs Senior Center",
    "address": "150 N Center Street",
    "city": "Lava Hot Springs",
    "state": "ID",
    "zip": "83246",
    "phone": null,
    "fax": null,
    "email": null,
    "website": "http://www.freefood.org/",
    "hours": "Monday, Wednesdays and Friday8:00am - 2:00pm\r\n                                    \r\n                                    County or Counties Served: Bannock",
    "description": null,
    "requirements": null,
    "scraped_at": "2025-10-30T13:48:31.327593",
    "latitude": 42.6176593,
    "longitude": -112.0122471,
    "geocoded_address": "Center Street, Lava Hot Springs, Bannock County, Idaho, 83246, United States of America"
  },
  {
    "url": "https://www.foodpantries.org/li/valley_christian_center_83501",
    "name": "Valley Christian Center",
    "address": "3215 Echo Hills Drive",
    "city": "Lewiston",
    "state": "ID",
    "zip": "83501",
    "phone": "(208) 746-0401",
    "fax": "(208) 746-0404",
    "email": null,
    "website": "http://www.vcclc.org",
    "hours": "Tuesday and Wednesday9:30am - 3:00pmFamilies are limited to one box per month. For more information, please call. \nVolunteering Information:http://www.vcclc.org/index.php/ministries/volunteer-opportunities \nCounty or Counties Served: Nez Perce",
    "description": null,
    "requirements": null,
    "scraped_at": "2025-10-30T13:48:38.204455",
    "latitude": 46.3866775,
    "longitude": -117.0387531,
    "geocoded_address": "Echo Hills Drive, Lewiston, Nez Perce County, Idaho, 99403, United States of America"
  },
  {
    "url": "https://www.foodpantries.org/li/community_action_food_bank_83501",
    "name": "Community Action Food Bank",
    "address": "124 New 6th Street",
    "city": "Lewiston",
    "state": "ID",
    "zip": "83501",
    "phone": "(208) 746-3351",
    "fax": "(208) 746-5456",
    "email": null,
    "website": "http://www.freefood.org/",
    "hours": "Monday - Friday9:00 am - 4:00 pmFor more information, please call. \nCounty or Counties Served: Nez Perce",
    "description": null,
    "requirements": null,
    "scraped_at": "2025-10-30T13:48:45.263194",
    "latitude": 46.4196595,
    "longitude": -117.023681,
    "geocoded_address": "124, New 6th Street, Lewiston, Nez Perce County, Idaho, 83501, United States of America"
  },
  {
    "url": "https://www.foodpantries.org/li/blessed_hope_assembly_of_god_83501",
    "name": "Blessed Hope Assembly of God",
    "address": "1033 Burrell Ave",
    "city": "Lewiston",
    "state": "ID",
    "zip": "83501",
    "phone": null,
    "fax": null,
    "email": null,
    "website": "http://www.freefood.org/",
    "hours": "Tuesday through Thursday 10:00am - 2:00pm\r\n                                    \r\n                                    County or Counties Served: Nez Perce",
    "description": null,
    "requirements": null,
    "scraped_at": "2025-10-30T13:48:48.501026",
    "latitude": 46.3768007,
    "longitude": -116.9790783,
    "geocoded_address": "1033, Burrell Avenue, Lewiston, Nez Perce County, Idaho, 83501, United States of America"
  },
  {
    "url": "https://www.foodpantries.org/li/asotin-county-food-bank-associates-incorporated",
    "name": "Asotin County Food Bank",
    "address": "1546 Maple StREET",
    "city": "Clarkston",
    "state": "WA",
    "zip": "99403",
    "phone": "(509) 758-7085",
    "fax": "(509) 254-5037",
    "email": null,
    "website": "http://www.freefood.org/",
    "hours": "Monday 10:00 am to 3:00 pm *Clearinghouse 9:30am to 10:00amTuesday 10:00 am to 3:00 pmWednesday 10:00 am to 3:00 pmThursday 10:00 am to 3:00 pmFriday 10:00 am to 3:00 pm *Clearing House 9:30 to 10:00 amRequirements:Proof of residence (Any mail delivered to your address as long as the date and address is current within the last month.)For more information, please call.\nCounty or Counties Served: Asotin",
    "description": null,
    "requirements": "Proof of residence (Any mail delivered to your address as long as the date and address is current within the last month.)For more information, please call.\nCounty or Counties Served: Asotin",
    "scraped_at": "2025-10-30T13:48:50.797014",
    "latitude": 46.416351,
    "longitude": -117.0713836,
    "geocoded_address": "1546, Maple Street, Clarkston, Asotin County, Washington, 99403, United States of America"
  },
  {
    "url": "https://www.foodpantries.org/li/id_83843_west-side-food-pantry",
    "name": "West Side Food Pantry at Inland Oasis Community Center",
    "address": "730 W Pullman Rd. #3",
    "city": "Moscow",
    "state": "ID",
    "zip": "83843",
    "phone": "(208) 596-4992",
    "fax": null,
    "email": null,
    "website": "http://www.freefood.org/",
    "hours": "Tuesday through Friday 2:00pm to 4:00pm The Food Bank is hosted by St. Mary's Parish, which owns and maintains the facilities. Many m\nGo To Details Page For More Information",
    "description": null,
    "requirements": null,
    "scraped_at": "2025-10-30T13:48:54.235834",
    "latitude": 46.7323875,
    "longitude": -117.000165,
    "geocoded_address": "Moscow, Latah County, Idaho, United States of America",
    "note": "Geocoded to city center (exact address not found)"
  },
  {
    "url": "https://www.foodpantries.org/li/id-st_marys_church_on_moscow_food_pantry",
    "name": "St Mary's Church on Moscow Food Pantry",
    "address": "110 N. Polk Street",
    "city": "Moscow",
    "state": "ID",
    "zip": "83843",
    "phone": "(208) 882-4813",
    "fax": "(208) 883-0908",
    "email": null,
    "website": "http://www.freefood.org/",
    "hours": null,
    "description": null,
    "requirements": null,
    "scraped_at": "2025-10-30T13:49:00.664094",
    "latitude": 46.7340535,
    "longitude": -116.9937888,
    "geocoded_address": "110, North Polk Street, Moscow, Latah County, Idaho, 83843, United States of America"
  },
  {
    "url": "https://www.foodpantries.org/li/pullman-child-welfare",
    "name": "Pullman Child Welfare",
    "address": "100 NW Stadium Way",
    "city": "Pullman",
    "state": "WA",
    "zip": "99163",
    "phone": "(509) 338-0801",
    "fax": null,
    "email": null,
    "website": "http://www.freefood.org/",
    "hours": "Tuesday through Friday 2:00pm to 4:00pm The Food Bank is hosted by St. Mary's Parish, which owns and maintains the facilities. Many m\nGo To Details Page For More Information",
    "description": null,
    "requirements": null,
    "scraped_at": "2025-10-30T13:49:08.108104",
    "latitude": 46.739894,
    "longitude": -117.172917,
    "geocoded_address": "100, Northwest Stadium Way, Military Hill, Ward 1, Pullman, Whitman County, Washington, 99163, United States of America"
  },
  {
    "url": "https://www.foodpantries.org/li/vision_bible_church_of_god_83638",
    "name": "Vision Bible Church of God",
    "address": "221 Main Street",
    "city": "Marsing",
    "state": "ID",
    "zip": "83638",
    "phone": null,
    "fax": null,
    "email": null,
    "website": "http://www.freefood.org/",
    "hours": "Thursday2:00pm - 4:00pm\r\n                                    \r\n                                    County or Counties Served: Valley",
    "description": null,
    "requirements": "Bring ID for yourself and some type of paperwork or ID for members of your household. Location: Across the parking l\nGo To Details Page For More Information",
    "scraped_at": "2025-10-30T13:49:11.280467",
    "latitude": 43.5454921,
    "longitude": -116.8061822,
    "geocoded_address": "Vision Community Church, 221, West Main Street, Marsing, Owyhee County, Idaho, 83639, United States of America"
  },
  {
    "url": "https://www.foodpantries.org/li/marsing_assembly_of_god_83611",
    "name": "Marsing Assembly of God",
    "address": "139 Kerry St",
    "city": "Marsing",
    "state": "ID",
    "zip": "83611",
    "phone": null,
    "fax": null,
    "email": null,
    "website": "http://www.freefood.org/",
    "hours": "3rd Thursday of the month 3:00pm - 4:00pmFor more information, please call\r\n                                    \r\n                                    County or Counties Served: Valley",
    "description": null,
    "requirements": "Bring ID for yourself and some type of paperwork or ID for members of your household. Location: Across the parking l\nGo To Details Page For More Information",
    "scraped_at": "2025-10-30T13:49:15.669061",
    "latitude": 43.546059,
    "longitude": -116.8155879,
    "geocoded_address": "Marsing Assembly of God, 139, Kerry Street, Marsing, Owyhee County, Idaho, 83639, United States of America"
  },
  {
    "url": "https://www.foodpantries.org/li/heartland_hunger_resource_center_83638",
    "name": "Heartland Hunger Resource Center",
    "address": "163 Thula Bldg 3 Space 5",
    "city": "McCall",
    "state": "ID",
    "zip": "83638",
    "phone": null,
    "fax": null,
    "email": null,
    "website": "http://www.freefood.org/",
    "hours": "Wednesday4:30pm - 6:30pm Saturday 10:00am - 12:00pm\r\n                                    \r\n                                    County or Counties Served: Valley",
    "description": null,
    "requirements": "Photo identification \u00a0\u00a0\u00a0 Names and birth dates of all individuals residing in your household  Notes:  Visit the facility at least one hour before closing, within operating hours. A volunte\nGo To Details Page For More Information",
    "scraped_at": "2025-10-30T13:49:18.566958",
    "latitude": 44.9110458,
    "longitude": -116.098281,
    "geocoded_address": "McCall, Valley County, Idaho, 83638, United States of America",
    "note": "Geocoded to city center (exact address not found)"
  },
  {
    "url": "https://www.foodpantries.org/li/melba_valley_senior_center_83641",
    "name": "Melba Valley Senior Center",
    "address": "115 Base Line Rd",
    "city": "Melba",
    "state": "ID",
    "zip": "83641",
    "phone": null,
    "fax": null,
    "email": null,
    "website": "http://www.freefood.org/",
    "hours": "Tuesday 7:00 - 11:30am Thursday8:00am - 4:00pm\r\n                                    \r\n                                    County or Counties Served: Canyon",
    "description": null,
    "requirements": null,
    "scraped_at": "2025-10-30T13:49:24.476733",
    "latitude": 43.3719785,
    "longitude": -116.5237577,
    "geocoded_address": "Base Line Road, Melba, Canyon County, Idaho, United States of America"
  },
  {
    "url": "https://www.foodpantries.org/li/sulamita_evangelical_church_83672",
    "name": "Sulamita Evangelical Church",
    "address": "1021 W 8th Street",
    "city": "Meridian",
    "state": "ID",
    "zip": "83642",
    "phone": "(208) 585-4803",
    "fax": null,
    "email": null,
    "website": "http://www.freefood.org/",
    "hours": "Second and forth Saturday each month10:00am - 12:00pm Holiday hours may vary.holiday hours may vary.For more information, please call. \nCounty or Counties Served: Washington",
    "description": null,
    "requirements": "Photo ID Proof of\nGo To Details Page For More Information",
    "scraped_at": "2025-10-30T13:49:27.084358",
    "latitude": 43.6086295,
    "longitude": -116.392326,
    "geocoded_address": "Meridian, Ada County, Idaho, United States of America",
    "note": "Geocoded to city center (exact address not found)"
  },
  {
    "url": "https://www.foodpantries.org/li/st_vincent_de_paul-holy_apostles_83611",
    "name": "St Vincent de Paul-Holy Apostles",
    "address": "6300 N Meridian Rd",
    "city": "Meridian",
    "state": "ID",
    "zip": "83646",
    "phone": "(208) 888-1182",
    "fax": "(208) 884-1800",
    "email": null,
    "website": "http://www.freefood.org/",
    "hours": "Monday, Wednesday and Friday 1:00pm - 4:00pm Thursday 5:30pm - 7:00pmFor more information, please call. \nCounty or Counties Served: Valley",
    "description": null,
    "requirements": "Photo ID Proof of\nGo To Details Page For More Information",
    "scraped_at": "2025-10-30T13:49:35.996323",
    "latitude": 43.6621787,
    "longitude": -116.3918634,
    "geocoded_address": "Holy Apostles Catholic Church, 6300, North Meridian Road, Meridian, Ada County, Idaho, 83646, United States of America"
  },
  {
    "url": "https://www.foodpantries.org/li/meridian_food_bank_83611",
    "name": "Meridian Food Bank",
    "address": "133 W. Broadway Ave.",
    "city": "Meridian",
    "state": "ID",
    "zip": "83642",
    "phone": "(208) 888-5102",
    "fax": null,
    "email": null,
    "website": "http://www.freefood.org/",
    "hours": "Monday 12:00pm to 6:00pmWednesday12:00pm to 6:00pmThursday12:00pm - 4:00pmREQUIREMENTS:Photo IDProof of current address (such as a utility bill)Names, birth dates and prior-year incomes of all individuals living in your households.For more information, please call. \nVolunteering Information:https://meridianfoodbank.org/volunteer \nCounty or Counties Served: Ada",
    "description": null,
    "requirements": "Photo IDProof of current address (such as a utility bill)Names, birth dates and prior-year incomes of all individuals living in your households.For more information, please call. \nVolunteering Information:https://meridianfoodbank.org/volunteer \nCounty or Counties Served: Ada",
    "scraped_at": "2025-10-30T13:49:41.985820",
    "latitude": 43.6099105,
    "longitude": -116.395537,
    "geocoded_address": "133, West Broadway Avenue, West View Addition, Meridian, Ada County, Idaho, 83642, United States of America"
  },
  {
    "url": "https://www.foodpantries.org/li/id_83642_the-idaho-foodbank",
    "name": "The Idaho Foodbank",
    "address": "3630 E. Commercial Court",
    "city": "Meridian",
    "state": "ID",
    "zip": "83642",
    "phone": "(208) 336-9643",
    "fax": null,
    "email": null,
    "website": "http://www.freefood.org/",
    "hours": "Last Wednesday of month 6:00pm - 7:00pm\nGo To Details Page For More Information",
    "description": null,
    "requirements": "Photo ID Proof of\nGo To Details Page For More Information",
    "scraped_at": "2025-10-30T13:49:46.944016",
    "latitude": 43.6103811,
    "longitude": -116.3490795,
    "geocoded_address": "3630, East Commercial Court, Commerce Park, Meridian, Ada County, Idaho, 83642, United States of America"
  },
  {
    "url": "https://www.foodpantries.org/li/sulamita-food-pantry",
    "name": "Sulamita Food Pantry",
    "address": "1435 N Blackcat Rd",
    "city": "Meridian",
    "state": "ID",
    "zip": "83642",
    "phone": "(208) 585-4803",
    "fax": null,
    "email": null,
    "website": "http://www.freefood.org/",
    "hours": "Second and forth Saturday each month 10:00am - 12:00pm Holiday hours may vary.holiday hours may vary. For more information, please call.  \nGo To Details Page For More Information",
    "description": null,
    "requirements": "Photo ID Proof of\nGo To Details Page For More Information",
    "scraped_at": "2025-10-30T13:49:49.785537",
    "latitude": 43.6086295,
    "longitude": -116.392326,
    "geocoded_address": "Meridian, Ada County, Idaho, United States of America",
    "note": "Geocoded to city center (exact address not found)"
  },
  {
    "url": "https://www.foodpantries.org/li/middleton_food_bank_83611",
    "name": "Middleton Food Pantry",
    "address": "307 East 1st Street",
    "city": "Middleton",
    "state": "ID",
    "zip": "83644",
    "phone": "(208) 585-3748",
    "fax": null,
    "email": null,
    "website": "http://www.freefood.org/",
    "hours": "Saturday\r\n10:30am to 12:30pm\n\r\nFood items can be dropped off at our building.",
    "description": null,
    "requirements": "ID and proof of address (just any piece of mail).\u00a0 Once you're entered into their system, they give you a pink slip of paper and you drive \nGo To Details Page For More Information",
    "scraped_at": "2025-10-30T13:49:54.461873",
    "latitude": 43.7073866,
    "longitude": -116.62241,
    "geocoded_address": "East 1st Street, Downtown Middleton, Middleton, Canyon County, Idaho, 83644, United States of America"
  },
  {
    "url": "https://www.foodpantries.org/li/id_83855_potlatch-food-pantry",
    "name": "Potlatch Food Pantry",
    "address": "510 Pine Street",
    "city": "Potlatch",
    "state": "ID",
    "zip": "83855",
    "phone": "(208) 661-7997",
    "fax": null,
    "email": null,
    "website": "http://www.freefood.org/",
    "hours": "The 2nd and 4th Thursday of the month 10:00am - 12:00pm and 6:00pm - 8:00pmDonations:Please bring them to City Hall, between the hours of 8:30am - 5:30pm\r\n                                    Volunteering Information:Call Joan at 208-661-7997 \nCounty or Counties Served: Latah",
    "description": null,
    "requirements": null,
    "scraped_at": "2025-10-30T13:49:57.869075",
    "latitude": 46.9247151,
    "longitude": -116.9005199,
    "geocoded_address": "Pine Street, Potlatch, Latah County, Idaho, 83855, United States of America"
  },
  {
    "url": "https://www.foodpantries.org/li/grace_lutheran_83638",
    "name": "Grace Lutheran",
    "address": "2422 American Legion Blvd",
    "city": "Mountain Home",
    "state": "ID",
    "zip": "83647",
    "phone": "(208) 587-4513",
    "fax": null,
    "email": null,
    "website": "http://www.freefood.org/",
    "hours": "3rd Wednesday of the month 5:00 pm - 7:00 pmFor more information, please call.\nCounty or Counties Served: Valley",
    "description": null,
    "requirements": null,
    "scraped_at": "2025-10-30T13:50:00.535469",
    "latitude": 43.134488,
    "longitude": -115.6713703,
    "geocoded_address": "2422, American Legion Boulevard, Mountain Home, Elmore County, Idaho, 83647, United States of America"
  },
  {
    "url": "https://www.foodpantries.org/li/id_mountain-home_el-ada-elmore-county-office",
    "name": "Mountain Home Food Pantry - El Ada",
    "address": "585 N 3rd E Street",
    "city": "Mountain Home",
    "state": "ID",
    "zip": "83647",
    "phone": "(208) 587-8407",
    "fax": null,
    "email": null,
    "website": "http://www.freefood.org/",
    "hours": "Monday to Friday: 8:00am to 4:00pm Notes:May visit the food pantry once every 60 days Food boxes provide 2-4 days worth of foodGarden seeds may also be available in the springtimeMust qualify and be enrolled in the CSBG program\nCounty or Counties Served: Elmore",
    "description": null,
    "requirements": null,
    "scraped_at": "2025-10-30T13:50:08.706489",
    "latitude": 43.1356695,
    "longitude": -115.6957058,
    "geocoded_address": "585, North 3rd East Street, Mountain Home, Elmore County, Idaho, 83647, United States of America"
  },
  {
    "url": "https://www.foodpantries.org/li/salvation_army-nampa_83651",
    "name": "Salvation Army Nampa Food Pantry",
    "address": "1412 4th St South",
    "city": "Nampa",
    "state": "ID",
    "zip": "83651",
    "phone": "(208) 586-9693",
    "fax": null,
    "email": null,
    "website": "http://www.freefood.org/",
    "hours": "Fridays 2:00pm - 4:00pmFor more information, please call. \nCounty or Counties Served: Valley",
    "description": null,
    "requirements": null,
    "scraped_at": "2025-10-30T13:50:13.046312",
    "latitude": 43.5750231,
    "longitude": -116.5603295,
    "geocoded_address": "1412, 4th Street South, Nampa, Canyon County, Idaho, 83651, United States of America"
  },
  {
    "url": "https://www.foodpantries.org/li/seventh_day_adventist-nampa_83638",
    "name": "Seventh Day Adventist-Nampa",
    "address": "307 W Iowa Ave",
    "city": "Nampa",
    "state": "ID",
    "zip": "83638",
    "phone": "(208) 466-5758",
    "fax": null,
    "email": null,
    "website": "http://www.nampasda.org",
    "hours": "Wednesday12:00pm - 4:00pmFor more information, please call.\nCounty or Counties Served: Valley",
    "description": null,
    "requirements": null,
    "scraped_at": "2025-10-30T13:50:15.921918",
    "latitude": 43.5539723,
    "longitude": -116.57568,
    "geocoded_address": "Nampa Seventh-Day Adventist Church, 307, West Iowa Avenue, Nampa, Canyon County, Idaho, 83686, United States of America"
  },
  {
    "url": "https://www.foodpantries.org/li/harvest_life_church_83638",
    "name": "Harvest Life Church",
    "address": "11437 W. Orchard Ave",
    "city": "Nampa",
    "state": "ID",
    "zip": "83651",
    "phone": "(208) 465-7327",
    "fax": null,
    "email": null,
    "website": "http://www.freefood.org/",
    "hours": "Fridays 2:00pm - 4:00pm For more information, please call.  \nGo To Details Page For More Information",
    "description": null,
    "requirements": "Bring ID for yourself and some type of paperwork or ID for members of your household. Location: Across the parking l\nGo To Details Page For More Information",
    "scraped_at": "2025-10-30T13:50:19.477941",
    "latitude": 43.5903217,
    "longitude": -116.6225701,
    "geocoded_address": "11437, West Orchard Avenue, Nampa, Canyon County, Idaho, 83651, United States of America"
  },
  {
    "url": "https://www.foodpantries.org/li/first_church_nazarene_83651",
    "name": "Nampa First Church of the Nazarene",
    "address": "1524 6th Street S",
    "city": "Nampa",
    "state": "ID",
    "zip": "83651",
    "phone": "(208) 466-3549",
    "fax": null,
    "email": null,
    "website": "http://www.freefood.org/",
    "hours": "Tuesday and Thursday1:00pm - 4:00pmSaturday 1:00pm - 3:00pmFor more information, please call. \nCounty or Counties Served: Canyon",
    "description": null,
    "requirements": null,
    "scraped_at": "2025-10-30T13:50:22.489889",
    "latitude": 43.5724761,
    "longitude": -116.5607766,
    "geocoded_address": "1524, 6th Street South, Nampa, Canyon County, Idaho, 83651, United States of America"
  },
  {
    "url": "https://www.foodpantries.org/li/id_83687_good-news-food-pantry",
    "name": "Good News Food Pantry",
    "address": "1203 7th St North",
    "city": "Nampa",
    "state": "ID",
    "zip": "83687",
    "phone": "(208) 477-8600",
    "fax": null,
    "email": null,
    "website": "http://www.freefood.org/",
    "hours": "1st and 3rd Wednesday of every month from 3:00pm to 5:00pm No documentation is required.For more information, please call. \nCounty or Counties Served: Canyon",
    "description": null,
    "requirements": null,
    "scraped_at": "2025-10-30T13:50:25.613558",
    "latitude": 43.5850813,
    "longitude": -116.5514141,
    "geocoded_address": "1203, 7th Street North, Nampa, Canyon County, Idaho, 83687, United States of America"
  },
  {
    "url": "https://www.foodpantries.org/li/st-vincent-de-paul-food-pantry-nampa",
    "name": "St. Vincent De Paul Food Pantry - Nampa",
    "address": "2920 E Railroad Street",
    "city": "Nampa",
    "state": "ID",
    "zip": "83687",
    "phone": "(208) 442-4452",
    "fax": null,
    "email": null,
    "website": "http://www.freefood.org/",
    "hours": "Tuesday and Thursday 1:00pm - 4:00pm Saturday 1:00pm - 3:00pm  For more information, please call.  \nGo To Details Page For More Information",
    "description": null,
    "requirements": null,
    "scraped_at": "2025-10-30T13:50:28.794320",
    "latitude": 43.5644888,
    "longitude": -116.5354145,
    "geocoded_address": "2920, East Railroad Street, Nampa, Canyon County, Idaho, 83687, United States of America"
  },
  {
    "url": "https://www.foodpantries.org/li/boise-rescue-mission-lighthouse-food-pantry",
    "name": "Boise Rescue Mission Lighthouse food pantry",
    "address": "304 N 16th Ave.",
    "city": "Nampa",
    "state": "ID",
    "zip": "83687",
    "phone": "(208) 461-5030",
    "fax": null,
    "email": null,
    "website": "http://www.freefood.org/",
    "hours": "1st and 3rd Wednesday of every month from 3:00pm to 5:00pm  No documentation is required.  For more information, please call.  \nGo To Details Page For More Information",
    "description": null,
    "requirements": null,
    "scraped_at": "2025-10-30T13:50:31.661989",
    "latitude": 43.5793934,
    "longitude": -116.5509879,
    "geocoded_address": "304, 16th Avenue North, Nampa, Canyon County, Idaho, 83687, United States of America"
  },
  {
    "url": "https://www.foodpantries.org/li/victorious-new-beginnings",
    "name": "Victorious New Beginnings Food Pantry",
    "address": "119 S Valley Dr",
    "city": "Nampa",
    "state": "ID",
    "zip": "83686",
    "phone": "(208) 899-6875",
    "fax": null,
    "email": null,
    "website": "http://www.freefood.org/",
    "hours": "Wednesday 12:00pm - 4:00pm  For more information, please call.  \nGo To Details Page For More Information",
    "description": null,
    "requirements": null,
    "scraped_at": "2025-10-30T13:50:35.551535",
    "latitude": 43.5493732,
    "longitude": -116.5731557,
    "geocoded_address": "119, South Valley Drive, Nampa, Canyon County, Idaho, 83686, United States of America"
  },
  {
    "url": "https://www.foodpantries.org/li/seventh-day-adventist-community-services-center",
    "name": "Seventh-day Adventist Community Services Center Food Pantry, Clothing, Diaper Bank",
    "address": "211 W Iowa Ave",
    "city": "Nampa",
    "state": "ID",
    "zip": "83686",
    "phone": "(208) 461-1651",
    "fax": null,
    "email": null,
    "website": "http://www.freefood.org/",
    "hours": "Wednesday 12:00pm - 4:00pm  For more information, please call.  \nGo To Details Page For More Information",
    "description": null,
    "requirements": "To be eligible for services they require a State-Issued Photo ID for the primary household member.Contact the Food Pantry if you need more information.\r\n                                    \r\n                                    County or Counties Served: Canyon",
    "scraped_at": "2025-10-30T13:50:46.864042",
    "latitude": 43.5542009,
    "longitude": -116.5741313,
    "geocoded_address": "211, West Iowa Avenue, Nampa, Canyon County, Idaho, 83686, United States of America"
  },
  {
    "url": "https://www.foodpantries.org/li/new_plymouth_assembly_of_god_83672",
    "name": "New Plymouth Assembly of God",
    "address": "4025 Highway 30 W",
    "city": "New Plymouth",
    "state": "ID",
    "zip": "83655",
    "phone": "(208) 953-7350",
    "fax": null,
    "email": null,
    "website": "http://ag.org/top",
    "hours": "Tuesday1:00 pm - 4:00 pmFriday1:00 pm - 4:00 pmFor more information, please call. \nCounty or Counties Served: Washington",
    "description": null,
    "requirements": null,
    "scraped_at": "2025-10-30T13:50:52.479651",
    "latitude": 43.9703347,
    "longitude": -116.819874,
    "geocoded_address": "New Plymouth, Payette County, Idaho, 83655, United States of America",
    "note": "Geocoded to city center (exact address not found)"
  },
  {
    "url": "https://www.foodpantries.org/li/wicap-weiser_83672",
    "name": "WICAP-Weiser",
    "address": "315 S Main St",
    "city": "Payette",
    "state": "ID",
    "zip": "83672",
    "phone": null,
    "fax": null,
    "email": null,
    "website": "http://www.wicap.org",
    "hours": "Monday - Friday 8:00am - 5:00pm\r\n                                    \r\n                                    County or Counties Served: Washington",
    "description": null,
    "requirements": null,
    "scraped_at": "2025-10-30T13:50:58.503897",
    "latitude": 44.0702024,
    "longitude": -116.9347921,
    "geocoded_address": "315, South Main Street, Payette, Payette County, Idaho, 83661, United States of America"
  },
  {
    "url": "https://www.foodpantries.org/li/idaho-food-bank-warehouse",
    "name": "Idaho Food Bank Pocatello Branch",
    "address": "555 South 1st Avenue",
    "city": "Pocatello",
    "state": "ID",
    "zip": "83201",
    "phone": "(208) 233-8811",
    "fax": "(208) 233-4612",
    "email": null,
    "website": "http://www.freefood.org/",
    "hours": "Wednesday 10:00am - 1:00pm\nGo To Details Page For More Information",
    "description": null,
    "requirements": null,
    "scraped_at": "2025-10-30T13:51:03.303020",
    "latitude": 42.8605084,
    "longitude": -112.4438049,
    "geocoded_address": "555, South 1st Avenue, Pocatello, Bannock County, Idaho, 83201, United States of America"
  },
  {
    "url": "https://www.foodpantries.org/li/id_83854_the-post-falls-food-bank",
    "name": "The Post Falls Food Bank",
    "address": "415 East 3rd Avenue",
    "city": "Post Falls",
    "state": "ID",
    "zip": "83854",
    "phone": "(208) 773-0139",
    "fax": null,
    "email": null,
    "website": "http://www.freefood.org/",
    "hours": "Monday 11:00 am - 6:00 pm Tuesday - Friday 9:00 am - 2:00 pmFor more information, please call.\nVolunteering Information:Go to website for more volunteering information \nCounty or Counties Served: Kootenai",
    "description": null,
    "requirements": "Address verification (utility, phone bill and per\nGo To Details Page For More Information",
    "scraped_at": "2025-10-30T13:51:05.721238",
    "latitude": 47.7082969,
    "longitude": -116.9431014,
    "geocoded_address": "415, East 3rd Avenue, Post Falls, Kootenai County, Idaho, 83854, United States of America"
  },
  {
    "url": "https://www.foodpantries.org/li/id_kootenai-county-community-action-partnership-cap",
    "name": "Community Action Partnership Kootenai County",
    "address": "4144 W. Industrial Loop",
    "city": "Coeur d'Alene",
    "state": "ID",
    "zip": "83815",
    "phone": "(208) 664-8757",
    "fax": "(208) 664-8586",
    "email": null,
    "website": "http://www.freefood.org/",
    "hours": "Monday 11:00 am - 6:00 pm Tuesday - Friday 9:00 am - 2:00 pm  For more information, please call. \nGo To Details Page For More Information",
    "description": null,
    "requirements": null,
    "scraped_at": "2025-10-30T13:51:11.393351",
    "latitude": 47.6742994,
    "longitude": -116.7811531,
    "geocoded_address": "Coeur d'Alene, Kootenai County, Idaho, 83815, United States of America",
    "note": "Geocoded to city center (exact address not found)"
  },
  {
    "url": "https://www.foodpantries.org/li/rathdrum-food-bank",
    "name": "Rathdrum Food Bank",
    "address": "8027 W Main Street",
    "city": "Rathdrum",
    "state": "ID",
    "zip": "83858",
    "phone": "(208) 687-3696",
    "fax": null,
    "email": null,
    "website": "http://www.freefood.org/",
    "hours": "Monday 11:00 am - 6:00 pm Tuesday - Friday 9:00 am - 2:00 pm  For more information, please call. \nGo To Details Page For More Information",
    "description": null,
    "requirements": "Address verification (utility, phone bill and per\nGo To Details Page For More Information",
    "scraped_at": "2025-10-30T13:51:16.980413",
    "latitude": 47.8113125,
    "longitude": -116.8966854,
    "geocoded_address": "8027, West Main Street, Rathdrum, Kootenai County, Idaho, 83858, United States of America"
  },
  {
    "url": "https://www.foodpantries.org/li/otis_orchards_food_bank_99027",
    "name": "Otis Orchards Adventist Church - Food Bank",
    "address": "4308 N. Harvard Rd",
    "city": "Spokane",
    "state": "WA",
    "zip": "99027",
    "phone": "(509) 842-2355",
    "fax": null,
    "email": null,
    "website": "http://www.freefood.org/",
    "hours": "1st and 3rd Tuesdays of the month from 11:00am - 2:00pm\n\r\nAll Other Days: Call to make an appointment if you are not able to come during our regular operating hours.",
    "description": null,
    "requirements": "Address verification (utility, phone bill and per\nGo To Details Page For More Information",
    "scraped_at": "2025-10-30T13:51:23.191180",
    "latitude": 47.6960521,
    "longitude": -117.1116926,
    "geocoded_address": "4308, North Harvard Road, Otis Orchards-East Farms, Spokane County, Washington, 99027, United States of America"
  },
  {
    "url": "https://www.foodpantries.org/li/valley-food-bank-spokane",
    "name": "Valley Food Bank - Spokane",
    "address": "10814 E Broadway Ave",
    "city": "Spokane",
    "state": "WA",
    "zip": "99206",
    "phone": "(509) 927-1153",
    "fax": "(509) 928-8463",
    "email": null,
    "website": "http://www.freefood.org/",
    "hours": "MONDAY 1:00pm - 3:00pm WEDNESDAY 1:00pm - 3:00pm FRIDAY 1:00pm - 3:00pm  Volunteer Opportunities:  Assist with customer check-in, making food boxes, restocking shelves, help unload trucks, and sort through donations. Food donations are always welcome.  For more information, ple\nGo To Details Page For More Information",
    "description": null,
    "requirements": null,
    "scraped_at": "2025-10-30T13:51:26.075509",
    "latitude": 47.664257,
    "longitude": -117.2591681,
    "geocoded_address": "10814, East Broadway Avenue, Opportunity, Spokane Valley, Spokane County, Washington, 99206, United States of America"
  },
  {
    "url": "https://www.foodpantries.org/li/spokane_valley_partners_99206",
    "name": "Spokane Valley Partners",
    "address": "10814 E. Broadway",
    "city": "Spokane",
    "state": "WA",
    "zip": "99206",
    "phone": null,
    "fax": null,
    "email": null,
    "website": "http://www.freefood.org/",
    "hours": "Wed: 11 am-4 pm; walk-ins; Thurs: 11 am-1 pm; by appt. only\r\n                                    \r\n                                                                        \n* Important: Please call the food pantries to confirm that the hours have not changed. We do our best to provide full information and details, but food pantries often change their hours without notifying us. We do not want you to waste your time visiting a pantry that is not open.",
    "description": null,
    "requirements": null,
    "scraped_at": "2025-10-30T13:51:29.088876",
    "latitude": 47.664257,
    "longitude": -117.2591681,
    "geocoded_address": "10814, East Broadway Avenue, Opportunity, Spokane Valley, Spokane County, Washington, 99206, United States of America"
  },
  {
    "url": "https://www.foodpantries.org/li/spirit-lake-food-bank",
    "name": "Spirit Lake Food Bank",
    "address": "32154 N 4th Ave",
    "city": "Spirit Lake",
    "state": "ID",
    "zip": "83869",
    "phone": "(208) 623-3107",
    "fax": null,
    "email": null,
    "website": "http://www.freefood.org/",
    "hours": "Wednesday \r\n12:30pm - 3:00pm\n\r\nFor more information, please call.\r\n                                    \r\n                                    County or Counties Served: Kootenai",
    "description": null,
    "requirements": "Address verification (utility, phone bill and per\nGo To Details Page For More Information",
    "scraped_at": "2025-10-30T13:51:33.370199",
    "latitude": 47.964827,
    "longitude": -116.869974,
    "geocoded_address": "32154, North 4th Avenue, Spirit Lake, Kootenai County, Idaho, 83869, United States of America"
  },
  {
    "url": "https://www.foodpantries.org/li/north_county_food_bank_99003",
    "name": "North County Food Bank",
    "address": "40015A N. Collins Rd.",
    "city": "Chattaroy",
    "state": "WA",
    "zip": "99003",
    "phone": null,
    "fax": null,
    "email": null,
    "website": "http://www.freefood.org/",
    "hours": "As of April 21, 2014: Monday, Wednesdays 11AM -\u00a0 2PM. \r\n                                    \r\n                                                                        \n* Important: Please call the food pantries to confirm that the hours have not changed. We do our best to provide full information and details, but food pantries often change their hours without notifying us. We do not want you to waste your time visiting a pantry that is not open.",
    "description": null,
    "requirements": "Valid picture ID, such as a driver's license.  Pantry Hours:  Wednesday 4:00 pm - 6:30 pm  For more information, please call.  \nGo To Details Page For More Information",
    "scraped_at": "2025-10-30T13:51:36.262635",
    "latitude": 47.8894184,
    "longitude": -117.3578196,
    "geocoded_address": "Chattaroy, Spokane County, Washington, United States of America",
    "note": "Geocoded to city center (exact address not found)"
  },
  {
    "url": "https://www.foodpantries.org/li/north-palouse-community-food-bank",
    "name": "North Palouse Community Food Bank",
    "address": "202 N. Railroad Ave.   P.O. Box 462",
    "city": "Fairfield",
    "state": "WA",
    "zip": "99012",
    "phone": null,
    "fax": null,
    "email": null,
    "website": "http://www.freefood.org/",
    "hours": "The 4th Wednesday of the month 2:00pm - 3:00pm For more information, please call. \nGo To Details Page For More Information",
    "description": null,
    "requirements": "Address verification (utility, phone bill and per\nGo To Details Page For More Information",
    "scraped_at": "2025-10-30T13:51:39.976227",
    "latitude": 47.3851752,
    "longitude": -117.171578,
    "geocoded_address": "Fairfield, Spokane County, Washington, United States of America",
    "note": "Geocoded to city center (exact address not found)"
  },
  {
    "url": "https://www.foodpantries.org/li/elk-food-bank",
    "name": "Elk Food Bank",
    "address": "40015 N Collins Rd",
    "city": "Elk",
    "state": "WA",
    "zip": "99009",
    "phone": "(509) 292-2530",
    "fax": null,
    "email": null,
    "website": "http://www.freefood.org/",
    "hours": "As of April 21, 2014: Monday, Wednesdays 11AM -\u00a0 2PM. \nGo To Details Page For More Information",
    "description": null,
    "requirements": "Valid picture ID, such as a driver's license.  Pantry Hours:  Wednesday 4:00 pm - 6:30 pm  For more information, please call.  \nGo To Details Page For More Information",
    "scraped_at": "2025-10-30T13:51:45.799077",
    "latitude": 48.0162861,
    "longitude": -117.2766032,
    "geocoded_address": "Elk, Spokane County, Washington, 99009, United States of America",
    "note": "Geocoded to city center (exact address not found)"
  },
  {
    "url": "https://www.foodpantries.org/li/valley-baptist-church-food-pantry",
    "name": "Valley Baptist Church Food Pantry",
    "address": "7336 Spirit Lake Cuttoff Rd",
    "city": "Priest River",
    "state": "ID",
    "zip": "83856",
    "phone": "(208) 263-8021",
    "fax": null,
    "email": null,
    "website": "http://www.freefood.org/",
    "hours": "the 3rd Thursday of the month 4:30pm - 6:30pmFor more information, please call. \nCounty or Counties Served: Bonner",
    "description": null,
    "requirements": null,
    "scraped_at": "2025-10-30T13:51:52.153955",
    "latitude": 48.1807415,
    "longitude": -116.909365,
    "geocoded_address": "Priest River, Bonner County, Idaho, United States of America",
    "note": "Geocoded to city center (exact address not found)"
  },
  {
    "url": "https://www.foodpantries.org/li/upper_valley_bible_church_food_pantry_83445",
    "name": "Upper Valley Bible Church Food Pantry",
    "address": "825 W 4th N",
    "city": "St Anthony",
    "state": "ID",
    "zip": "83445",
    "phone": null,
    "fax": null,
    "email": null,
    "website": "http://www.freefood.org/",
    "hours": "Monday 5:00pm - 5:30pm\r\n                                    \r\n                                    County or Counties Served: Fremont",
    "description": null,
    "requirements": null,
    "scraped_at": "2025-10-30T13:52:01.924314",
    "latitude": 43.9704774,
    "longitude": -111.6940308,
    "geocoded_address": "Upper Valley Bible Church, 825, West 4th North, St. Anthony, Fremont County, Idaho, 83445, United States of America"
  },
  {
    "url": "https://www.foodpantries.org/li/richfield-community-food-bank",
    "name": "Richfield Community Food Bank",
    "address": "410 S. Main St.",
    "city": "Richfield",
    "state": "ID",
    "zip": "83349",
    "phone": null,
    "fax": null,
    "email": null,
    "website": "http://www.freefood.org/",
    "hours": "Thursday of the month9:00am to 12:00pm",
    "description": null,
    "requirements": null,
    "scraped_at": "2025-10-30T13:52:07.520979",
    "latitude": 43.044334,
    "longitude": -114.1537447,
    "geocoded_address": "410, South Main Street, Richfield, Lincoln County, Idaho, 83349, United States of America"
  },
  {
    "url": "https://www.foodpantries.org/li/community-action-agency",
    "name": "Community Action Agency",
    "address": "416 Main Ave",
    "city": "Saint Maries",
    "state": "ID",
    "zip": "83861",
    "phone": "(208) 245-9090",
    "fax": null,
    "email": null,
    "website": "http://www.freefood.org/",
    "hours": "The 2nd and 4th Thursday of the month 10:00am - 12:00pm and 6:00pm - 8:00pm  Donations:  Please bring them to City Hall, between the hours of 8:30am - 5:30pm\nGo To Details Page For More Information",
    "description": null,
    "requirements": null,
    "scraped_at": "2025-10-30T13:52:13.540070",
    "latitude": 47.3163142,
    "longitude": -116.5637076,
    "geocoded_address": "416, Main Avenue, Saint Maries, Benewah County, Idaho, 83861, United States of America"
  }
]