[
  {
    "url": "https://www.foodpantries.org/li/vermillion_coa_70510",
    "name": "Vermillion COA",
    "address": "1928 Graceland",
    "city": "Abberville",
    "state": "LA",
    "zip": "70510",
    "phone": null,
    "fax": null,
    "email": null,
    "website": "http://www.freefood.org/",
    "hours": "Monday - Friday 8:00am - 4:30pm For low income families and individuals Bring proof of public assistance (food stam\nGo To Details Page For More Information",
    "description": null,
    "requirements": null,
    "scraped_at": "2025-10-31T14:32:54.757305"
  },
  {
    "url": "https://www.foodpantries.org/li/assist-agency-vermilion",
    "name": "Assist Agency",
    "address": "407 Charity Street",
    "city": "Abbeville",
    "state": "LA",
    "zip": "70510",
    "phone": "(337) 898-9554",
    "fax": null,
    "email": null,
    "website": "http://www.freefood.org/",
    "hours": "Monday - Friday 8:00am - 4:30pmFor low income families and individualsBring proof of public assistance (food stamp print out, etc.)Food VouchersAdditional food items are made available to low-income families so as to maintain a balanced diet and reduce the risk of malnutrition among low-income families. For more information, please call. \nCounty or Counties Served: Vermilion",
    "description": null,
    "requirements": null,
    "scraped_at": "2025-10-31T14:32:59.170161",
    "latitude": 29.9735887,
    "longitude": -92.1322051,
    "geocoded_address": "407, Charity Street, Abbeville Residential Historic District, Abbeville Commercial Historic District, Abbeville, Vermilion Parish, Louisiana, 70510, United States of America"
  },
  {
    "url": "https://www.foodpantries.org/li/st_mary_magdalen_christian_sc_70510",
    "name": "St Mary Magdalen Christian SC",
    "address": "701 Chevis St.",
    "city": "Abbeville",
    "state": "LA",
    "zip": "70510",
    "phone": null,
    "fax": null,
    "email": null,
    "website": "http://www.freefood.org/",
    "hours": "Monday - Friday 8:00am - 4:30pm For low income families and individuals Bring proof of public assistance (food stam\nGo To Details Page For More Information",
    "description": null,
    "requirements": null,
    "scraped_at": "2025-10-31T14:33:02.069398",
    "latitude": 29.9746502,
    "longitude": -92.1342921,
    "geocoded_address": "Abbeville, Vermilion Parish, Louisiana, 70510, United States of America",
    "note": "Geocoded to city center (exact address not found)"
  },
  {
    "url": "https://www.foodpantries.org/li/vermilion-milk-fund-kaplan-food-bank",
    "name": "Vermilion Milk Fund & Kaplan Food Bank",
    "address": "401 N Cushing Ave",
    "city": "Kaplan",
    "state": "LA",
    "zip": "70548",
    "phone": "(337) 643-6055",
    "fax": null,
    "email": null,
    "website": "http://www.freefood.org/",
    "hours": "Monday - Friday 8:00am - 4:30pm For low income families and individuals Bring proof of public assistance (food stam\nGo To Details Page For More Information",
    "description": null,
    "requirements": null,
    "scraped_at": "2025-10-31T14:33:08.510450",
    "latitude": 30.0005032,
    "longitude": -92.2846094,
    "geocoded_address": "Cushing Avenue, Kaplan, Vermilion Parish, Louisiana, 70548, United States of America"
  },
  {
    "url": "https://www.foodpantries.org/li/salvation_army_lafayette_70502",
    "name": "Salvation Army Lafayette",
    "address": "212 Sixth Street",
    "city": "Lafayette",
    "state": "LA",
    "zip": "70502",
    "phone": "(337) 235-2407",
    "fax": null,
    "email": null,
    "website": "http://www.freefood.org/",
    "hours": "Monday - Friday9:00am - 4:00pmFor more information, please call. \nCounty or Counties Served: Lafayette",
    "description": null,
    "requirements": null,
    "scraped_at": "2025-10-31T14:33:13.272736",
    "latitude": 30.2262187,
    "longitude": -92.0178202,
    "geocoded_address": "Lafayette, Lafayette Parish, Louisiana, United States of America",
    "note": "Geocoded to city center (exact address not found)"
  },
  {
    "url": "https://www.foodpantries.org/li/tabernacle_of_hope_70509",
    "name": "Tabernacle of Hope",
    "address": "925 West Broussard Rd",
    "city": "Lafayette",
    "state": "LA",
    "zip": "70506",
    "phone": "(337) 993-9798",
    "fax": null,
    "email": null,
    "website": "http://www.freefood.org/",
    "hours": "Monday, Wednesday & Friday \r\n10:00am - 1:30pm \r\n \r\nFor more information, please call.",
    "description": null,
    "requirements": null,
    "scraped_at": "2025-10-31T14:33:23.023022",
    "latitude": 30.1784763,
    "longitude": -92.0999782,
    "geocoded_address": "925, West Broussard Road, Lafayette, Lafayette Parish, Louisiana, 70506, United States of America"
  },
  {
    "url": "https://www.foodpantries.org/li/solomon_house_brown_bag_epiphany_70560",
    "name": "Solomon House Brown Bag Epiphany",
    "address": "520 Center St.",
    "city": "New Iberia",
    "state": "LA",
    "zip": "70560",
    "phone": null,
    "fax": null,
    "email": null,
    "website": "http://www.freefood.org/",
    "hours": "Thursday 9:00am until 12:00pm  For more information, please call.  \nGo To Details Page For More Information",
    "description": null,
    "requirements": null,
    "scraped_at": "2025-10-31T14:33:27.558761",
    "latitude": 30.000021,
    "longitude": -91.8205713,
    "geocoded_address": "520, Center Street, Leesburg, New Iberia, Iberia Parish, Louisiana, 70560, United States of America"
  },
  {
    "url": "https://www.foodpantries.org/li/shephards_food_pantry_70560",
    "name": "Shephard's Food Pantry",
    "address": "527 W Main St.",
    "city": "New Iberia",
    "state": "LA",
    "zip": "70560",
    "phone": null,
    "fax": null,
    "email": null,
    "website": "http://www.freefood.org/",
    "hours": "Thursday 9:00am until 12:00pm  For more information, please call.  \nGo To Details Page For More Information",
    "description": null,
    "requirements": null,
    "scraped_at": "2025-10-31T14:33:31.979118",
    "latitude": 30.0109048,
    "longitude": -91.8231004,
    "geocoded_address": "527, West Main Street, New Iberia, Iberia Parish, Louisiana, 70560, United States of America"
  },
  {
    "url": "https://www.foodpantries.org/li/social_service_center_new_iberia_70560",
    "name": "Disch-De Clouet Social Service Center",
    "address": "432 Bank Avenue",
    "city": "New Iberia",
    "state": "LA",
    "zip": "70560",
    "phone": "(337) 369-6384",
    "fax": "(337) 369-7522",
    "email": null,
    "website": "http://www.freefood.org/",
    "hours": "Thursday 9:00am until 12:00pm  For more information, please call.  \nGo To Details Page For More Information",
    "description": null,
    "requirements": null,
    "scraped_at": "2025-10-31T14:33:37.583999",
    "latitude": 29.9994653,
    "longitude": -91.8172603,
    "geocoded_address": "432, Avenue Bank, Leesburg, New Iberia, Iberia Parish, Louisiana, 70560, United States of America"
  },
  {
    "url": "https://www.foodpantries.org/li/second-harvest-food-bank-of-greater-new-orleans-acadiana",
    "name": "Second Harvest Food Bank Of Greater New Orleans & Acadiana",
    "address": "215 East Pinhook Rd",
    "city": "Lafayette",
    "state": "LA",
    "zip": "70501",
    "phone": "(337) 237-7711",
    "fax": null,
    "email": null,
    "website": "http://no-hunger.org",
    "hours": "Monday, Wednesday & Friday \r\n10:00am - 1:30pm \r\n \r\nFor more information, please call.",
    "description": null,
    "requirements": null,
    "scraped_at": "2025-10-31T14:33:40.840021",
    "latitude": 30.2150636,
    "longitude": -92.0069944,
    "geocoded_address": "215, East Pinhook Road, Lafayette, Lafayette Parish, Louisiana, 70501, United States of America"
  },
  {
    "url": "https://www.foodpantries.org/li/gethsemane_cogic_70501",
    "name": "Gethsemane COGIC",
    "address": "701 E Pinhook Road",
    "city": "Lafayette",
    "state": "LA",
    "zip": "70501",
    "phone": "(337) 233-2478",
    "fax": null,
    "email": null,
    "website": "http://www.freefood.org/",
    "hours": "Monday, Wednesday & Friday \r\n10:00am - 1:30pm \r\n \r\nFor more information, please call.",
    "description": null,
    "requirements": null,
    "scraped_at": "2025-10-31T14:33:50.899181",
    "latitude": 30.2186282,
    "longitude": -92.0034083,
    "geocoded_address": "701, East Pinhook Road, Lafayette, Lafayette Parish, Louisiana, 70501, United States of America"
  },
  {
    "url": "https://www.foodpantries.org/li/food-bank-of-central-louisiana-the",
    "name": "The Food Bank Of Central Louisiana",
    "address": "3223 Baldwin Ave",
    "city": "Alexandria",
    "state": "LA",
    "zip": "71301",
    "phone": "(318) 445-2773",
    "fax": null,
    "email": null,
    "website": "http://www.fbcenla.org",
    "hours": null,
    "description": null,
    "requirements": null,
    "scraped_at": "2025-10-31T14:33:53.394022",
    "latitude": 31.2701824,
    "longitude": -92.4541764,
    "geocoded_address": "3223, Baldwin Avenue, Alexandria, Rapides Parish, Louisiana, 71301, United States of America"
  },
  {
    "url": "https://www.foodpantries.org/li/community_center_of_st_bernard_70032",
    "name": "Community Center of St Bernard",
    "address": "6800 Patricia Street",
    "city": "Arabi",
    "state": "LA",
    "zip": "70032",
    "phone": "(504) 518-5968",
    "fax": null,
    "email": null,
    "website": "http://www.freefood.org/",
    "hours": "Wednesday and Thursday9:00am - 12:00pmFor more information, please call. \nCounty or Counties Served: Saint Bernard",
    "description": null,
    "requirements": null,
    "scraped_at": "2025-10-31T14:33:56.983953",
    "latitude": 29.9667,
    "longitude": -89.999297,
    "geocoded_address": "6800, Patricia Street, Saint Claude Heights, Arabi, Saint Bernard Parish, Louisiana, 70032, United States of America"
  },
  {
    "url": "https://www.foodpantries.org/li/st_paul_ch_of_god_in_christ_70117",
    "name": "Saint Paul Church of God in Christ Food Pantry",
    "address": "1020 Forstall St",
    "city": "New Orleans",
    "state": "LA",
    "zip": "70117",
    "phone": "(504) 945-1077",
    "fax": "(504) 945-0151",
    "email": null,
    "website": "http://www.freefood.org/",
    "hours": "Sunday MorningsFor hours, please call\nCounty or Counties Served: Orleans",
    "description": null,
    "requirements": null,
    "scraped_at": "2025-10-31T14:33:59.304608",
    "latitude": 29.9617598,
    "longitude": -90.0219142,
    "geocoded_address": "1020, Forstall Street, Holy Cross, Lower Ninth Ward, New Orleans, Orleans Parish, Louisiana, 70117, United States of America"
  },
  {
    "url": "https://www.foodpantries.org/li/lift_up_my_name_higher_70117",
    "name": "Lift Up My Name Higher",
    "address": "1423 Pauline St",
    "city": "New Orleans",
    "state": "LA",
    "zip": "70117",
    "phone": null,
    "fax": null,
    "email": null,
    "website": "http://www.freefood.org/",
    "hours": "Sunday Mornings For hours, please call \nGo To Details Page For More Information",
    "description": null,
    "requirements": null,
    "scraped_at": "2025-10-31T14:34:01.743210",
    "latitude": 29.969526,
    "longitude": -90.0359681,
    "geocoded_address": "1423, Pauline Street, Bywater, New Orleans, Orleans Parish, Louisiana, 70117, United States of America"
  },
  {
    "url": "https://www.foodpantries.org/li/united_churches_of_algiers_70114",
    "name": "United Churches of Algiers",
    "address": "1111 Newton Street",
    "city": "New Orleans",
    "state": "LA",
    "zip": "70114",
    "phone": "(504) 361-1661",
    "fax": null,
    "email": null,
    "website": "http://www.freefood.org/",
    "hours": "Monday - Thursday 7:00am - 11:00am For more information, please call.\nCounty or Counties Served: Orleans",
    "description": null,
    "requirements": null,
    "scraped_at": "2025-10-31T14:34:03.983750",
    "latitude": 29.9448877,
    "longitude": -90.0448535,
    "geocoded_address": "1111, Newton Street, Algiers, New Orleans, Orleans Parish, Louisiana, 70114, United States of America"
  },
  {
    "url": "https://www.foodpantries.org/li/algiers-point-free-lil-pantry",
    "name": "Algiers Point Free Lil Pantry",
    "address": "615 Opelousas Ave",
    "city": "New Orleans",
    "state": "LA",
    "zip": "70114",
    "phone": "(855) 392-9338",
    "fax": null,
    "email": null,
    "website": "http://www.freefood.org/",
    "hours": "Monday - Thursday 7:00am - 11:00am  For more information, please call.  \nGo To Details Page For More Information",
    "description": null,
    "requirements": null,
    "scraped_at": "2025-10-31T14:34:08.110494",
    "latitude": 29.9488297,
    "longitude": -90.0496458,
    "geocoded_address": "615, Opelousas Avenue, Algiers Point, Algiers, New Orleans, Orleans Parish, Louisiana, 70114, United States of America"
  },
  {
    "url": "https://www.foodpantries.org/li/franklin_avenue_baptist_church_70117",
    "name": "Franklin Avenue Baptist Church",
    "address": "8282 I-10 Service Road South",
    "city": "New Orleans",
    "state": "LA",
    "zip": "70126",
    "phone": "(504) 488-8488",
    "fax": "(504) 488-8489",
    "email": null,
    "website": "http://www.freefood.org/",
    "hours": "Monday/Tuesday/Thursday/Friday 9:00AM 12:00PM from the 1st 24th of the month",
    "description": null,
    "requirements": null,
    "scraped_at": "2025-10-31T14:34:10.678025",
    "latitude": 29.9559145,
    "longitude": -90.0730259,
    "geocoded_address": "New Orleans, Orleans Parish, Louisiana, United States of America",
    "note": "Geocoded to city center (exact address not found)"
  },
  {
    "url": "https://www.foodpantries.org/li/our-lady-star-of-the-sea",
    "name": "CCANO - Our Lady Star of the Sea Food Pantry",
    "address": "1927 St. Roch Ave",
    "city": "New Orleans",
    "state": "LA",
    "zip": "70117",
    "phone": "(504) 944-0166",
    "fax": null,
    "email": null,
    "website": "http://www.freefood.org/",
    "hours": "Monday/Tuesday/Thursday/Friday 9:00AM  12:00PM from the 1st  24th of the month",
    "description": null,
    "requirements": null,
    "scraped_at": "2025-10-31T14:34:17.311099",
    "latitude": 29.9773029,
    "longitude": -90.0521693,
    "geocoded_address": "1927, St Roch Avenue, Saint Roch, Faubourg Marigny, New Orleans, Orleans Parish, Louisiana, 70117, United States of America"
  },
  {
    "url": "https://www.foodpantries.org/li/morris_brown_a_m_e_church_70116",
    "name": "Morris Brown A M E Church",
    "address": "1813 Urquhart Street",
    "city": "New Orleans",
    "state": "LA",
    "zip": "70116",
    "phone": null,
    "fax": null,
    "email": null,
    "website": "http://www.freefood.org/",
    "hours": "Monday/Tuesday/Thursday/Friday 9:00AM 12:00PM from the 1st 24th of the month",
    "description": null,
    "requirements": null,
    "scraped_at": "2025-10-31T14:34:20.032145",
    "latitude": 29.970456,
    "longitude": -90.0612775,
    "geocoded_address": "1813, Urquhart Street, Trem\u00e9, Faubourg Marigny, New Orleans, Orleans Parish, Louisiana, 70116, United States of America"
  },
  {
    "url": "https://www.foodpantries.org/li/love_in_action_outreach_70126",
    "name": "Love In Action Outreach",
    "address": "4607 Downman Road",
    "city": "New Orleans",
    "state": "LA",
    "zip": "70126",
    "phone": null,
    "fax": null,
    "email": null,
    "website": "http://www.freefood.org/",
    "hours": "Monday/Tuesday/Thursday/Friday 9:00AM 12:00PM from the 1st 24th of the month",
    "description": null,
    "requirements": null,
    "scraped_at": "2025-10-31T14:34:24.452183",
    "latitude": 30.0165568,
    "longitude": -90.0212171,
    "geocoded_address": "4607, Downman Road, Pines Village, New Orleans, Orleans Parish, Louisiana, 70126, United States of America"
  },
  {
    "url": "https://www.foodpantries.org/li/lovetouch_ministries_70053",
    "name": "Lovetouch Ministries Food Pantry",
    "address": "2025 Whitney Avenue",
    "city": "Gretna",
    "state": "LA",
    "zip": "70053",
    "phone": "(504) 405-1223",
    "fax": null,
    "email": null,
    "website": "http://www.freefood.org/",
    "hours": "Monday - Friday10:00am - 2:00pmFor more information, please call.\nCounty or Counties Served: Jefferson",
    "description": null,
    "requirements": null,
    "scraped_at": "2025-10-31T14:34:31.107159",
    "latitude": 29.9181649,
    "longitude": -90.0429529,
    "geocoded_address": "2025, Whitney Avenue, McDonoghville, Gretna, Jefferson Parish, Louisiana, 70053, United States of America"
  },
  {
    "url": "https://www.foodpantries.org/li/la_avondale_avondale-community-center-food-pantry",
    "name": "Avondale Community Center Food Pantry",
    "address": "4008 US Hwy 90",
    "city": "Avondale",
    "state": "LA",
    "zip": "70094",
    "phone": "(504) 349-5414",
    "fax": null,
    "email": null,
    "website": "http://www.freefood.org/",
    "hours": "2nd and 4th Monday of the month 10:00 AM and 3:00 PM\nCounty or Counties Served: Jefferson",
    "description": null,
    "requirements": null,
    "scraped_at": "2025-10-31T14:34:35.179726",
    "latitude": 30.4575523,
    "longitude": -87.2992813,
    "geocoded_address": "Mobile Highway, Avondale, Escambia County, Florida, 32526, United States of America"
  },
  {
    "url": "https://www.foodpantries.org/li/yahweh_word_of_faith_70514",
    "name": "Yahweh Word of Faith",
    "address": "948 Chitamache",
    "city": "Baldwin",
    "state": "LA",
    "zip": "70514",
    "phone": null,
    "fax": null,
    "email": null,
    "website": "http://www.freefood.org/",
    "hours": "Thursday 9:00am until 12:00pm  For more information, please call.  \nGo To Details Page For More Information",
    "description": null,
    "requirements": null,
    "scraped_at": "2025-10-31T14:34:38.830752",
    "latitude": 29.8379836,
    "longitude": -91.5442793,
    "geocoded_address": "Baldwin, St. Mary Parish, Louisiana, 70514, United States of America",
    "note": "Geocoded to city center (exact address not found)"
  },
  {
    "url": "https://www.foodpantries.org/li/communities_united_for_change_development_70544",
    "name": "Communities United for Change Development",
    "address": "1244 Big Four Corners Road",
    "city": "Jeanerette",
    "state": "LA",
    "zip": "70544",
    "phone": null,
    "fax": null,
    "email": null,
    "website": "http://www.freefood.org/",
    "hours": "Thursday 9:00am until 12:00pm  For more information, please call.  \nGo To Details Page For More Information",
    "description": null,
    "requirements": null,
    "scraped_at": "2025-10-31T14:34:42.843186",
    "latitude": 29.9110378,
    "longitude": -91.6634484,
    "geocoded_address": "Jeanerette, Iberia Parish, Louisiana, 70544, United States of America",
    "note": "Geocoded to city center (exact address not found)"
  },
  {
    "url": "https://www.foodpantries.org/li/kingdom_of_god_70544",
    "name": "Kingdom of God",
    "address": "1004 Martin Luther King",
    "city": "Jeanerette",
    "state": "LA",
    "zip": "70544",
    "phone": null,
    "fax": null,
    "email": null,
    "website": "http://www.freefood.org/",
    "hours": "Thursday 9:00am until 12:00pm  For more information, please call.  \nGo To Details Page For More Information",
    "description": null,
    "requirements": null,
    "scraped_at": "2025-10-31T14:34:46.021945",
    "latitude": 29.9088825,
    "longitude": -91.6695436,
    "geocoded_address": "1004, Dr Martin Luther King Drive, Jeanerette, Iberia Parish, Louisiana, 70544, United States of America"
  },
  {
    "url": "https://www.foodpantries.org/li/little_zion_outreach_70538",
    "name": "Little Zion Outreach Food Pantry",
    "address": "7814 Highway 182",
    "city": "Franklin",
    "state": "LA",
    "zip": "70538",
    "phone": "(337) 350-2030",
    "fax": null,
    "email": null,
    "website": "http://www.freefood.org/",
    "hours": "Thursday 9:00am until 12:00pm  For more information, please call.  \nGo To Details Page For More Information",
    "description": null,
    "requirements": null,
    "scraped_at": "2025-10-31T14:34:50.825552",
    "latitude": 29.7962145,
    "longitude": -91.5055523,
    "geocoded_address": "Franklin, St. Mary Parish, Louisiana, United States of America",
    "note": "Geocoded to city center (exact address not found)"
  },
  {
    "url": "https://www.foodpantries.org/li/st_nicholas_social_justice_70560",
    "name": "Food Pantry at Saint Nicholas Social Justice & Community Concern",
    "address": "3317 Patout Road",
    "city": "Jeanerette",
    "state": "LA",
    "zip": "70544",
    "phone": "(337) 551-8000",
    "fax": null,
    "email": null,
    "website": "http://www.freefood.org/",
    "hours": "Thursday 9:00am until 12:00pm  For more information, please call.  \nGo To Details Page For More Information",
    "description": null,
    "requirements": null,
    "scraped_at": "2025-10-31T14:35:02.583231",
    "latitude": 29.9110378,
    "longitude": -91.6634484,
    "geocoded_address": "Jeanerette, Iberia Parish, Louisiana, 70544, United States of America",
    "note": "Geocoded to city center (exact address not found)"
  },
  {
    "url": "https://www.foodpantries.org/li/loreauville_baptist_church_70552",
    "name": "Loreauville Baptist Church",
    "address": "1886 Loreauville Rd",
    "city": "Loreauville",
    "state": "LA",
    "zip": "70552",
    "phone": null,
    "fax": null,
    "email": null,
    "website": "http://www.freefood.org/",
    "hours": "Thursday 9:00am until 12:00pm  For more information, please call.  \nGo To Details Page For More Information",
    "description": null,
    "requirements": null,
    "scraped_at": "2025-10-31T14:35:06.058906",
    "latitude": 30.0565906,
    "longitude": -91.7370595,
    "geocoded_address": "Loreauville, Iberia Parish, Louisiana, United States of America",
    "note": "Geocoded to city center (exact address not found)"
  },
  {
    "url": "https://www.foodpantries.org/li/first_presbyterian_food_pantry_70563",
    "name": "First Presbyterian Food Pantry",
    "address": "204 North Lewis Street",
    "city": "New Iberia",
    "state": "LA",
    "zip": "70563",
    "phone": null,
    "fax": null,
    "email": null,
    "website": "http://www.freefood.org/",
    "hours": "Thursday 9:00am until 12:00pm  For more information, please call.  \nGo To Details Page For More Information",
    "description": null,
    "requirements": null,
    "scraped_at": "2025-10-31T14:35:10.833538",
    "latitude": 30.001999,
    "longitude": -91.799421,
    "geocoded_address": "204, North Lewis Street, New Iberia, Iberia Parish, Louisiana, 70563, United States of America"
  },
  {
    "url": "https://www.foodpantries.org/li/greater_golden_light_baptist_70515",
    "name": "Greater Golden Light Baptist",
    "address": "2403 Highway 190",
    "city": "Basile",
    "state": "LA",
    "zip": "70515",
    "phone": null,
    "fax": null,
    "email": null,
    "website": "http://www.freefood.org/",
    "hours": "Monday, Wednesday and Friday \r\n9:00am - 12:00pm \r\nFor more information, please call.",
    "description": null,
    "requirements": null,
    "scraped_at": "2025-10-31T14:35:16.825699",
    "latitude": 30.4809415,
    "longitude": -92.6034222,
    "geocoded_address": "2403, Basile Eunice Highway, Basile, Evangeline Parish, Louisiana, 70515, United States of America"
  },
  {
    "url": "https://www.foodpantries.org/li/eunice_food_bank_70535",
    "name": "Eunice Food Bank",
    "address": "501 Samuel Drive",
    "city": "Eunice",
    "state": "LA",
    "zip": "70535",
    "phone": null,
    "fax": null,
    "email": null,
    "website": "http://www.freefood.org/",
    "hours": "Monday, Wednesday and Friday \r\n9:00am - 12:00pm \r\nFor more information, please call.",
    "description": null,
    "requirements": null,
    "scraped_at": "2025-10-31T14:35:21.402341",
    "latitude": 30.500908,
    "longitude": -92.43512,
    "geocoded_address": "501, Samuel Drive, Eunice, St. Landry Parish, Louisiana, 70535, United States of America"
  },
  {
    "url": "https://www.foodpantries.org/li/eunice-food-bank",
    "name": "Eunice Food Bank",
    "address": "251 W Park Ave.",
    "city": "Eunice",
    "state": "LA",
    "zip": "70535",
    "phone": "(337) 457-7541",
    "fax": null,
    "email": null,
    "website": "http://www.freefood.org/",
    "hours": "Monday, Wednesday and Friday\r\n9:00am - 12:00pm\r\nFor more information, please call.",
    "description": null,
    "requirements": null,
    "scraped_at": "2025-10-31T14:35:24.487252",
    "latitude": 30.4930803,
    "longitude": -92.42269,
    "geocoded_address": "Park Avenue, Eunice, St. Landry Parish, Louisiana, 70535, United States of America"
  },
  {
    "url": "https://www.foodpantries.org/li/christian_service_center_of_iota_70543",
    "name": "Christian Service Center of Iota",
    "address": "422 Kennedy Drive",
    "city": "Iota",
    "state": "LA",
    "zip": "70543",
    "phone": "(337) 779-3057",
    "fax": null,
    "email": null,
    "website": "http://www.freefood.org/",
    "hours": "Wednesday, Thursday8:00 am - 12:00 pmFor more information, please call. \nCounty or Counties Served: Acadia",
    "description": null,
    "requirements": null,
    "scraped_at": "2025-10-31T14:35:31.395784",
    "latitude": 30.3313265,
    "longitude": -92.4955777,
    "geocoded_address": "Iota, Acadia Parish, Louisiana, United States of America",
    "note": "Geocoded to city center (exact address not found)"
  },
  {
    "url": "https://www.foodpantries.org/li/new_life_assembly_of_god_70586",
    "name": "New Life Assembly of God",
    "address": "2394 East Main St",
    "city": "Ville Platte",
    "state": "LA",
    "zip": "70586",
    "phone": "(337) 363-0464",
    "fax": null,
    "email": null,
    "website": "http://www.freefood.org/",
    "hours": "Monday, Wednesday and Friday \r\n9:00am - 12:00pm \r\nFor more information, please call.",
    "description": null,
    "requirements": null,
    "scraped_at": "2025-10-31T14:35:35.252790",
    "latitude": 30.6861781,
    "longitude": -92.2689123,
    "geocoded_address": "East Main Street, Ville Platte, Evangeline Parish, Louisiana, 70586, United States of America"
  },
  {
    "url": "https://www.foodpantries.org/li/community_investors_70525",
    "name": "Community Investors",
    "address": "137 North Main Street",
    "city": "Church Point",
    "state": "LA",
    "zip": "70525",
    "phone": "(337) 580-4386",
    "fax": null,
    "email": null,
    "website": "http://www.freefood.org/",
    "hours": "Monday - Sunday9:00am - 8:00pmDonations:Please call the office and we will be happy to assist you.For more information, please call. \nCounty or Counties Served: Acadia",
    "description": null,
    "requirements": null,
    "scraped_at": "2025-10-31T14:35:40.095646",
    "latitude": 30.4071309,
    "longitude": -92.2185528,
    "geocoded_address": "137, North Main Street, Church Point, Acadia Parish, Louisiana, 70525, United States of America"
  },
  {
    "url": "https://www.foodpantries.org/li/jefferson_davis_council_on_aging_70546",
    "name": "Jefferson Davis Council on Aging",
    "address": "210 South State Street",
    "city": "Jennings",
    "state": "LA",
    "zip": "70546",
    "phone": "(337) 824-5504",
    "fax": null,
    "email": null,
    "website": "http://www.freefood.org/",
    "hours": "Wednesday, Thursday 8:00 am - 12:00 pm  For more information, please call.  \nGo To Details Page For More Information",
    "description": null,
    "requirements": null,
    "scraped_at": "2025-10-31T14:35:44.610523",
    "latitude": 30.2203094,
    "longitude": -92.6569022,
    "geocoded_address": "210, South State Street, Jennings, Jefferson Davis Parish, Louisiana, 70546, United States of America"
  },
  {
    "url": "https://www.foodpantries.org/li/crowley_christian_care_center_70527",
    "name": "Crowley Christian Care Center",
    "address": "726 W. Seventh Street",
    "city": "Crowley",
    "state": "LA",
    "zip": "70527",
    "phone": "(337) 783-5811",
    "fax": null,
    "email": null,
    "website": "http://www.freefood.org/",
    "hours": "Saturday from 8:00am to 9:30am",
    "description": null,
    "requirements": null,
    "scraped_at": "2025-10-31T14:35:47.822626",
    "latitude": 30.2140928,
    "longitude": -92.3745761,
    "geocoded_address": "Crowley, Acadia Parish, Louisiana, United States of America",
    "note": "Geocoded to city center (exact address not found)"
  },
  {
    "url": "https://www.foodpantries.org/li/new_beginnings_primitive_baptist_church_70562",
    "name": "New Beginnings Primitive Baptist Church",
    "address": "411 South Eastern Ave",
    "city": "Crowley",
    "state": "LA",
    "zip": "70562",
    "phone": null,
    "fax": null,
    "email": null,
    "website": "http://www.freefood.org/",
    "hours": "Saturday from 8:00am to 9:30am",
    "description": null,
    "requirements": null,
    "scraped_at": "2025-10-31T14:35:51.706707",
    "latitude": 30.2083171,
    "longitude": -92.3629749,
    "geocoded_address": "411, South Eastern Avenue, Crowley, Acadia Parish, Louisiana, 70526, United States of America"
  },
  {
    "url": "https://www.foodpantries.org/li/la_rayne_abundant-life-just-cares-food-pantry",
    "name": "Abundant Life Just Cares Food Pantry",
    "address": "400 Gossen Memorial Drive",
    "city": "Rayne",
    "state": "LA",
    "zip": "70578",
    "phone": "(337) 334-2781",
    "fax": null,
    "email": null,
    "website": "http://www.freefood.org/",
    "hours": "Saturday from 8:00am to 9:30am",
    "description": null,
    "requirements": null,
    "scraped_at": "2025-10-31T14:35:55.004789",
    "latitude": 30.250972,
    "longitude": -92.276149,
    "geocoded_address": "400, Gossen Memorial Drive, Rayne, Acadia Parish, Louisiana, 70578, United States of America"
  },
  {
    "url": "https://www.foodpantries.org/li/greater-baton-rouge-food-bank-warehouse",
    "name": "Greater Baton Rouge Food Bank",
    "address": "10600 South Choctaw Dr",
    "city": "Baton Rouge",
    "state": "LA",
    "zip": "70815",
    "phone": "(225) 359-9940",
    "fax": "(225) 355-1445",
    "email": null,
    "website": "http://www.freefood.org/",
    "hours": "Monday, Wednesday and Friday* Sign in is 8am to 10:30am Friday Is for senior citizen and the handicapped only.  Pantry can only service residents of the 70805 zip code.  Requirements: Photo ID and proof of residence and income are r\nGo To Details Page For More Information",
    "description": null,
    "requirements": "Photo ID and proof of residence and income are r\nGo To Details Page For More Information",
    "scraped_at": "2025-10-31T14:36:00.839475",
    "latitude": 30.472112,
    "longitude": -91.066493,
    "geocoded_address": "10600, South Choctaw Drive, Red Oak, Sharp, Baton Rouge, East Baton Rouge Parish, Louisiana, 70815, United States of America"
  },
  {
    "url": "https://www.foodpantries.org/li/food-for-family",
    "name": "Food For Family",
    "address": "1325 Airline Hwy",
    "city": "Baton Rouge",
    "state": "LA",
    "zip": "70805",
    "phone": "(225) 355-2081",
    "fax": null,
    "email": null,
    "website": "http://www.freefood.org/",
    "hours": "Wednesday\r\n8:00am - 5:00pm\r\nThursday\r\n8:00am - 5:00pm\n\r\nFor more information, please call.",
    "description": null,
    "requirements": "Photo ID and proof of residence and income are r\nGo To Details Page For More Information",
    "scraped_at": "2025-10-31T14:36:04.817137",
    "latitude": 30.5084376,
    "longitude": -91.179101,
    "geocoded_address": "Valero, 1325, Airline Highway, Park Manor, Baton Rouge, East Baton Rouge Parish, Louisiana, 70805, United States of America"
  },
  {
    "url": "https://www.foodpantries.org/li/streams-of-life",
    "name": "Streams of Life",
    "address": "8852 Greenwell Springs Rd",
    "city": "Baton Rouge",
    "state": "LA",
    "zip": "70814",
    "phone": "(225) 771-8830",
    "fax": null,
    "email": null,
    "website": "http://www.freefood.org/",
    "hours": "Monday - Thursday 8:00am - 4:30pm Friday 7:30am - 4:00 Saturday 8:00am - 12:00pm  For more information, please call.  \nGo To Details Page For More Information",
    "description": null,
    "requirements": "Photo ID and proof of residence and income are r\nGo To Details Page For More Information",
    "scraped_at": "2025-10-31T14:36:11.178431",
    "latitude": 30.4830092,
    "longitude": -91.0925798,
    "geocoded_address": "8852, Greenwell Springs Road, Oakcrest, Baton Rouge, East Baton Rouge Parish, Louisiana, 70814, United States of America"
  },
  {
    "url": "https://www.foodpantries.org/li/greater-baton-rouge-food-bank",
    "name": "Greater Baton Rouge Food Bank",
    "address": "10600 S Choctaw Drive",
    "city": "Baton Rouge",
    "state": "LA",
    "zip": "70815",
    "phone": "(225) 359-9940",
    "fax": null,
    "email": null,
    "website": "http://www.freefood.org/",
    "hours": "Monday - Thursday8:00am - 4:30pmFriday7:30am - 4:00Saturday8:00am - 12:00pmFor more information, please call. \nVolunteering Information:https://volunteer.brfoodbank.org \nCounty or Counties Served: East Baton Rouge",
    "description": null,
    "requirements": "Photo ID and proof of residence and income are r\nGo To Details Page For More Information",
    "scraped_at": "2025-10-31T14:36:13.776866",
    "latitude": 30.472112,
    "longitude": -91.066493,
    "geocoded_address": "10600, South Choctaw Drive, Red Oak, Sharp, Baton Rouge, East Baton Rouge Parish, Louisiana, 70815, United States of America"
  },
  {
    "url": "https://www.foodpantries.org/li/united-methodist-hope-ministries",
    "name": "HOPE Ministries",
    "address": "4643 Winbourne Ave.",
    "city": "Baton Rouge",
    "state": "LA",
    "zip": "70805",
    "phone": "(225) 355-0702",
    "fax": null,
    "email": null,
    "website": "http://www.freefood.org/",
    "hours": "Monday, Wednesday and  Friday*Sign in is 8am to 10:30amFridayIs for senior citizen and the handicapped only. Pantry can only service residents of the 70805 zip code. Requirements:Photo ID  and proof of residence and income are required, as well as names and birthdays for  all members of household. There is a maximum of one visit per calendar  month. For additional information, contact Cristy Davidson.\nCounty or Counties Served: East Baton Rouge",
    "description": null,
    "requirements": "Photo ID  and proof of residence and income are required, as well as names and birthdays for  all members of household. There is a maximum of one visit per calendar  month. For additional information, contact Cristy Davidson.\nCounty or Counties Served: East Baton Rouge",
    "scraped_at": "2025-10-31T14:36:18.517902",
    "latitude": 30.4788586,
    "longitude": -91.1432817,
    "geocoded_address": "4643, Winbourne Avenue, New Dayton, Pioneer Park, Victoria Garden, Baton Rouge, East Baton Rouge Parish, Louisiana, 70805, United States of America"
  },
  {
    "url": "https://www.foodpantries.org/li/la_70810_the-shepherds-market",
    "name": "The Shepherds Market Food Pantry",
    "address": "230 Renee Drive",
    "city": "Baton Rouge",
    "state": "LA",
    "zip": "70810",
    "phone": "(225) 337-1306",
    "fax": null,
    "email": null,
    "website": "http://www.freefood.org/",
    "hours": "Mondays 3:30pm - 5:00pmTuesdays and Thursdays 8:00am -10:00am.Notes:The food pantry is open between the hours posted above or until they reach their maximum of 52 households.They may fill up before closing timeThey continue to stay open to serve the 52 clients but can't take any new households after closing timeFirst-time clients will need a picture I.D. and proof of current address.",
    "description": null,
    "requirements": "Photo ID and proof of residence and income are r\nGo To Details Page For More Information",
    "scraped_at": "2025-10-31T14:36:20.670754",
    "latitude": 30.3664813,
    "longitude": -91.117264,
    "geocoded_address": "Renee Drive, Baton Rouge, East Baton Rouge Parish, Louisiana, 70810, United States of America"
  },
  {
    "url": "https://www.foodpantries.org/li/pilgrim_rest_comm_development_agency_70037",
    "name": "Pilgrim Rest Comm Development Agency",
    "address": "8430 Highway 23 Suite 400 B",
    "city": "Belle Chase",
    "state": "LA",
    "zip": "70037",
    "phone": null,
    "fax": null,
    "email": null,
    "website": "http://www.freefood.org/",
    "hours": "Monday/Tuesday/Thursday/Friday 9:00 AM 2:00 PM, and Wednesday 12:00 PM 5:00PM. Senior citizens receive a food box each month. \nGo To Details Page For More Information",
    "description": null,
    "requirements": null,
    "scraped_at": "2025-10-31T14:36:26.245146",
    "latitude": 32.5530199,
    "longitude": -92.6374376,
    "geocoded_address": "Belle Chase, Ruston, Lincoln Parish, Louisiana, 71270, United States of America",
    "note": "Geocoded to city center (exact address not found)"
  },
  {
    "url": "https://www.foodpantries.org/li/plaquemines_parish_comm_action_agency_70037",
    "name": "Plaquemines Parish Comm Action Agency",
    "address": "479 F Edward Hebert Dr",
    "city": "Belle Chase",
    "state": "LA",
    "zip": "70037",
    "phone": null,
    "fax": null,
    "email": null,
    "website": "http://www.freefood.org/",
    "hours": "Monday/Tuesday/Thursday/Friday 9:00 AM 2:00 PM, and Wednesday 12:00 PM 5:00PM. Senior citizens receive a food box each month. \nGo To Details Page For More Information",
    "description": null,
    "requirements": null,
    "scraped_at": "2025-10-31T14:36:35.037956",
    "latitude": 32.5530199,
    "longitude": -92.6374376,
    "geocoded_address": "Belle Chase, Ruston, Lincoln Parish, Louisiana, 71270, United States of America",
    "note": "Geocoded to city center (exact address not found)"
  },
  {
    "url": "https://www.foodpantries.org/li/benton-united-methodist-church-the-table-food-ministries",
    "name": "Benton United Methodist Church - The Table Food Ministries",
    "address": "4615 Palmetto Road",
    "city": "Benton",
    "state": "LA",
    "zip": "71006",
    "phone": "(318) 965-2273",
    "fax": "(318) 935-8516",
    "email": null,
    "website": "http://www.freefood.org/",
    "hours": "Tuesday, Wednesday and Thursday 8:30 am to 4:00 pmMonthly food is available by appointment.Requirements:Emergency Food - no requirementsMonthly Food USDA - I D, proof of income (SNAP, SSI, social security, and more) and proof of residency in Benton, LASenior Box CFSP- ID, proof of income (SNAP, SSI, social security, and more) and proof of residency in Benton, LAOnline application:\u00a0 https://form.jotform.com/223413858312049For more information, please call. \nCounty or Counties Served: Bossier",
    "description": null,
    "requirements": "Emergency Food - no requirementsMonthly Food USDA - I D, proof of income (SNAP, SSI, social security, and more) and proof of residency in Benton, LASenior Box CFSP- ID, proof of income (SNAP, SSI, social security, and more) and proof of residency in Benton, LAOnline application:\u00a0 https://form.jotform.com/223413858312049For more information, please call. \nCounty or Counties Served: Bossier",
    "scraped_at": "2025-10-31T14:36:41.188748",
    "latitude": 32.6527159,
    "longitude": -93.713941,
    "geocoded_address": "4615, Palmetto Road, Benton, Bossier Parish, Louisiana, 71006, United States of America"
  },
  {
    "url": "https://www.foodpantries.org/li/airline-drive-food-pantry",
    "name": "Airline Drive Church of Christ - Food Pantry",
    "address": "2125 Airline Drive",
    "city": "Bossier City",
    "state": "LA",
    "zip": "71111",
    "phone": "(318) 746-2645",
    "fax": null,
    "email": null,
    "website": "http://www.adcoc.org",
    "hours": "Monday - Thursday 10:00am - 2:00pm  Requirements:  Must have ID.  Service Area:  71101, 71104, and 71105  Additional Information:  Provide cat and/or dog food For more information, please call.  \nGo To Details Page For More Information",
    "description": null,
    "requirements": "Must have ID.  Service Area:  71101, 71104, and 71105  Additional Information:  Provide cat and/or dog food For more information, please call.  \nGo To Details Page For More Information",
    "scraped_at": "2025-10-31T14:36:43.825756",
    "latitude": 32.5370853,
    "longitude": -93.7085621,
    "geocoded_address": "Airline Drive Church of Christ, 2125, Airline Drive, Southern Terrace, Bossier City, Bossier Parish, Louisiana, 71111, United States of America"
  },
  {
    "url": "https://www.foodpantries.org/li/christian-services",
    "name": "Christian Services Program",
    "address": "2346 Levy Street",
    "city": "Shreveport",
    "state": "LA",
    "zip": "71103",
    "phone": "(318) 221-4857",
    "fax": "(318) 221-2355",
    "email": null,
    "website": "http://www.freefood.org/",
    "hours": null,
    "description": null,
    "requirements": "Must provide proof of address.  For more information, please call.  \nGo To Details Page For More Information",
    "scraped_at": "2025-10-31T14:36:46.444200",
    "latitude": 32.4893276,
    "longitude": -93.7634869,
    "geocoded_address": "2346, Levy Street, Werner Park, Shreveport, Caddo Parish, Louisiana, 71103, United States of America"
  },
  {
    "url": "https://www.foodpantries.org/li/la_71101_midway-food-pantry-shreveport",
    "name": "Midway Food Pantry Shreveport",
    "address": "1535 Myrtle Street",
    "city": "Shreveport",
    "state": "LA",
    "zip": "71101",
    "phone": "(318) 221-3237",
    "fax": null,
    "email": null,
    "website": "http://www.freefood.org/",
    "hours": "3rd Saturday of the month8:00am - 11:00amRequirements:Must provide proof of address. For more information, please call. \nCounty or Counties Served: Caddo",
    "description": null,
    "requirements": "Must provide proof of address. For more information, please call. \nCounty or Counties Served: Caddo",
    "scraped_at": "2025-10-31T14:36:48.947354",
    "latitude": 32.5077257,
    "longitude": -93.7623128,
    "geocoded_address": "Midway Baptist Church, 1535, Myrtle Street, Shreveport, Caddo Parish, Louisiana, 71101, United States of America"
  },
  {
    "url": "https://www.foodpantries.org/li/la_ 71101_noel-neighborhood-ministries-food-pantry",
    "name": null,
    "address": null,
    "city": null,
    "state": null,
    "zip": null,
    "phone": null,
    "fax": null,
    "email": null,
    "website": null,
    "hours": null,
    "description": null,
    "requirements": null,
    "scraped_at": "2025-10-31T14:36:51.850500"
  },
  {
    "url": "https://www.foodpantries.org/li/la_71103_st-matthew-a-m-e-church-food-pantry",
    "name": "St. Matthew A.M.E. Church Food Pantry",
    "address": "1610 Murphy Street",
    "city": "Shreveport",
    "state": "LA",
    "zip": "71103",
    "phone": "(318) 631-8345",
    "fax": null,
    "email": null,
    "website": "http://www.freefood.org/",
    "hours": "3rd Saturday of the month 8:00am - 11:00am  Requirements: Must provide proof of address.  For more information, please call.  \nGo To Details Page For More Information",
    "description": null,
    "requirements": "Must provide proof of address.  For more information, please call.  \nGo To Details Page For More Information",
    "scraped_at": "2025-10-31T14:36:52.547205",
    "latitude": 32.5000874,
    "longitude": -93.7634237,
    "geocoded_address": "1610, Murphy Street, Shreveport, Caddo Parish, Louisiana, 71103, United States of America"
  },
  {
    "url": "https://www.foodpantries.org/li/la_71104_junior-league-of-shreveport-bossier-red-apron-pantry",
    "name": "Junior League of Shreveport-Bossier - Red Apron Pantry",
    "address": "2601 Line Avenue",
    "city": "Shreveport",
    "state": "LA",
    "zip": "71104",
    "phone": "(318) 221-6144",
    "fax": null,
    "email": null,
    "website": "http://www.freefood.org/",
    "hours": "Monday - Thursday 10:00am - 2:00pm  Requirements:  Must have ID.  Service Area:  71101, 71104, and 71105  Additional Information:  Provide cat and/or dog food For more information, please call.  \nGo To Details Page For More Information",
    "description": null,
    "requirements": "Must have ID.  Service Area:  71101, 71104, and 71105  Additional Information:  Provide cat and/or dog food For more information, please call.  \nGo To Details Page For More Information",
    "scraped_at": "2025-10-31T14:36:54.948820",
    "latitude": 32.486422,
    "longitude": -93.745953,
    "geocoded_address": "2601, Line Avenue, Shreveport, Caddo Parish, Louisiana, 71104, United States of America"
  },
  {
    "url": "https://www.foodpantries.org/li/food-bank-shreveport",
    "name": "Food Bank of Northwest Louisiana",
    "address": "2307 Texas Ave",
    "city": "Shreveport",
    "state": "LA",
    "zip": "71103",
    "phone": "(318) 675-2400",
    "fax": "(318) 675-2440",
    "email": null,
    "website": "http://www.freefood.org/",
    "hours": null,
    "description": null,
    "requirements": "Must provide proof of address.  For more information, please call.  \nGo To Details Page For More Information",
    "scraped_at": "2025-10-31T14:36:57.558505",
    "latitude": 32.4892306,
    "longitude": -93.7668216,
    "geocoded_address": "2307, Texas Avenue, Werner Park, Shreveport, Caddo Parish, Louisiana, 71103, United States of America"
  },
  {
    "url": "https://www.foodpantries.org/li/linwood-food-bank",
    "name": "Linwood Food Bank",
    "address": "1622 Midway Ave",
    "city": "Shreveport",
    "state": "LA",
    "zip": "71108",
    "phone": "(318) 631-4467",
    "fax": null,
    "email": null,
    "website": "http://www.freefood.org/",
    "hours": "Tuesdays and Thursdays 9:30am to 11:00am .Documents to bring:State or federally issued photo ID and proof of residence, such as a recent utility bill.\nCounty or Counties Served: Caddo",
    "description": null,
    "requirements": "Must have ID.  Service Area:  71101, 71104, and 71105  Additional Information:  Provide cat and/or dog food For more information, please call.  \nGo To Details Page For More Information",
    "scraped_at": "2025-10-31T14:37:00.055083",
    "latitude": 32.5135356,
    "longitude": -93.7477839,
    "geocoded_address": "Shreveport, Caddo Parish, Louisiana, United States of America",
    "note": "Geocoded to city center (exact address not found)"
  },
  {
    "url": "https://www.foodpantries.org/li/la_minden_joe-leblanc-food-pantry",
    "name": "Joe LeBlanc Food Pantry",
    "address": "814 Constable Street",
    "city": "Minden",
    "state": "LA",
    "zip": "71055",
    "phone": "(318) 299-6375",
    "fax": null,
    "email": null,
    "website": "http://www.freefood.org/",
    "hours": "Tuesday to Friday 9:30 am to 2:30 pm3rd Saturday of the month 9:00 am to 11:00 amService Area:Minden and surrounding communities in Webster Parish.\nVolunteering Information:Volunteers are needed throughout the month to pack bags, help with mail outs, deliver to our home bound clients and help with distribution.",
    "description": null,
    "requirements": null,
    "scraped_at": "2025-10-31T14:37:08.617911",
    "latitude": 32.625963,
    "longitude": -93.2942349,
    "geocoded_address": "814, Constable Street, Minden, Webster Parish, Louisiana, 71055, United States of America"
  },
  {
    "url": "https://www.foodpantries.org/li/greater_bogaulsa_full_gospel_70427",
    "name": "Greater Bogaulsa Full Gospel",
    "address": "226 Memphis Street",
    "city": "Bogalusa",
    "state": "LA",
    "zip": "70427",
    "phone": null,
    "fax": null,
    "email": null,
    "website": "http://www.freefood.org/",
    "hours": "Monday, Tuesday, and Thursday 9:00am - 12:00pm  Requirements:     Verification of residency is required. Submit an actual street address; P.O. boxes will not be considered. Adhere to USDA Income Guidelines. Furnish the complete details for all permanent household residents: F\nGo To Details Page For More Information",
    "description": null,
    "requirements": "Verification of residency is required. Submit an actual street address; P.O. boxes will not be considered. Adhere to USDA Income Guidelines. Furnish the complete details for all permanent household residents: F\nGo To Details Page For More Information",
    "scraped_at": "2025-10-31T14:37:15.739833",
    "latitude": 30.7868845,
    "longitude": -89.860481,
    "geocoded_address": "226, Memphis Street, Bogalusa, Washington Parish, Louisiana, 70427, United States of America"
  },
  {
    "url": "https://www.foodpantries.org/li/angie_baptist_church_70467",
    "name": "Angie Baptist Church",
    "address": "26284 Military Rd",
    "city": "Vernado",
    "state": "LA",
    "zip": "70467",
    "phone": null,
    "fax": null,
    "email": null,
    "website": "http://www.freefood.org/",
    "hours": "Tuesday and Thursday 9:00am - 1:00pm Sign-up on Tuesday at 9:00am - 12:30pm. Volunteers and donations are always welcome.\u00a0 Food items that are always in need are dried beans, ravioli, mac-n-cheese, green beans, chili, grits, and tuna. For more inform",
    "description": null,
    "requirements": null,
    "scraped_at": "2025-10-31T14:37:17.861034",
    "latitude": 30.842938,
    "longitude": -90.1464689,
    "geocoded_address": "Vernado, Franklinton, Washington Parish, Louisiana, 70438, United States of America",
    "note": "Geocoded to city center (exact address not found)"
  },
  {
    "url": "https://www.foodpantries.org/li/immanuel_better_living_church_70438",
    "name": "Immanuel Better Living Church",
    "address": "46105 Highway 10",
    "city": "Franklinton",
    "state": "LA",
    "zip": "70438",
    "phone": null,
    "fax": null,
    "email": null,
    "website": "http://www.freefood.org/",
    "hours": "Monday, Tuesday, and Thursday 9:00am - 12:00pm  Requirements:     Verification of residency is required. Submit an actual street address; P.O. boxes will not be considered. Adhere to USDA Income Guidelines. Furnish the complete details for all permanent household residents: F\nGo To Details Page For More Information",
    "description": null,
    "requirements": "Verification of residency is required. Submit an actual street address; P.O. boxes will not be considered. Adhere to USDA Income Guidelines. Furnish the complete details for all permanent household residents: F\nGo To Details Page For More Information",
    "scraped_at": "2025-10-31T14:37:26.530069",
    "latitude": 30.8471283,
    "longitude": -90.153141,
    "geocoded_address": "Franklinton, Washington Parish, Louisiana, United States of America",
    "note": "Geocoded to city center (exact address not found)"
  },
  {
    "url": "https://www.foodpantries.org/li/washington_parish_food_bank_70438",
    "name": "Washington Parish Food Bank",
    "address": "2208 Main St.",
    "city": "Franklinton",
    "state": "LA",
    "zip": "70438",
    "phone": "(985) 322-2017",
    "fax": null,
    "email": null,
    "website": "http://www.freefood.org/",
    "hours": "Monday, Tuesday, and Thursday 9:00am - 12:00pm  Requirements:     Verification of residency is required. Submit an actual street address; P.O. boxes will not be considered. Adhere to USDA Income Guidelines. Furnish the complete details for all permanent household residents: F\nGo To Details Page For More Information",
    "description": null,
    "requirements": "Verification of residency is required. Submit an actual street address; P.O. boxes will not be considered. Adhere to USDA Income Guidelines. Furnish the complete details for all permanent household residents: F\nGo To Details Page For More Information",
    "scraped_at": "2025-10-31T14:37:36.164888",
    "latitude": 30.8386632,
    "longitude": -90.152984,
    "geocoded_address": "Main Street, Franklinton, Washington Parish, Louisiana, 70438, United States of America"
  },
  {
    "url": "https://www.foodpantries.org/li/outreach_full_gospel_baptist_church_",
    "name": "Outreach Full Gospel Baptist Church",
    "address": "304 13th Avenue\r\n            Franklinton, LA - \r\n            Phone: 985-839-5294\n\nInstagram URL\n\n\n\nUser Questions and Answers\r\n     Help our users find out more about Outreach Full Gospel Baptist Church.\nAnswer a question below ONLY IF you know the answer to help people who want more information on Outreach Full Gospel Baptist Church.\n\n\n\n\nHow do I volunteer?\n\n\n\nAnswer\n\n\n\n\n\n\n\n\nDo you know if I can get food delivered to me?\n\n\n\nAnswer\n\n\n\n\n\n\n\n\nDo I need to make an appointment?\n\n\n\nAnswer\n\n\n\n\n\n\n\n\nHow do I make a donation?\n\n\n\nAnswer\n\n\n\n\n\n\n\n\nCan I do my community service hours at this location?\n\n\n\nAnswer\n\n\n\n\n\n\n\n\nWhat type of documentation do I need to apply for food?\n\n\n\nAnswer\n\n\n\n\n\n\n\nBe The First To Make A Review\n\n\nYour opinion matters. Leave A Review Or Edit This Listing for Outreach Full Gospel Baptist Church.\nDo not request help here. Contact the Pantry directly.\n\n\n\n\n\n\n\n\n\n Name (required) \n\n\n\n eMail (will not be published) (required) \n\n\n\n Comment (required)\n\n\n\n\n\n\nSubmit\n\n\n\n\n\n\nPantry Details, hours, photos, information: Outreach Full Gospel Baptist Church\nProvides a food pantry. \r\n                                    \r\n                                                                        \n* Important: Please call the food pantries to confirm that the hours have not changed. We do our best to provide full information and details, but food pantries often change their hours without notifying us. We do not want you to waste your time visiting a pantry that is not open.\n\nDonations And Volunteers\r\n            Please contact us directly by phone to donate and/or volunteer.\r\n            \nNeed More Information\r\n            We always need more information on our pantries. If you know of any details, volunteer information, website, hours or more description information about\r\n            Outreach Full Gospel Baptist Church please add a comment below with information. We will then display this for all visitors on this page.\r\n            \n\n\n\n\n\n\n\n\n\nNearby Area Listings \n\nWashington Parish Food Bank\n\n\n\n\n\n\nView Website and Full Address",
    "city": "Franklinton",
    "state": "LA",
    "zip": "70438",
    "phone": null,
    "fax": null,
    "email": null,
    "website": "http://www.freefood.org/",
    "hours": "Monday, Tuesday, and Thursday 9:00am - 12:00pm  Requirements:     Verification of residency is required. Submit an actual street address; P.O. boxes will not be considered. Adhere to USDA Income Guidelines. Furnish the complete details for all permanent household residents: F\nGo To Details Page For More Information",
    "description": null,
    "requirements": "Verification of residency is required. Submit an actual street address; P.O. boxes will not be considered. Adhere to USDA Income Guidelines. Furnish the complete details for all permanent household residents: F\nGo To Details Page For More Information",
    "scraped_at": "2025-10-31T14:37:40.669987",
    "latitude": 30.8471283,
    "longitude": -90.153141,
    "geocoded_address": "Franklinton, Washington Parish, Louisiana, United States of America",
    "note": "Geocoded to city center (exact address not found)"
  },
  {
    "url": "https://www.foodpantries.org/li/brothers-keeper-ministries",
    "name": "Brothers' Keeper Ministries",
    "address": "208 N Main St",
    "city": "Poplarville",
    "state": "MS",
    "zip": "39470",
    "phone": "(601) 795-3173",
    "fax": "(601) 795-3190",
    "email": null,
    "website": "http://www.freefood.org/",
    "hours": "Fridays 12:00 pm to 2:00pm  Notes:  No special requirements needed to receive Food Distribution. No ID required or proof of income. Only requirements: Name of household. Family size, number of kids & number of seniors.  No other information is needed   \nGo To Details Page For More Information",
    "description": null,
    "requirements": "Name of household. Family size, number of kids & number of seniors.  No other information is needed   \nGo To Details Page For More Information",
    "scraped_at": "2025-10-31T14:37:44.592287",
    "latitude": 30.8451705,
    "longitude": -89.535578,
    "geocoded_address": "208, North Main Street, Poplarville, Pearl River County, Mississippi, 39470, United States of America"
  },
  {
    "url": "https://www.foodpantries.org/li/la_covington_northshore-food-bank",
    "name": "Northshore Food Bank",
    "address": "125 W 30th Avenue",
    "city": "Covington",
    "state": "LA",
    "zip": "70433",
    "phone": "(985) 893-3003",
    "fax": null,
    "email": null,
    "website": "http://www.freefood.org/",
    "hours": "Monday, Tuesday, and Thursday 9:00am - 12:00pmRequirements: Verification of residency is required.Submit an actual street address; P.O. boxes will not be considered.Adhere to USDA Income Guidelines.Furnish the complete details for all permanent household residents: Full Name, Date of Birth, Relationship to Applicant, Race, Gender, and Employment Status.Eligibility is not applicable if currently enrolled in or receiving assistance from another food pantry.For more information, please call.",
    "description": null,
    "requirements": null,
    "scraped_at": "2025-10-31T14:37:47.428897",
    "latitude": 30.4847173,
    "longitude": -90.093742,
    "geocoded_address": "30th Avenue, Covington, St. Tammany Parish, Louisiana, 70434, United States of America"
  },
  {
    "url": "https://www.foodpantries.org/li/food_bank_of_covington_70433",
    "name": "Food Bank of Covington",
    "address": "840 N Columbia Street",
    "city": "Covingtion",
    "state": "LA",
    "zip": "70433",
    "phone": null,
    "fax": null,
    "email": null,
    "website": "http://www.freefood.org/",
    "hours": "Monday, Tuesday, and Thursday 9:00am - 12:00pm  Requirements:     Verification of residency is required. Submit an actual street address; P.O. boxes will not be considered. Adhere to USDA Income Guidelines. Furnish the complete details for all permanent household residents: F\nGo To Details Page For More Information",
    "description": null,
    "requirements": "Verification of residency is required. Submit an actual street address; P.O. boxes will not be considered. Adhere to USDA Income Guidelines. Furnish the complete details for all permanent household residents: F\nGo To Details Page For More Information",
    "scraped_at": "2025-10-31T14:37:53.689500"
  },
  {
    "url": "https://www.foodpantries.org/li/la_70433_saint-peter-charities-little-light-food-pantry",
    "name": "Little Light Food Pantry at Saint Peter Church",
    "address": "128 East 19th Ave",
    "city": "Covington",
    "state": "LA",
    "zip": "70433",
    "phone": "(985) 892-2422",
    "fax": null,
    "email": null,
    "website": "http://www.freefood.org/",
    "hours": "Thursdays from 1:00pm to 4:00pm in the Ministry Center\nVolunteering Information:call office \nCounty or Counties Served: Saint Tammany",
    "description": null,
    "requirements": "Verification of residency is required. Submit an actual street address; P.O. boxes will not be considered. Adhere to USDA Income Guidelines. Furnish the complete details for all permanent household residents: F\nGo To Details Page For More Information",
    "scraped_at": "2025-10-31T14:37:56.580080",
    "latitude": 30.4734534,
    "longitude": -90.1016745,
    "geocoded_address": "128, East 19th Avenue, Covington, St. Tammany Parish, Louisiana, 70433, United States of America"
  },
  {
    "url": "https://www.foodpantries.org/li/mandeville_christian_fellowship_70435",
    "name": "Mandeville Christian Fellowship",
    "address": "76140 Hard Rd",
    "city": "Covington",
    "state": "LA",
    "zip": "70435",
    "phone": null,
    "fax": null,
    "email": null,
    "website": "http://www.freefood.org/",
    "hours": "Monday, Tuesday, and Thursday 9:00am - 12:00pm  Requirements:     Verification of residency is required. Submit an actual street address; P.O. boxes will not be considered. Adhere to USDA Income Guidelines. Furnish the complete details for all permanent household residents: F\nGo To Details Page For More Information",
    "description": null,
    "requirements": "Verification of residency is required. Submit an actual street address; P.O. boxes will not be considered. Adhere to USDA Income Guidelines. Furnish the complete details for all permanent household residents: F\nGo To Details Page For More Information",
    "scraped_at": "2025-10-31T14:37:59.436770",
    "latitude": 30.4753525,
    "longitude": -90.1010474,
    "geocoded_address": "Covington, St. Tammany Parish, Louisiana, United States of America",
    "note": "Geocoded to city center (exact address not found)"
  },
  {
    "url": "https://www.foodpantries.org/li/new-vision-community-church-shreveport",
    "name": "New Vision Community Church-Shreveport",
    "address": "727 Flournoy Lucas Rd.",
    "city": "Shreveport",
    "state": "LA",
    "zip": "71118",
    "phone": null,
    "fax": null,
    "email": null,
    "website": "http://www.freefood.org/",
    "hours": "Monday, Tuesday and Thursday 9:00am - 12:00pm Call first for appointment and list of requirement. Service area restricted by zip code.  Pet Pantry for our clients. If you want to volunteer or donate or appointment. \nGo To Details Page For More Information",
    "description": null,
    "requirements": "Must have ID.  Service Area:  71101, 71104, and 71105  Additional Information:  Provide cat and/or dog food For more information, please call.  \nGo To Details Page For More Information",
    "scraped_at": "2025-10-31T14:38:03.506384",
    "latitude": 32.3909633,
    "longitude": -93.7718765,
    "geocoded_address": "727, Flournoy Lucas Road, Alpha Mobile Home Park, Shreveport, Caddo Parish, Louisiana, 71118, United States of America"
  },
  {
    "url": "https://www.foodpantries.org/li/mt_zion_baptist_church_70039",
    "name": "Mt Zion Baptist Church",
    "address": "107 Magnolia Ridge",
    "city": "Boutte",
    "state": "LA",
    "zip": "70039",
    "phone": null,
    "fax": null,
    "email": null,
    "website": "http://www.freefood.org/",
    "hours": "2nd and 4th Monday of the month 10:00 AM and 3:00 PM",
    "description": null,
    "requirements": null,
    "scraped_at": "2025-10-31T14:38:06.071084",
    "latitude": 29.8685369,
    "longitude": -90.4047073,
    "geocoded_address": "107, Magnolia Ridge Road, Boutte, St. Charles Parish, Louisiana, 70039, United States of America"
  },
  {
    "url": "https://www.foodpantries.org/li/antioch_baptist_church_70030",
    "name": "Antioch Baptist Church",
    "address": "16461 Old Spanish Trail",
    "city": "Des Allemands",
    "state": "LA",
    "zip": "70030",
    "phone": null,
    "fax": null,
    "email": null,
    "website": "http://www.freefood.org/",
    "hours": "2nd and 4th Monday of the month 10:00 AM and 3:00 PM",
    "description": null,
    "requirements": null,
    "scraped_at": "2025-10-31T14:38:08.787921",
    "latitude": 29.8250022,
    "longitude": -90.4736234,
    "geocoded_address": "Old Spanish Trail, Des Allemands, St. Charles Parish, Louisiana, 70030, United States of America"
  },
  {
    "url": "https://www.foodpantries.org/li/kenner_food_bank_70062",
    "name": "Community Service Food Bank",
    "address": "317 Oxley Street",
    "city": "Kenner",
    "state": "LA",
    "zip": "70062",
    "phone": "(504) 468-7220",
    "fax": null,
    "email": null,
    "website": "http://www.freefood.org/",
    "hours": null,
    "description": null,
    "requirements": null,
    "scraped_at": "2025-10-31T14:38:13.626631",
    "latitude": 29.9741997,
    "longitude": -90.2499614,
    "geocoded_address": "317, Oxley Street, Rex Trailer Court, Kenner, Jefferson Parish, Louisiana, 70062, United States of America"
  },
  {
    "url": "https://www.foodpantries.org/li/glory_cloud_christian_center_70062",
    "name": "Glory Cloud Christian Center",
    "address": "125 East 23rd Street",
    "city": "Kenner",
    "state": "LA",
    "zip": "70062",
    "phone": null,
    "fax": null,
    "email": null,
    "website": "http://www.freefood.org/",
    "hours": null,
    "description": null,
    "requirements": null,
    "scraped_at": "2025-10-31T14:38:17.459965",
    "latitude": 29.9980066,
    "longitude": -90.2426328,
    "geocoded_address": "23rd Street, Kenner, Jefferson Parish, Louisiana, 70062, United States of America"
  },
  {
    "url": "https://www.foodpantries.org/li/our_lady_of_perpetual_help_70062",
    "name": "Our Lady of Perpetual Help",
    "address": "1908 Short Street",
    "city": "Kenner",
    "state": "LA",
    "zip": "70062",
    "phone": "(504) 466-6086",
    "fax": "(504) 465-0930",
    "email": null,
    "website": "https://www.olphla.net",
    "hours": null,
    "description": null,
    "requirements": null,
    "scraped_at": "2025-10-31T14:38:21.918470",
    "latitude": 29.9755121,
    "longitude": -90.2468813,
    "geocoded_address": "Our Lady of Perpetual Help Catholic Church, 1908, Short Street, Rex Trailer Court, Kenner, Jefferson Parish, Louisiana, 70062, United States of America"
  },
  {
    "url": "https://www.foodpantries.org/li/pray_the_word_say_the_word_70065",
    "name": "Pray The Word Say The Word",
    "address": "672 Cameron Court",
    "city": "Kenner",
    "state": "LA",
    "zip": "70065",
    "phone": null,
    "fax": null,
    "email": null,
    "website": "http://www.freefood.org/",
    "hours": null,
    "description": null,
    "requirements": null,
    "scraped_at": "2025-10-31T14:38:25.365304",
    "latitude": 30.0141641,
    "longitude": -90.2601904,
    "geocoded_address": "672, Cameron Court, Kenner, Jefferson Parish, Louisiana, 70065, United States of America"
  },
  {
    "url": "https://www.foodpantries.org/li/st_rita_food_pantry_70123",
    "name": "St Rita Food Pantry",
    "address": "7100 Jefferson Hwy.",
    "city": "Harahan",
    "state": "LA",
    "zip": "70123",
    "phone": null,
    "fax": null,
    "email": null,
    "website": "http://www.freefood.org/",
    "hours": "2nd and 4th Monday of the month 10:00 AM and 3:00 PM",
    "description": null,
    "requirements": null,
    "scraped_at": "2025-10-31T14:38:27.893451",
    "latitude": 29.9353615,
    "longitude": -90.2002765,
    "geocoded_address": "Saint Rita of Cascia Catholic Church, 7100, Jefferson Highway, Harahan, Jefferson Parish, Louisiana, 70123, United States of America"
  },
  {
    "url": "https://www.foodpantries.org/li/our_lady_of_divine_providence_70003",
    "name": "Our Lady of Divine Providence",
    "address": "1000 North Starrett Road",
    "city": "Metairie",
    "state": "LA",
    "zip": "70003",
    "phone": null,
    "fax": null,
    "email": null,
    "website": "http://www.freefood.org/",
    "hours": null,
    "description": null,
    "requirements": null,
    "scraped_at": "2025-10-31T14:38:30.220186",
    "latitude": 29.9878851,
    "longitude": -90.2253323,
    "geocoded_address": "1000, North Starrett Road, Metairie, Jefferson Parish, Louisiana, 70003, United States of America"
  },
  {
    "url": "https://www.foodpantries.org/li/watson_community_center_70003",
    "name": "Watson Community Center",
    "address": "1300 Myrtle St.",
    "city": "Metairie",
    "state": "LA",
    "zip": "70003",
    "phone": null,
    "fax": null,
    "email": null,
    "website": "http://www.freefood.org/",
    "hours": null,
    "description": null,
    "requirements": null,
    "scraped_at": "2025-10-31T14:38:32.907467",
    "latitude": 29.9749216,
    "longitude": -90.2170105,
    "geocoded_address": "1300, South Myrtle Street, Metairie, Jefferson Parish, Louisiana, 70003, United States of America"
  },
  {
    "url": "https://www.foodpantries.org/li/st_bernard_st_francis_70517",
    "name": "St. Bernard St. Francis Food Pantry",
    "address": "701 West Bridge Street",
    "city": "Breaux Bridge",
    "state": "LA",
    "zip": "70517",
    "phone": "(337) 314-9494",
    "fax": null,
    "email": null,
    "website": "http://www.freefood.org/",
    "hours": "Monday, Wednesday & Friday \r\n10:00am - 1:30pm \r\n \r\nFor more information, please call.",
    "description": null,
    "requirements": null,
    "scraped_at": "2025-10-31T14:38:38.035419",
    "latitude": 30.2684,
    "longitude": -91.9051858,
    "geocoded_address": "701, West Bridge Street, Breaux Bridge, Saint Martin Parish, Louisiana, 70517, United States of America"
  },
  {
    "url": "https://www.foodpantries.org/li/new_beginning_fellowship_church_70517",
    "name": "New Beginning Fellowship Church",
    "address": "519 Parkway Rd.",
    "city": "Breaux Bridge",
    "state": "LA",
    "zip": "70517",
    "phone": "(337) 442-6209",
    "fax": null,
    "email": null,
    "website": "http://www.freefood.org/",
    "hours": "Monday, Wednesday & Friday \r\n10:00am - 1:30pm \r\n \r\nFor more information, please call.",
    "description": null,
    "requirements": null,
    "scraped_at": "2025-10-31T14:38:42.242046",
    "latitude": 30.2885028,
    "longitude": -91.9086943,
    "geocoded_address": "519, Parkway Road, Breaux Bridge, Saint Martin Parish, Louisiana, 70517, United States of America"
  },
  {
    "url": "https://www.foodpantries.org/li/united_christian_outreach_70501",
    "name": "United Christian Outreach",
    "address": "422 Carmel Drive",
    "city": "Lafayette",
    "state": "LA",
    "zip": "70501",
    "phone": "(337) 234-0162",
    "fax": null,
    "email": null,
    "website": "http://www.freefood.org/",
    "hours": "Monday, Wednesday & Friday\r\n10:00am - 1:30pm\n\r\nFor more information, please call.\nCounty or Counties Served: Lafayette",
    "description": null,
    "requirements": null,
    "scraped_at": "2025-10-31T14:38:45.453290",
    "latitude": 40.4506541,
    "longitude": -86.9179691,
    "geocoded_address": "Carmel Drive, West Lafayette, Tippecanoe County, Indiana, 47906, United States of America"
  },
  {
    "url": "https://www.foodpantries.org/li/progressive_community_outreach_70501",
    "name": "Progressive Community Outreach",
    "address": "125 Gallian Street",
    "city": "Lafayette",
    "state": "LA",
    "zip": "70501",
    "phone": "(337) 234-3924",
    "fax": "(337) 237-5779",
    "email": null,
    "website": "http://www.freefood.org/",
    "hours": "Monday, Wednesday & Friday \r\n10:00am - 1:30pm \r\n \r\nFor more information, please call.",
    "description": null,
    "requirements": null,
    "scraped_at": "2025-10-31T14:38:48.556933",
    "latitude": 30.2262187,
    "longitude": -92.0178202,
    "geocoded_address": "Lafayette, Lafayette Parish, Louisiana, United States of America",
    "note": "Geocoded to city center (exact address not found)"
  },
  {
    "url": "https://www.foodpantries.org/li/foodnet-the-greater-acadiana-food-bank",
    "name": "Foodnet The Greater Acadiana Food Bank",
    "address": "106 Lafferty Dr",
    "city": "Lafayette",
    "state": "LA",
    "zip": "70518",
    "phone": "(337) 232-3663",
    "fax": "(337) 232-3799",
    "email": null,
    "website": "http://www.freefood.org/",
    "hours": "Monday, Wednesday & Friday \r\n10:00am - 1:30pm \r\n \r\nFor more information, please call.",
    "description": null,
    "requirements": null,
    "scraped_at": "2025-10-31T14:38:56.072108",
    "latitude": 30.145561,
    "longitude": -91.935424,
    "geocoded_address": "106, Lafferty Drive, Broussard, Lafayette Parish, Louisiana, 70518, United States of America"
  },
  {
    "url": "https://www.foodpantries.org/li/food_net_70505",
    "name": "Food Net",
    "address": "217 Surrey",
    "city": "Lafayette",
    "state": "LA",
    "zip": "70505",
    "phone": null,
    "fax": null,
    "email": null,
    "website": "http://www.freefood.org/",
    "hours": "Monday, Wednesday & Friday \r\n10:00am - 1:30pm \r\n \r\nFor more information, please call.",
    "description": null,
    "requirements": null,
    "scraped_at": "2025-10-31T14:38:58.279459",
    "latitude": 30.229385,
    "longitude": -92.006034,
    "geocoded_address": "217, Surrey Street, Lafayette, Lafayette Parish, Louisiana, 70501, United States of America"
  },
  {
    "url": "https://www.foodpantries.org/li/acadiana_c.a.r.e.s_70502",
    "name": "Acadiana C.A.R.E.S",
    "address": "809 MLK Drive",
    "city": "Lafayette",
    "state": "LA",
    "zip": "70502",
    "phone": null,
    "fax": null,
    "email": null,
    "website": "http://www.freefood.org/",
    "hours": "Monday, Wednesday & Friday \r\n10:00am - 1:30pm \r\n \r\nFor more information, please call.",
    "description": null,
    "requirements": null,
    "scraped_at": "2025-10-31T14:39:02.796140",
    "latitude": 30.2262187,
    "longitude": -92.0178202,
    "geocoded_address": "Lafayette, Lafayette Parish, Louisiana, United States of America",
    "note": "Geocoded to city center (exact address not found)"
  },
  {
    "url": "https://www.foodpantries.org/li/la_70507_community-partners-louisiana-cares",
    "name": "Community Partners Louisiana Cares",
    "address": "120 Chase Drive",
    "city": "Lafayette",
    "state": "LA",
    "zip": "70507",
    "phone": "(337) 258-2314",
    "fax": null,
    "email": null,
    "website": "http://www.freefood.org/",
    "hours": "Monday, Wednesday & Friday \r\n10:00am - 1:30pm \r\n \r\nFor more information, please call.",
    "description": null,
    "requirements": null,
    "scraped_at": "2025-10-31T14:39:07.710300",
    "latitude": 30.2752317,
    "longitude": -92.0632796,
    "geocoded_address": "120, Chase Drive, Lafayette Parish, Louisiana, 70507, United States of America"
  },
  {
    "url": "https://www.foodpantries.org/li/new_start_center_70582",
    "name": "New Start Center",
    "address": "516 North Main Street",
    "city": "St Martinville",
    "state": "LA",
    "zip": "70582",
    "phone": null,
    "fax": null,
    "email": null,
    "website": "http://www.freefood.org/",
    "hours": "Thursday 9:00am until 12:00pm  For more information, please call.  \nGo To Details Page For More Information",
    "description": null,
    "requirements": null,
    "scraped_at": "2025-10-31T14:39:10.924059",
    "latitude": 30.128278,
    "longitude": -91.827719,
    "geocoded_address": "516, Rue Principale Nord, Saint Martinville Historic District, St. Martinville, Saint Martin Parish, Louisiana, 70582, United States of America"
  },
  {
    "url": "https://www.foodpantries.org/li/ville_platte_church_of_christ_70570",
    "name": "Ville Platte Church of Christ",
    "address": "216 Jeanette Dr.",
    "city": "Opelousas",
    "state": "LA",
    "zip": "70570",
    "phone": null,
    "fax": null,
    "email": null,
    "website": "http://www.freefood.org/",
    "hours": "Monday - Sunday 9:00am - 8:00pm  Donations: Please call the office and we will be happy to assist you.  For more information, please call.  \nGo To Details Page For More Information",
    "description": null,
    "requirements": null,
    "scraped_at": "2025-10-31T14:39:15.752844",
    "latitude": 30.5335302,
    "longitude": -92.081509,
    "geocoded_address": "Opelousas, St. Landry Parish, Louisiana, 70570, United States of America",
    "note": "Geocoded to city center (exact address not found)"
  },
  {
    "url": "https://www.foodpantries.org/li/st-mark-united-methodist-church-mission-center",
    "name": "St. Mark United Methodist Church Mission Center",
    "address": "534 S. Market Street",
    "city": "Opelousas.",
    "state": "LA",
    "zip": "70570",
    "phone": null,
    "fax": null,
    "email": null,
    "website": "http://www.freefood.org/",
    "hours": "Monday - Sunday 9:00am - 8:00pm  Donations: Please call the office and we will be happy to assist you.  For more information, please call.  \nGo To Details Page For More Information",
    "description": null,
    "requirements": null,
    "scraped_at": "2025-10-31T14:39:22.219166",
    "latitude": 30.529697,
    "longitude": -92.0848781,
    "geocoded_address": "534, South Market Street, Opelousas, St. Landry Parish, Louisiana, 70570, United States of America"
  },
  {
    "url": "https://www.foodpantries.org/li/new_life_center_opelousas_70570",
    "name": "New Life Center Opelousas",
    "address": "411 East Landry Street",
    "city": "Opelousas",
    "state": "LA",
    "zip": "70570",
    "phone": null,
    "fax": null,
    "email": null,
    "website": "http://www.freefood.org/",
    "hours": "Monday - Sunday 9:00am - 8:00pm  Donations: Please call the office and we will be happy to assist you.  For more information, please call.  \nGo To Details Page For More Information",
    "description": null,
    "requirements": null,
    "scraped_at": "2025-10-31T14:39:24.847176",
    "latitude": 30.5327125,
    "longitude": -92.0795634,
    "geocoded_address": "411, East Landry Street, Opelousas, St. Landry Parish, Louisiana, 70570, United States of America"
  },
  {
    "url": "https://www.foodpantries.org/li/icons-food-bank",
    "name": "Icons Food Bank",
    "address": "1411 N Market Street",
    "city": "Opelousas",
    "state": "LA",
    "zip": "70570",
    "phone": "(337) 594-8845",
    "fax": null,
    "email": null,
    "website": "http://www.freefood.org/",
    "hours": "Monday - Sunday 9:00am - 8:00pm  Donations: Please call the office and we will be happy to assist you.  For more information, please call.  \nGo To Details Page For More Information",
    "description": null,
    "requirements": null,
    "scraped_at": "2025-10-31T14:39:27.156065",
    "latitude": 30.5460674,
    "longitude": -92.0821151,
    "geocoded_address": "Market Street, Opelousas, St. Landry Parish, Louisiana, 70570, United States of America"
  },
  {
    "url": "https://www.foodpantries.org/li/i.c.o.n.s_70570",
    "name": "I.C.O.N.S",
    "address": "1411 North Market Street",
    "city": "Opelousas",
    "state": "LA",
    "zip": "70570",
    "phone": null,
    "fax": null,
    "email": null,
    "website": "http://www.freefood.org/",
    "hours": "Monday - Sunday 9:00am - 8:00pm  Donations: Please call the office and we will be happy to assist you.  For more information, please call.  \nGo To Details Page For More Information",
    "description": null,
    "requirements": null,
    "scraped_at": "2025-10-31T14:39:30.354315",
    "latitude": 30.5392822,
    "longitude": -92.0831204,
    "geocoded_address": "North Market Street, Opelousas, St. Landry Parish, Louisiana, 70570, United States of America"
  },
  {
    "url": "https://www.foodpantries.org/li/the_samaritan_center_inc_70448",
    "name": "The Samaritan Center Inc",
    "address": "402 Girod Street",
    "city": "Mandeville",
    "state": "LA",
    "zip": "70448",
    "phone": "(985) 626-4457",
    "fax": null,
    "email": null,
    "website": "http://www.freefood.org/",
    "hours": "Thursdays from 1:00pm to 4:00pm in the Ministry Center \nGo To Details Page For More Information",
    "description": null,
    "requirements": "Verification of residency is required. Submit an actual street address; P.O. boxes will not be considered. Adhere to USDA Income Guidelines. Furnish the complete details for all permanent household residents: F\nGo To Details Page For More Information",
    "scraped_at": "2025-10-31T14:39:33.023853",
    "latitude": 30.3568668,
    "longitude": -90.0658705,
    "geocoded_address": "402, Girod Street, Mandeville, St. Tammany Parish, Louisiana, 70448, United States of America"
  },
  {
    "url": "https://www.foodpantries.org/li/la_70445_mission-pantry",
    "name": "The Mission Food Pantry",
    "address": "31294 Highway 190",
    "city": "Lacombe",
    "state": "LA",
    "zip": "70445",
    "phone": "(716) 803-4432",
    "fax": null,
    "email": null,
    "website": "http://www.freefood.org/",
    "hours": "Monday, Wednesday, Thursday, Friday, and Saturday 10:00 am through 4:00 pm Eligibility:Services are exclusively for residents of St. Tammany Parish.Kindly ensure you have a state ID with you whenever you are on campus.Volunteer:Email volunteer@neworleansmission.org and specify volunteering at the Pantry.There are forms to fill out before being able to volunteer. \nVolunteering Information:https://neworleansmission.org/volunteer-form.html \nCounty or Counties Served: Saint Tammany",
    "description": null,
    "requirements": "Verification of residency is required. Submit an actual street address; P.O. boxes will not be considered. Adhere to USDA Income Guidelines. Furnish the complete details for all permanent household residents: F\nGo To Details Page For More Information",
    "scraped_at": "2025-10-31T14:39:39.078379",
    "latitude": 30.3177895,
    "longitude": -89.9324717,
    "geocoded_address": "Old US Highway 190, Lacombe, St. Tammany Parish, Louisiana, 70445, United States of America"
  },
  {
    "url": "https://www.foodpantries.org/li/true_life_church_celebrate_recovery_food_pantry_70460",
    "name": "True Life Church - Celebrate Recovery Food Pantry",
    "address": "62160 Airport Rd.",
    "city": "Slidell",
    "state": "LA",
    "zip": "70460",
    "phone": "(985) 643-5870",
    "fax": null,
    "email": null,
    "website": "http://www.freefood.org/",
    "hours": "Monday, Wednesday, Thursday, Friday, and Saturday 10:00 am through 4:00 pm  Eligibility:  Services are exclusively for residents of St. Tammany Parish. Kindly ensure you have a state ID with you whenever you are on campus.  Volunteer:  Email volunteer@neworleansmis\nGo To Details Page For More Information",
    "description": null,
    "requirements": "Verification of residency is required. Submit an actual street address; P.O. boxes will not be considered. Adhere to USDA Income Guidelines. Furnish the complete details for all permanent household residents: F\nGo To Details Page For More Information",
    "scraped_at": "2025-10-31T14:39:42.198281",
    "latitude": 30.3332284,
    "longitude": -89.8256156,
    "geocoded_address": "62160, Airport Road, Slidell, St. Tammany Parish, Louisiana, 70460, United States of America"
  },
  {
    "url": "https://www.foodpantries.org/li/our-daily-bread-food-bank-of-tangipahoa",
    "name": "Our Daily Bread Food Bank of Tangipahoa",
    "address": "1006 W. Coleman Ave.",
    "city": "Hammond",
    "state": "LA",
    "zip": "70403",
    "phone": "(985) 542-4676",
    "fax": null,
    "email": null,
    "website": "http://www.freefood.org/",
    "hours": "Tuesday and Thursday 1:00pm - 4:00pm  For more information, please call.",
    "description": null,
    "requirements": null,
    "scraped_at": "2025-10-31T14:39:44.925932",
    "latitude": 30.4988962,
    "longitude": -90.4705484,
    "geocoded_address": "1006, West Coleman Avenue, Oliver, Hammond, Tangipahoa Parish, Louisiana, 70403, United States of America"
  },
  {
    "url": "https://www.foodpantries.org/li/pearl_river_church_of_nazerene_70452",
    "name": "Pearl River Church of Nazerene",
    "address": "64129 LA 41",
    "city": "Pearl River",
    "state": "LA",
    "zip": "70452",
    "phone": "(985) 863-5378",
    "fax": null,
    "email": null,
    "website": "http://www.freefood.org/",
    "hours": "Monday, Wednesday, Thursday, Friday, and Saturday 10:00 am through 4:00 pm  Eligibility:  Services are exclusively for residents of St. Tammany Parish. Kindly ensure you have a state ID with you whenever you are on campus.  Volunteer:  Email volunteer@neworleansmis\nGo To Details Page For More Information",
    "description": null,
    "requirements": "Verification of residency is required. Submit an actual street address; P.O. boxes will not be considered. Adhere to USDA Income Guidelines. Furnish the complete details for all permanent household residents: F\nGo To Details Page For More Information",
    "scraped_at": "2025-10-31T14:39:48.248383",
    "latitude": 30.3624956,
    "longitude": -89.7539516,
    "geocoded_address": "64129, Watts Road, Pearl River, St. Tammany Parish, Louisiana, 70452, United States of America"
  },
  {
    "url": "https://www.foodpantries.org/li/tangi_food_pantry_70403",
    "name": "Tangi Food Pantry",
    "address": "2410 W. Thomas Street",
    "city": "Hammond",
    "state": "LA",
    "zip": "70401",
    "phone": "(985) 429-8551",
    "fax": null,
    "email": null,
    "website": "http://www.freefood.org/",
    "hours": "Tuesday and Thursday 1:00pm - 4:00pmFor more information, please call. \nCounty or Counties Served: Tangipahoa",
    "description": null,
    "requirements": "All that is needed is a form of ID or proof of address, no proof of income needed. Serves the residents in the Livingston 7\nGo To Details Page For More Information",
    "scraped_at": "2025-10-31T14:39:51.702617",
    "latitude": 30.5009468,
    "longitude": -90.4881048,
    "geocoded_address": "2410, West Thomas Street, Lincoln Park, Hammond, Tangipahoa Parish, Louisiana, 70401, United States of America"
  },
  {
    "url": "https://www.foodpantries.org/li/community_christian_concern_70458",
    "name": "Community Christian Concern",
    "address": "2515 Carey Street",
    "city": "Slidell",
    "state": "LA",
    "zip": "70458",
    "phone": "(985) 646-0357",
    "fax": null,
    "email": null,
    "website": "http://www.freefood.org/",
    "hours": "Monday, Wednesday, Thursday, Friday, and Saturday 10:00 am through 4:00 pm  Eligibility:  Services are exclusively for residents of St. Tammany Parish. Kindly ensure you have a state ID with you whenever you are on campus.  Volunteer:  Email volunteer@neworleansmis\nGo To Details Page For More Information",
    "description": null,
    "requirements": null,
    "scraped_at": "2025-10-31T14:39:54.887509",
    "latitude": 30.2691692,
    "longitude": -89.7837944,
    "geocoded_address": "2515, Carey Street, Lincoln Park, Slidell, St. Tammany Parish, Louisiana, 70458, United States of America"
  },
  {
    "url": "https://www.foodpantries.org/li/first_baptist_church_slidell_70458",
    "name": "First Baptist Church Slidell",
    "address": "4141 Ponchatrain Drive",
    "city": "Slidell",
    "state": "LA",
    "zip": "70458",
    "phone": "(985) 643-3456",
    "fax": null,
    "email": null,
    "website": "http://www.freefood.org/",
    "hours": "Monday, Wednesday, Thursday, Friday, and Saturday 10:00 am through 4:00 pm  Eligibility:  Services are exclusively for residents of St. Tammany Parish. Kindly ensure you have a state ID with you whenever you are on campus.  Volunteer:  Email volunteer@neworleansmis\nGo To Details Page For More Information",
    "description": null,
    "requirements": null,
    "scraped_at": "2025-10-31T14:40:01.279966",
    "latitude": 30.2751945,
    "longitude": -89.7811745,
    "geocoded_address": "Slidell, St. Tammany Parish, Louisiana, United States of America",
    "note": "Geocoded to city center (exact address not found)"
  },
  {
    "url": "https://www.foodpantries.org/li/ebnezer_bc_food_pantry_70632",
    "name": "Ebnezer BC Food Pantry",
    "address": "103 Shannon Lane",
    "city": "Creole",
    "state": "LA",
    "zip": "70632",
    "phone": null,
    "fax": null,
    "email": null,
    "website": "http://www.freefood.org/",
    "hours": "1st and 3rd Saturday of the month 9:00am - 11:00am  For more information about qualification requirements, please call. \nGo To Details Page For More Information",
    "description": null,
    "requirements": null,
    "scraped_at": "2025-10-31T14:40:05.703766",
    "latitude": 29.7960529,
    "longitude": -93.1112612,
    "geocoded_address": "Creole, Cameron Parish, Louisiana, 70632, United States of America",
    "note": "Geocoded to city center (exact address not found)"
  },
  {
    "url": "https://www.foodpantries.org/li/christian_world_70607",
    "name": "Christian World",
    "address": "2001 Gauthier Rd",
    "city": "Lake Charles",
    "state": "LA",
    "zip": "70607",
    "phone": "(337) 475-0157",
    "fax": "(337) 475-0159",
    "email": null,
    "website": "http://www.freefood.org/",
    "hours": "1st and 3rd Saturday of the month9:00am - 11:00amFor more information about qualification requirements, please call.\nCounty or Counties Served: Calcasieu",
    "description": null,
    "requirements": null,
    "scraped_at": "2025-10-31T14:40:09.180111",
    "latitude": 30.2305095,
    "longitude": -93.2169807,
    "geocoded_address": "Lake Charles, Calcasieu Parish, Louisiana, United States of America",
    "note": "Geocoded to city center (exact address not found)"
  },
  {
    "url": "https://www.foodpantries.org/li/la_70615_pantry-of-hope",
    "name": "Pantry of Hope at Lake Charles / Word of Hope Family Worship Center",
    "address": "3975 E. Prien Lake Road",
    "city": "Lake Charles",
    "state": "LA",
    "zip": "70615",
    "phone": "(337) 477-1943",
    "fax": null,
    "email": null,
    "website": "http://www.freefood.org/",
    "hours": "Tuesday 10:00am - 2:00pm.  Must bring picture Id, proof of income and residency.\nGo To Details Page For More Information",
    "description": null,
    "requirements": null,
    "scraped_at": "2025-10-31T14:40:13.521166",
    "latitude": 30.1982776,
    "longitude": -93.1668824,
    "geocoded_address": "East Prien Lake Road, Lake Charles, Calcasieu Parish, Louisiana, 70615, United States of America"
  },
  {
    "url": "https://www.foodpantries.org/li/glad_tidings_dorcas_ministry_70607",
    "name": "Glad Tidings Dorcas Ministry",
    "address": "3400 Texas Ave",
    "city": "Lake Charles",
    "state": "LA",
    "zip": "70607",
    "phone": null,
    "fax": null,
    "email": null,
    "website": "http://www.freefood.org/",
    "hours": "Tuesday 10:00am - 2:00pm.  Must bring picture Id, proof of income and residency.\nGo To Details Page For More Information",
    "description": null,
    "requirements": null,
    "scraped_at": "2025-10-31T14:40:16.525700",
    "latitude": 30.2305095,
    "longitude": -93.2169807,
    "geocoded_address": "Lake Charles, Calcasieu Parish, Louisiana, United States of America",
    "note": "Geocoded to city center (exact address not found)"
  },
  {
    "url": "https://www.foodpantries.org/li/church_of_the_king_70601",
    "name": "Church of the King",
    "address": "2145 Oak Park Blvd",
    "city": "Lake Charles",
    "state": "LA",
    "zip": "70605",
    "phone": "(337) 477-8890",
    "fax": null,
    "email": null,
    "website": "http://www.freefood.org/",
    "hours": "Tuesday 10:00am - 2:00pm.  Must bring picture Id, proof of income and residency.\nGo To Details Page For More Information",
    "description": null,
    "requirements": null,
    "scraped_at": "2025-10-31T14:40:20.670690",
    "latitude": 30.2034832,
    "longitude": -93.1904783,
    "geocoded_address": "2145, Oak Park Boulevard, Lake Charles, Calcasieu Parish, Louisiana, 70601, United States of America"
  },
  {
    "url": "https://www.foodpantries.org/li/community_outreach_center_70633",
    "name": "Community Outreach Center",
    "address": "543 Marcantel Rd",
    "city": "De Quincy",
    "state": "LA",
    "zip": "70633",
    "phone": null,
    "fax": null,
    "email": null,
    "website": "http://www.freefood.org/",
    "hours": "Free Lunch - Monday thru Friday & serve at about 11:30a.m. to 12:30p.m.  Food Boxes - Once every three months  Other items\nGo To Details Page For More Information",
    "description": null,
    "requirements": "Must be a resident of Sulphur/Carlyss, or have an emergency situation Picture ID, social security cards Proof of residency and income Monthly bills  \nGo To Details Page For More Information",
    "scraped_at": "2025-10-31T14:40:23.301926",
    "latitude": 30.0812836,
    "longitude": -93.7679304,
    "geocoded_address": "Quincy Street, Doc Brown, West Orange, Orange County, Texas, 77630, United States of America",
    "note": "Geocoded to city center (exact address not found)"
  },
  {
    "url": "https://www.foodpantries.org/li/la_denham-springs_first-united-methodist-church-food-pantry",
    "name": "CommUnity Hands \ufeffFood Pantry at First United Methodist Church",
    "address": "319 Mattie Street",
    "city": "Denham Springs",
    "state": "LA",
    "zip": "70726",
    "phone": "(225) 665-0855",
    "fax": null,
    "email": null,
    "website": "http://www.freefood.org/",
    "hours": "Tuesdays from 10:00 a.m. - 11:00 a.m.Requirements:Photo ID and proof of address\nCounty or Counties Served: Livingston",
    "description": null,
    "requirements": "Photo ID and proof of address\nCounty or Counties Served: Livingston",
    "scraped_at": "2025-10-31T14:40:33.907980",
    "latitude": 30.4853839,
    "longitude": -90.9584217,
    "geocoded_address": "319, Mattie Street, Antique Village, Denham Springs, Livingston Parish, Louisiana, 70726, United States of America"
  },
  {
    "url": "https://www.foodpantries.org/li/elis-cupboard",
    "name": "Eli's Cupboard",
    "address": "36367 Perkins Road",
    "city": "Prairieville",
    "state": "LA",
    "zip": "70769",
    "phone": "(225) 744-4367",
    "fax": null,
    "email": null,
    "website": "http://www.freefood.org/",
    "hours": "Saturday12:30 pm - 2:30 pmWe serve people in need in Ascension Parish. As of right now, we do not require proof of residence or a utility bill. We trust that God will send us those who are truly in need. Please be aware that this may change in the future if the demand calls for it, since we are a small food pantry. For more information, please call. \nCounty or Counties Served: Ascension",
    "description": null,
    "requirements": "Photo ID and proof of address   \nGo To Details Page For More Information",
    "scraped_at": "2025-10-31T14:40:36.484048",
    "latitude": 30.3122527,
    "longitude": -90.9497329,
    "geocoded_address": "Prairieville, Ascension Parish, Louisiana, 70769, United States of America",
    "note": "Geocoded to city center (exact address not found)"
  },
  {
    "url": "https://www.foodpantries.org/li/la_70754_the-church-in-livingston",
    "name": "Livingston Church - Food Pantry",
    "address": "26490 S Frost Road",
    "city": "Livingston",
    "state": "LA",
    "zip": "70754",
    "phone": "(225) 698-9312",
    "fax": null,
    "email": null,
    "website": "http://www.freefood.org/",
    "hours": "Food pantry ministry is open once a month usually Saturday at 10:00amCheck their Facebook and/or website for the food pantry schedule.Requirements:All that is needed is a form of ID or proof of address, no proof of income needed.Serves the residents in the Livingston 70754 zip code, but will also help anyone who comes.\nVolunteering Information:Contact Scott & Trudie Burchfield at 225-698-9312 or email info@liv.church. \nCounty or Counties Served: Livingston",
    "description": null,
    "requirements": "All that is needed is a form of ID or proof of address, no proof of income needed.Serves the residents in the Livingston 70754 zip code, but will also help anyone who comes.\nVolunteering Information:Contact Scott & Trudie Burchfield at 225-698-9312 or email info@liv.church. \nCounty or Counties Served: Livingston",
    "scraped_at": "2025-10-31T14:40:40.000212",
    "latitude": 30.4064929,
    "longitude": -90.7395355,
    "geocoded_address": "26490, South Frost Road, Frost, Livingston Parish, Louisiana, 70754, United States of America"
  },
  {
    "url": "https://www.foodpantries.org/li/gods-food-box",
    "name": "God's Food Box",
    "address": "426 McMahon St",
    "city": "Deridder",
    "state": "LA",
    "zip": "70634",
    "phone": "(337) 463-4449",
    "fax": null,
    "email": null,
    "website": "http://www.freefood.org/",
    "hours": null,
    "description": null,
    "requirements": null,
    "scraped_at": "2025-10-31T14:40:43.760097",
    "latitude": 30.8508898,
    "longitude": -93.2897418,
    "geocoded_address": "426, McMahon Street, DeRidder, Beauregard Parish, Louisiana, 70634, United States of America"
  },
  {
    "url": "https://www.foodpantries.org/li/gods_food_box_70634",
    "name": "God's Food Box",
    "address": "711 Mahlon Street",
    "city": "DeRidder",
    "state": "LA",
    "zip": "70634",
    "phone": null,
    "fax": null,
    "email": null,
    "website": "http://www.freefood.org/",
    "hours": null,
    "description": null,
    "requirements": null,
    "scraped_at": "2025-10-31T14:40:46.069888",
    "latitude": 30.8477448,
    "longitude": -93.2734791,
    "geocoded_address": "711, Mahlon Street, Hudson Addition, DeRidder, Beauregard Parish, Louisiana, 70634, United States of America"
  },
  {
    "url": "https://www.foodpantries.org/li/the_h_o_p_e_center_70657",
    "name": "The H O P E Center",
    "address": "474 Cow Trail",
    "city": "Ragley",
    "state": "LA",
    "zip": "70657",
    "phone": null,
    "fax": null,
    "email": null,
    "website": "http://www.freefood.org/",
    "hours": "Tuesday 10:00am - 2:00pm.  Must bring picture Id, proof of income and residency.\nGo To Details Page For More Information",
    "description": null,
    "requirements": null,
    "scraped_at": "2025-10-31T14:40:48.084944",
    "latitude": 30.512699,
    "longitude": -93.2323813,
    "geocoded_address": "Ragley, Beauregard Parish, Louisiana, United States of America",
    "note": "Geocoded to city center (exact address not found)"
  },
  {
    "url": "https://www.foodpantries.org/li/lafourche_parish_government_70394",
    "name": "Lafourche Parish Government",
    "address": "4867 Highway 1",
    "city": "Raceland",
    "state": "LA",
    "zip": "70394",
    "phone": "(985) 537-7603",
    "fax": null,
    "email": null,
    "website": "http://www.freefood.org/",
    "hours": "Monday and Saturday 9:00am - 11:45am Wednesday 1:00pm - 3:45pm Thursday Homeless ONLY 9:00am - 11:00am   Donation Hours: Monday - Friday 9:00am - 5:00pm  For more information, please call.  \nGo To Details Page For More Information",
    "description": null,
    "requirements": null,
    "scraped_at": "2025-10-31T14:40:51.534679",
    "latitude": 29.6930297,
    "longitude": -90.5516077,
    "geocoded_address": "4867, Highway 1, Raceland, Lafourche Parish, Louisiana, 70394, United States of America"
  },
  {
    "url": "https://www.foodpantries.org/li/good_samaritan_food_bank_raceland_70394",
    "name": "Good Samaritan Food Bank Raceland",
    "address": "140 Market Street",
    "city": "Raceland",
    "state": "LA",
    "zip": "70394",
    "phone": null,
    "fax": null,
    "email": null,
    "website": "http://www.freefood.org/",
    "hours": "Monday and Saturday 9:00am - 11:45am Wednesday 1:00pm - 3:45pm Thursday Homeless ONLY 9:00am - 11:00am   Donation Hours: Monday - Friday 9:00am - 5:00pm  For more information, please call.  \nGo To Details Page For More Information",
    "description": null,
    "requirements": null,
    "scraped_at": "2025-10-31T14:40:53.930291",
    "latitude": 29.7261182,
    "longitude": -90.6052082,
    "geocoded_address": "140, Market Street, Godchaux, Raceland, Lafourche Parish, Louisiana, 70394, United States of America"
  },
  {
    "url": "https://www.foodpantries.org/li/second-harvesters-food-bank-of-greater-new-orleans",
    "name": "Second Harvesters Food Bank of Greater New Orleans",
    "address": "700 Edwards Ave.",
    "city": "New Orleans",
    "state": "LA",
    "zip": "70123",
    "phone": "(504) 734-1322",
    "fax": null,
    "email": null,
    "website": "http://www.freefood.org/",
    "hours": "2nd and 4th Monday of the month 10:00 AM and 3:00 PM",
    "description": null,
    "requirements": null,
    "scraped_at": "2025-10-31T14:40:56.072560",
    "latitude": 29.9559145,
    "longitude": -90.0730259,
    "geocoded_address": "New Orleans, Orleans Parish, Louisiana, United States of America",
    "note": "Geocoded to city center (exact address not found)"
  },
  {
    "url": "https://www.foodpantries.org/li/new_zorah_baptist_church_70380",
    "name": "New Zorah Baptist Church",
    "address": "604 Julia Street",
    "city": "Morgan City",
    "state": "LA",
    "zip": "70380",
    "phone": "(985) 385-2645",
    "fax": null,
    "email": null,
    "website": "http://www.freefood.org/",
    "hours": null,
    "description": null,
    "requirements": null,
    "scraped_at": "2025-10-31T14:41:00.281300",
    "latitude": 29.7034997,
    "longitude": -91.2109615,
    "geocoded_address": "Julia Street, Morgan City, St. Mary Parish, Louisiana, 70380, United States of America"
  },
  {
    "url": "https://www.foodpantries.org/li/west_point_church-we_care_70056",
    "name": "West Point Church-We Care",
    "address": "664 Behrman Hwy",
    "city": "Gretna",
    "state": "LA",
    "zip": "70056",
    "phone": "(504) 615-2027",
    "fax": "(504) 366-7565",
    "email": null,
    "website": "http://www.freefood.org/",
    "hours": "Monday - Friday 10:00am - 2:00pm  For more information, please call. \nGo To Details Page For More Information",
    "description": null,
    "requirements": null,
    "scraped_at": "2025-10-31T14:41:06.184674",
    "latitude": 29.9146493,
    "longitude": -90.0539604,
    "geocoded_address": "Gretna, Jefferson Parish, Louisiana, 70053, United States of America",
    "note": "Geocoded to city center (exact address not found)"
  },
  {
    "url": "https://www.foodpantries.org/li/responsibility_house_gretna_70056",
    "name": "Responsibility House Gretna",
    "address": "521 Hamilton Rd.",
    "city": "Gretna",
    "state": "LA",
    "zip": "70056",
    "phone": null,
    "fax": null,
    "email": null,
    "website": "http://www.freefood.org/",
    "hours": "Monday - Friday 10:00am - 2:00pm  For more information, please call. \nGo To Details Page For More Information",
    "description": null,
    "requirements": null,
    "scraped_at": "2025-10-31T14:41:13.244462",
    "latitude": 29.9146493,
    "longitude": -90.0539604,
    "geocoded_address": "Gretna, Jefferson Parish, Louisiana, 70053, United States of America",
    "note": "Geocoded to city center (exact address not found)"
  },
  {
    "url": "https://www.foodpantries.org/li/gretna_community_center_70053",
    "name": "Gretna Community Center",
    "address": "1700 Monroe Street",
    "city": "Gretna",
    "state": "LA",
    "zip": "70053",
    "phone": null,
    "fax": null,
    "email": null,
    "website": "http://www.freefood.org/",
    "hours": "Monday - Friday 10:00am - 2:00pm  For more information, please call. \nGo To Details Page For More Information",
    "description": null,
    "requirements": null,
    "scraped_at": "2025-10-31T14:41:17.348060",
    "latitude": 29.9212966,
    "longitude": -90.0504402,
    "geocoded_address": "1700, Monroe Street, McDonoghville, Gretna, Jefferson Parish, Louisiana, 70053, United States of America"
  },
  {
    "url": "https://www.foodpantries.org/li/gretna_food_distribution_center_70053",
    "name": "Gretna Food Distribution Center",
    "address": "1400 Jefferson Street",
    "city": "Gretna",
    "state": "LA",
    "zip": "70053",
    "phone": null,
    "fax": null,
    "email": null,
    "website": "http://www.freefood.org/",
    "hours": "Monday - Friday 10:00am - 2:00pm  For more information, please call. \nGo To Details Page For More Information",
    "description": null,
    "requirements": null,
    "scraped_at": "2025-10-31T14:41:19.627914",
    "latitude": 29.924847,
    "longitude": -90.0531306,
    "geocoded_address": "1400, Jefferson Street, McDonoghville, Gretna, Jefferson Parish, Louisiana, 70053, United States of America"
  },
  {
    "url": "https://www.foodpantries.org/li/gretna_united_methodist_mens_group_70056",
    "name": "Gretna United Methodist Men's Group",
    "address": "1309 Whitney Avenue",
    "city": "Gretna",
    "state": "LA",
    "zip": "70056",
    "phone": null,
    "fax": null,
    "email": null,
    "website": "http://www.freefood.org/",
    "hours": "Monday - Friday 10:00am - 2:00pm  For more information, please call. \nGo To Details Page For More Information",
    "description": null,
    "requirements": null,
    "scraped_at": "2025-10-31T14:41:22.262946",
    "latitude": 29.9263128,
    "longitude": -90.0421829,
    "geocoded_address": "1309, Whitney Avenue, McDonoghville, Gretna, Jefferson Parish, Louisiana, 70056, United States of America"
  },
  {
    "url": "https://www.foodpantries.org/li/marrero_community_center_70123",
    "name": "Marrero Community Center",
    "address": "1221 Elmwood Park Blvd 402",
    "city": "Jefferson",
    "state": "LA",
    "zip": "70123",
    "phone": null,
    "fax": null,
    "email": null,
    "website": "http://www.freefood.org/",
    "hours": null,
    "description": null,
    "requirements": null,
    "scraped_at": "2025-10-31T14:41:24.647183",
    "latitude": 29.8502657,
    "longitude": -90.1293894,
    "geocoded_address": "Jefferson Parish, Louisiana, United States of America",
    "note": "Geocoded to city center (exact address not found)"
  },
  {
    "url": "https://www.foodpantries.org/li/bridge_city_community_center_70123",
    "name": "Bridge City Community Center",
    "address": "1221 ElmwoodPark Blvd 402",
    "city": "Jefferson",
    "state": "LA",
    "zip": "70123",
    "phone": null,
    "fax": null,
    "email": null,
    "website": "http://www.freefood.org/",
    "hours": null,
    "description": null,
    "requirements": null,
    "scraped_at": "2025-10-31T14:41:30.274586",
    "latitude": 29.8502657,
    "longitude": -90.1293894,
    "geocoded_address": "Jefferson Parish, Louisiana, United States of America",
    "note": "Geocoded to city center (exact address not found)"
  },
  {
    "url": "https://www.foodpantries.org/li/jefferson_presbyterian_church_70121",
    "name": "Jefferson Presbyterian Church",
    "address": "4450 Jefferson Hwy",
    "city": "Jefferson",
    "state": "LA",
    "zip": "70121",
    "phone": "(504) 388-3979",
    "fax": null,
    "email": null,
    "website": "http://www.freefood.org/",
    "hours": null,
    "description": null,
    "requirements": null,
    "scraped_at": "2025-10-31T14:41:36.681327",
    "latitude": 29.958311,
    "longitude": -90.1734228,
    "geocoded_address": "4450, Jefferson Highway, Jefferson, Jefferson Parish, Louisiana, 70121, United States of America"
  },
  {
    "url": "https://www.foodpantries.org/li/st_edward_the_confessor_svdp_",
    "name": "St Edward The Confessor SVDP",
    "address": "4921 W. Metairie Ave",
    "city": "Metairie",
    "state": "LA",
    "zip": "70001",
    "phone": "(504) 888-0703",
    "fax": null,
    "email": null,
    "website": "https://steddy.org",
    "hours": null,
    "description": null,
    "requirements": null,
    "scraped_at": "2025-10-31T14:41:43.300511",
    "latitude": 29.9840049,
    "longitude": -90.1872675,
    "geocoded_address": "4921, West Metairie Avenue, Metairie, Jefferson Parish, Louisiana, 70001, United States of America"
  },
  {
    "url": "https://www.foodpantries.org/li/hazel_hurst_community_center_70121",
    "name": "Hazel Hurst Community Center",
    "address": "1121 South Causeway Blvd",
    "city": "Jefferson",
    "state": "LA",
    "zip": "70121",
    "phone": null,
    "fax": null,
    "email": null,
    "website": "http://www.freefood.org/",
    "hours": "Tuesday 8:30am - 6:00pm Friday 8:30am - 4:00pm Requirements: Picture ID and Social Security for everybody in the household. For more information, please call. \nGo To Details Page For More Information",
    "description": null,
    "requirements": "Picture ID and Social Security for everybody in the household. For more information, please call. \nGo To Details Page For More Information",
    "scraped_at": "2025-10-31T14:41:45.529666",
    "latitude": 29.9665206,
    "longitude": -90.1529006,
    "geocoded_address": "Jefferson, Jefferson Parish, Louisiana, 70121, United States of America",
    "note": "Geocoded to city center (exact address not found)"
  },
  {
    "url": "https://www.foodpantries.org/li/westbank_friendship_club_70058",
    "name": "Westbank Friendship Club",
    "address": "2051 Eighth Street",
    "city": "Harvey",
    "state": "LA",
    "zip": "70058",
    "phone": "(504) 368-1944",
    "fax": null,
    "email": null,
    "website": "http://www.freefood.org/",
    "hours": "Monday/Tuesday/Thursday/Friday 9:00 AM 2:00 PM, and Wednesday 12:00 PM 5:00PM. Senior citizens receive a food box each month. \nGo To Details Page For More Information",
    "description": null,
    "requirements": null,
    "scraped_at": "2025-10-31T14:41:51.221791",
    "latitude": 29.9035387,
    "longitude": -90.0772944,
    "geocoded_address": "Harvey, Jefferson Parish, Louisiana, United States of America",
    "note": "Geocoded to city center (exact address not found)"
  },
  {
    "url": "https://www.foodpantries.org/li/infant_jesus_of_prague_church_70058",
    "name": "Infant Jesus of Prague Church",
    "address": "700 Maple Avenue",
    "city": "Harvey",
    "state": "LA",
    "zip": "70058",
    "phone": null,
    "fax": null,
    "email": null,
    "website": "http://www.freefood.org/",
    "hours": "Monday/Tuesday/Thursday/Friday 9:00 AM 2:00 PM, and Wednesday 12:00 PM 5:00PM. Senior citizens receive a food box each month. \nGo To Details Page For More Information",
    "description": null,
    "requirements": null,
    "scraped_at": "2025-10-31T14:41:54.985289",
    "latitude": 29.9041036,
    "longitude": -90.0725751,
    "geocoded_address": "Infant Jesus of Prague Catholic Church, 700, Maple Avenue, Harvey, Jefferson Parish, Louisiana, 70058, United States of America"
  },
  {
    "url": "https://www.foodpantries.org/li/harvey_community_center_70058",
    "name": "Harvey Community Center",
    "address": "1501 Estalote Ave",
    "city": "Harvey",
    "state": "LA",
    "zip": "70058",
    "phone": null,
    "fax": null,
    "email": null,
    "website": "http://www.freefood.org/",
    "hours": "Monday/Tuesday/Thursday/Friday 9:00 AM 2:00 PM, and Wednesday 12:00 PM 5:00PM. Senior citizens receive a food box each month. \nGo To Details Page For More Information",
    "description": null,
    "requirements": null,
    "scraped_at": "2025-10-31T14:42:02.289307",
    "latitude": 29.8901052,
    "longitude": -90.0706631,
    "geocoded_address": "1501, Estalote Avenue, Harvey, Jefferson Parish, Louisiana, 70058, United States of America"
  },
  {
    "url": "https://www.foodpantries.org/li/west_bank_commodity_center_70058",
    "name": "CCANO - West Bank Commodity Center",
    "address": "1245 First Avenue",
    "city": "Harvey",
    "state": "LA",
    "zip": "70058",
    "phone": "(504) 371-7742",
    "fax": null,
    "email": null,
    "website": "http://www.ccano.org",
    "hours": "Monday/Tuesday/Thursday/Friday 9:00 AM  2:00 PM, and Wednesday 12:00 PM  5:00PM.Senior citizens receive a food box each month.\nCounty or Counties Served: Jefferson",
    "description": null,
    "requirements": null,
    "scraped_at": "2025-10-31T14:42:04.280709",
    "latitude": 29.9035387,
    "longitude": -90.0772944,
    "geocoded_address": "Harvey, Jefferson Parish, Louisiana, United States of America",
    "note": "Geocoded to city center (exact address not found)"
  },
  {
    "url": "https://www.foodpantries.org/li/house_of_judah_70058",
    "name": "House of Judah",
    "address": "625 Barataria Blvd",
    "city": "Harvey",
    "state": "LA",
    "zip": "70058",
    "phone": null,
    "fax": null,
    "email": null,
    "website": "http://www.freefood.org/",
    "hours": "Monday/Tuesday/Thursday/Friday 9:00 AM 2:00 PM, and Wednesday 12:00 PM 5:00PM. Senior citizens receive a food box each month. \nGo To Details Page For More Information",
    "description": null,
    "requirements": null,
    "scraped_at": "2025-10-31T14:42:08.050416",
    "latitude": 29.9035387,
    "longitude": -90.0772944,
    "geocoded_address": "Harvey, Jefferson Parish, Louisiana, United States of America",
    "note": "Geocoded to city center (exact address not found)"
  },
  {
    "url": "https://www.foodpantries.org/li/independent_living_skills_70072",
    "name": "Independent Living Skills",
    "address": "1101 Barataria Blvd",
    "city": "Marrero",
    "state": "LA",
    "zip": "70072",
    "phone": null,
    "fax": null,
    "email": null,
    "website": "http://www.freefood.org/",
    "hours": "Tuesdays 10:00 am to 12:00 pm Thursdays 3:00 pm to 5:00 pm \nGo To Details Page For More Information",
    "description": null,
    "requirements": null,
    "scraped_at": "2025-10-31T14:42:17.632407",
    "latitude": 29.8920096,
    "longitude": -90.0986517,
    "geocoded_address": "1101, Barataria Boulevard, Marrero, Jefferson Parish, Louisiana, 70072, United States of America"
  },
  {
    "url": "https://www.foodpantries.org/li/st_joseph_the_worker_food_bank_70072",
    "name": "St Joseph The Worker Food Bank",
    "address": "455 Ames Blvd",
    "city": "Marrero",
    "state": "LA",
    "zip": "70072",
    "phone": "(504) 347-8438",
    "fax": "(504) 340-9538",
    "email": null,
    "website": "https://stjworker.com",
    "hours": "Monday/Tuesday/Thursday/Friday 9:00 AM 2:00 PM, and Wednesday 12:00 PM 5:00PM. Senior citizens receive a food box each month. \nGo To Details Page For More Information",
    "description": null,
    "requirements": null,
    "scraped_at": "2025-10-31T14:42:20.437669",
    "latitude": 29.8983851,
    "longitude": -90.1133833,
    "geocoded_address": "Saint Joseph the Worker Catholic Church, 455, Ames Boulevard, Marrero, Jefferson Parish, Louisiana, 70072, United States of America"
  },
  {
    "url": "https://www.foodpantries.org/li/hope_house_70130",
    "name": "Hope House",
    "address": "916 St Andrew Street",
    "city": "New Orleans",
    "state": "LA",
    "zip": "70130",
    "phone": null,
    "fax": null,
    "email": null,
    "website": "http://www.freefood.org/",
    "hours": "The 2nd Saturday of the month \nGo To Details Page For More Information",
    "description": null,
    "requirements": null,
    "scraped_at": "2025-10-31T14:42:23.086003",
    "latitude": 29.9296913,
    "longitude": -90.07361,
    "geocoded_address": "916, Saint Andrew Street, Lower Garden District, Garden District, New Orleans, Orleans Parish, Louisiana, 70130, United States of America"
  },
  {
    "url": "https://www.foodpantries.org/li/food-bank-houma",
    "name": "Terrebonne Churches United Good Samaritan Food Bank",
    "address": "254 Magnolia Street",
    "city": "Houma",
    "state": "LA",
    "zip": "70360",
    "phone": "(985) 851-5523",
    "fax": null,
    "email": null,
    "website": "https://tcufoodbank.org",
    "hours": "Monday and Saturday9:00am - 11:45amWednesday1:00pm - 3:45pmThursdayHomeless ONLY9:00am - 11:00amDonation Hours:Monday - Friday9:00am - 5:00pmFor more information, please call.",
    "description": null,
    "requirements": null,
    "scraped_at": "2025-10-31T14:42:26.124899",
    "latitude": 29.5871556,
    "longitude": -90.7249039,
    "geocoded_address": "254, Magnolia Street, Houma, Terrebonne Parish, Louisiana, 70360, United States of America"
  },
  {
    "url": "https://www.foodpantries.org/li/storm_outreach_70364",
    "name": "Storm Outreach",
    "address": "130 Morrison Ave",
    "city": "Houma",
    "state": "LA",
    "zip": "70364",
    "phone": null,
    "fax": null,
    "email": null,
    "website": "http://www.freefood.org/",
    "hours": "Monday and Saturday 9:00am - 11:45am Wednesday 1:00pm - 3:45pm Thursday Homeless ONLY 9:00am - 11:00am   Donation Hours: Monday - Friday 9:00am - 5:00pm  For more information, please call.  \nGo To Details Page For More Information",
    "description": null,
    "requirements": null,
    "scraped_at": "2025-10-31T14:42:28.402617",
    "latitude": 29.5996266,
    "longitude": -90.7322296,
    "geocoded_address": "130, Morrison Avenue, Houma, Terrebonne Parish, Louisiana, 70364, United States of America"
  },
  {
    "url": "https://www.foodpantries.org/li/terrebonne_parish_consol_government_70360",
    "name": "Terrebonne Parish Consol Government",
    "address": "809 Barrow St.",
    "city": "Houma",
    "state": "LA",
    "zip": "70360",
    "phone": null,
    "fax": null,
    "email": null,
    "website": "http://www.freefood.org/",
    "hours": "Monday and Saturday 9:00am - 11:45am Wednesday 1:00pm - 3:45pm Thursday Homeless ONLY 9:00am - 11:00am   Donation Hours: Monday - Friday 9:00am - 5:00pm  For more information, please call.  \nGo To Details Page For More Information",
    "description": null,
    "requirements": null,
    "scraped_at": "2025-10-31T14:42:32.628479",
    "latitude": 29.5916634,
    "longitude": -90.7199349,
    "geocoded_address": "809, Barrow Street, Houma, Terrebonne Parish, Louisiana, 70360, United States of America"
  },
  {
    "url": "https://www.foodpantries.org/li/plymouth_rock_baptist_church_70360",
    "name": "Plymouth Rock Baptist Church",
    "address": "1000 Wallis Street",
    "city": "Houma",
    "state": "LA",
    "zip": "70360",
    "phone": "(985) 876-1768",
    "fax": null,
    "email": null,
    "website": "http://www.freefood.org/",
    "hours": "Monday and Saturday 9:00am - 11:45am Wednesday 1:00pm - 3:45pm Thursday Homeless ONLY 9:00am - 11:00am   Donation Hours: Monday - Friday 9:00am - 5:00pm  For more information, please call.  \nGo To Details Page For More Information",
    "description": null,
    "requirements": null,
    "scraped_at": "2025-10-31T14:42:35.069044",
    "latitude": 29.586238,
    "longitude": -90.7205,
    "geocoded_address": "1000, Wallis Street, Houma, Terrebonne Parish, Louisiana, 70360, United States of America"
  },
  {
    "url": "https://www.foodpantries.org/li/options_for_independence_70068",
    "name": "Options For Independence",
    "address": "8326 Main Street",
    "city": "Houma",
    "state": "LA",
    "zip": "70363",
    "phone": "(985) 868-2620",
    "fax": "(985) 868-8547",
    "email": null,
    "website": "http://www.freefood.org/",
    "hours": null,
    "description": null,
    "requirements": null,
    "scraped_at": "2025-10-31T14:42:37.959912",
    "latitude": 29.5982373,
    "longitude": -90.7087538,
    "geocoded_address": "8326, Main Street, Houma, Terrebonne Parish, Louisiana, 70363, United States of America"
  },
  {
    "url": "https://www.foodpantries.org/li/bell_baptist_church_70394",
    "name": "Bell Baptist Church",
    "address": "2614 Highway 1",
    "city": "Raceland",
    "state": "LA",
    "zip": "70394",
    "phone": null,
    "fax": null,
    "email": null,
    "website": "http://www.freefood.org/",
    "hours": "Monday and Saturday 9:00am - 11:45am Wednesday 1:00pm - 3:45pm Thursday Homeless ONLY 9:00am - 11:00am   Donation Hours: Monday - Friday 9:00am - 5:00pm  For more information, please call.  \nGo To Details Page For More Information",
    "description": null,
    "requirements": null,
    "scraped_at": "2025-10-31T14:42:40.362410",
    "latitude": 29.736417,
    "longitude": -90.6827573,
    "geocoded_address": "2614, Highway 1, Godchaux, Raceland, Lafourche Parish, Louisiana, 70394, United States of America"
  },
  {
    "url": "https://www.foodpantries.org/li/refuge_restoration_outreach_70301",
    "name": "Refuge Restoration Outreach",
    "address": "511 Brandywine",
    "city": "Thibeaux",
    "state": "LA",
    "zip": "70301",
    "phone": null,
    "fax": null,
    "email": null,
    "website": "http://www.freefood.org/",
    "hours": "Monday and Saturday 9:00am - 11:45am Wednesday 1:00pm - 3:45pm Thursday Homeless ONLY 9:00am - 11:00am   Donation Hours: Monday - Friday 9:00am - 5:00pm  For more information, please call.  \nGo To Details Page For More Information",
    "description": null,
    "requirements": null,
    "scraped_at": "2025-10-31T14:42:42.953681"
  },
  {
    "url": "https://www.foodpantries.org/li/promise_of_life_ministries_worship_center_70301",
    "name": "Promise of Life Ministries Worship Center",
    "address": "701 Hickory St.",
    "city": "Thibodeaux",
    "state": "LA",
    "zip": "70301",
    "phone": null,
    "fax": null,
    "email": null,
    "website": "http://www.freefood.org/",
    "hours": "Monday and Saturday 9:00am - 11:45am Wednesday 1:00pm - 3:45pm Thursday Homeless ONLY 9:00am - 11:00am   Donation Hours: Monday - Friday 9:00am - 5:00pm  For more information, please call.  \nGo To Details Page For More Information",
    "description": null,
    "requirements": null,
    "scraped_at": "2025-10-31T14:42:47.177743",
    "latitude": 29.8349319,
    "longitude": -90.9070667,
    "geocoded_address": "Thibodeaux Pump Station, Lafourche Parish, Louisiana, United States of America",
    "note": "Geocoded to city center (exact address not found)"
  },
  {
    "url": "https://www.foodpantries.org/li/good_samaritan_food_bank_thibodeaux_70301",
    "name": "Good Samaritan Food Bank Thibodeaux",
    "address": "100 Burch Street",
    "city": "Thibodaux",
    "state": "LA",
    "zip": "70301",
    "phone": null,
    "fax": null,
    "email": null,
    "website": "http://www.freefood.org/",
    "hours": "Monday and Saturday 9:00am - 11:45am Wednesday 1:00pm - 3:45pm Thursday Homeless ONLY 9:00am - 11:00am   Donation Hours: Monday - Friday 9:00am - 5:00pm  For more information, please call.  \nGo To Details Page For More Information",
    "description": null,
    "requirements": null,
    "scraped_at": "2025-10-31T14:42:54.897187",
    "latitude": 29.7957633,
    "longitude": -90.822871,
    "geocoded_address": "Thibodaux, Lafourche Parish, Louisiana, United States of America",
    "note": "Geocoded to city center (exact address not found)"
  },
  {
    "url": "https://www.foodpantries.org/li/moses_baptist_church_70301",
    "name": "Moses Baptist Church",
    "address": "1032 Canal Blvd",
    "city": "Napoleanville",
    "state": "LA",
    "zip": "70301",
    "phone": null,
    "fax": null,
    "email": null,
    "website": "http://www.freefood.org/",
    "hours": "Monday and Saturday 9:00am - 11:45am Wednesday 1:00pm - 3:45pm Thursday Homeless ONLY 9:00am - 11:00am   Donation Hours: Monday - Friday 9:00am - 5:00pm  For more information, please call.  \nGo To Details Page For More Information",
    "description": null,
    "requirements": null,
    "scraped_at": "2025-10-31T14:42:58.762832"
  },
  {
    "url": "https://www.foodpantries.org/li/zion_travelers_missionary_baptist_church_70647",
    "name": "Zion Travelers Missionary Baptist Church",
    "address": "608 West Second Street",
    "city": "Iowa",
    "state": "LA",
    "zip": "70647",
    "phone": "(337) 582-3262",
    "fax": null,
    "email": null,
    "website": "http://www.freefood.org/",
    "hours": "Tuesday 10:00am - 2:00pm.  Must bring picture Id, proof of income and residency.\nGo To Details Page For More Information",
    "description": null,
    "requirements": null,
    "scraped_at": "2025-10-31T14:43:02.723525",
    "latitude": 41.023516,
    "longitude": -92.4187175,
    "geocoded_address": "608, West Second Street, Ottumwa, Wapello County, Iowa, 52501, United States of America"
  },
  {
    "url": "https://www.foodpantries.org/li/shepherds_inn_outreach_church_70615",
    "name": "Shepherd's Inn Outreach Church",
    "address": "2900 E. Opelousas Street",
    "city": "Lake Charles",
    "state": "LA",
    "zip": "70615",
    "phone": "(337) 433-1517",
    "fax": null,
    "email": null,
    "website": "http://www.freefood.org/",
    "hours": "Tuesday 10:00am - 2:00pm.  Must bring picture Id, proof of income and residency.\nGo To Details Page For More Information",
    "description": null,
    "requirements": null,
    "scraped_at": "2025-10-31T14:43:06.717002",
    "latitude": 30.2422193,
    "longitude": -93.1927045,
    "geocoded_address": "Opelousas Street, Lake Charles, Calcasieu Parish, Louisiana, 70615, United States of America"
  },
  {
    "url": "https://www.foodpantries.org/li/ecumenical_social_service_alliance_70601",
    "name": "Faith and Friends",
    "address": "2300 Fruge Street",
    "city": "Lake Charles",
    "state": "LA",
    "zip": "70601",
    "phone": null,
    "fax": null,
    "email": null,
    "website": "http://www.freefood.org/",
    "hours": "Tuesday 10:00am - 2:00pm.  Must bring picture Id, proof of income and residency.\nGo To Details Page For More Information",
    "description": null,
    "requirements": null,
    "scraped_at": "2025-10-31T14:43:10.420593",
    "latitude": 30.2349905,
    "longitude": -93.1850481,
    "geocoded_address": "2300, Fruge Street, Lake Charles, Calcasieu Parish, Louisiana, 70601, United States of America"
  },
  {
    "url": "https://www.foodpantries.org/li/abrahams_tent_70601",
    "name": "Abraham's Tent",
    "address": "2424 Fruge Street",
    "city": "Lake Charles",
    "state": "LA",
    "zip": "70601",
    "phone": "(337) 439-9330",
    "fax": null,
    "email": null,
    "website": "http://www.freefood.org/",
    "hours": "Tuesday 10:00am - 2:00pm.  Must bring picture Id, proof of income and residency.\nGo To Details Page For More Information",
    "description": null,
    "requirements": null,
    "scraped_at": "2025-10-31T14:43:12.713717",
    "latitude": 30.2348912,
    "longitude": -93.1834542,
    "geocoded_address": "2424, Fruge Street, Lake Charles, Calcasieu Parish, Louisiana, 70601, United States of America"
  },
  {
    "url": "https://www.foodpantries.org/li/seventh_day_adventist_church_70601",
    "name": "Seventh Day Adventist Church",
    "address": "1804 Cessford St.",
    "city": "Lake Charles",
    "state": "LA",
    "zip": "70601",
    "phone": null,
    "fax": null,
    "email": null,
    "website": "http://www.freefood.org/",
    "hours": "Tuesday 10:00am - 2:00pm.  Must bring picture Id, proof of income and residency.\nGo To Details Page For More Information",
    "description": null,
    "requirements": null,
    "scraped_at": "2025-10-31T14:43:16.063800",
    "latitude": 30.2457654,
    "longitude": -93.1949584,
    "geocoded_address": "1804, Cessford Street, Lake Charles, Calcasieu Parish, Louisiana, 70601, United States of America"
  },
  {
    "url": "https://www.foodpantries.org/li/greater_st_mary_baptist_church_70601",
    "name": "Greater St Mary Baptist Church - The Hope Complex (North Campus)",
    "address": "1401 Moeling Street",
    "city": "Lake Charles",
    "state": "LA",
    "zip": "70601",
    "phone": null,
    "fax": null,
    "email": null,
    "website": "http://www.gsmmbc.net",
    "hours": "Tuesday 10:00am - 2:00pm. Must bring picture Id, proof of income and residency.\r\n                                    \r\n                                    County or Counties Served: Calcasieu",
    "description": null,
    "requirements": null,
    "scraped_at": "2025-10-31T14:43:18.274893",
    "latitude": 30.250178,
    "longitude": -93.201602,
    "geocoded_address": "1401, Moeling Street, Lake Charles, Calcasieu Parish, Louisiana, 70601, United States of America"
  },
  {
    "url": "https://www.foodpantries.org/li/new_sunlight_b_c_70601",
    "name": "New Sunlight B C",
    "address": "515 V E Washington St",
    "city": "Lake Charles",
    "state": "LA",
    "zip": "70601",
    "phone": null,
    "fax": null,
    "email": null,
    "website": "http://www.freefood.org/",
    "hours": "Tuesday 10:00am - 2:00pm.  Must bring picture Id, proof of income and residency.\nGo To Details Page For More Information",
    "description": null,
    "requirements": null,
    "scraped_at": "2025-10-31T14:43:20.925053",
    "latitude": 30.2305095,
    "longitude": -93.2169807,
    "geocoded_address": "Lake Charles, Calcasieu Parish, Louisiana, United States of America",
    "note": "Geocoded to city center (exact address not found)"
  },
  {
    "url": "https://www.foodpantries.org/li/liberty_heights_giving_grace_70582",
    "name": "Liberty Height's Giving Grace",
    "address": "6923 Cemetery Hwy",
    "city": "St Martinville",
    "state": "LA",
    "zip": "70582",
    "phone": null,
    "fax": null,
    "email": null,
    "website": "http://www.freefood.org/",
    "hours": "Thursday 9:00am until 12:00pm  For more information, please call.  \nGo To Details Page For More Information",
    "description": null,
    "requirements": null,
    "scraped_at": "2025-10-31T14:43:24.776980",
    "latitude": 30.1252011,
    "longitude": -91.8334498,
    "geocoded_address": "St. Martinville, Saint Martin Parish, Louisiana, United States of America",
    "note": "Geocoded to city center (exact address not found)"
  },
  {
    "url": "https://www.foodpantries.org/li/st_jerome_church_food_bank_70065",
    "name": "St Jerome Church Food Bank",
    "address": "2402 33rd Street",
    "city": "Kenner",
    "state": "LA",
    "zip": "70065",
    "phone": "(504) 443-3174",
    "fax": "(504) 443-5499",
    "email": null,
    "website": "http://www.freefood.org/",
    "hours": null,
    "description": null,
    "requirements": null,
    "scraped_at": "2025-10-31T14:43:28.603056",
    "latitude": 30.0159769,
    "longitude": -90.2337029,
    "geocoded_address": "2402, 33rd Street, Kenner, Jefferson Parish, Louisiana, 70065, United States of America"
  },
  {
    "url": "https://www.foodpantries.org/li/st_clement_of_rome_outreach_ministry_70002",
    "name": "St Clement of Rome Outreach Ministry",
    "address": "4317 Richland Ave",
    "city": "Metairie",
    "state": "LA",
    "zip": "70002",
    "phone": "(504) 887-7821",
    "fax": "(504) 454-3906",
    "email": null,
    "website": "http://www.freefood.org/",
    "hours": null,
    "description": null,
    "requirements": null,
    "scraped_at": "2025-10-31T14:43:30.982230",
    "latitude": 30.0147946,
    "longitude": -90.175159,
    "geocoded_address": "Saint Clement of Rome Catholic Church, 4317, Richland Avenue, Metairie, Jefferson Parish, Louisiana, 70002, United States of America"
  },
  {
    "url": "https://www.foodpantries.org/li/joy_fellowship_church_slidell_70458",
    "name": "Joy Fellowship Church Slidell",
    "address": "1510 West Lindberg Drive",
    "city": "Slidell",
    "state": "LA",
    "zip": "70458",
    "phone": "(985) 326-4569",
    "fax": null,
    "email": null,
    "website": "http://www.freefood.org/",
    "hours": "Monday, Wednesday, Thursday, Friday, and Saturday 10:00 am through 4:00 pm  Eligibility:  Services are exclusively for residents of St. Tammany Parish. Kindly ensure you have a state ID with you whenever you are on campus.  Volunteer:  Email volunteer@neworleansmis\nGo To Details Page For More Information",
    "description": null,
    "requirements": null,
    "scraped_at": "2025-10-31T14:43:34.804705",
    "latitude": 30.2751945,
    "longitude": -89.7811745,
    "geocoded_address": "Slidell, St. Tammany Parish, Louisiana, United States of America",
    "note": "Geocoded to city center (exact address not found)"
  },
  {
    "url": "https://www.foodpantries.org/li/greater_n_shore_full_gospel_baptist_church_70459",
    "name": "Greater North Shore Full Gospel Baptist Church",
    "address": "840 Voters Rd",
    "city": "Slidell",
    "state": "LA",
    "zip": "70461",
    "phone": "(985) 649-8009",
    "fax": null,
    "email": null,
    "website": "http://www.freefood.org/",
    "hours": "Monday, Wednesday, Thursday, Friday, and Saturday 10:00 am through 4:00 pm  Eligibility:  Services are exclusively for residents of St. Tammany Parish. Kindly ensure you have a state ID with you whenever you are on campus.  Volunteer:  Email volunteer@neworleansmis\nGo To Details Page For More Information",
    "description": null,
    "requirements": null,
    "scraped_at": "2025-10-31T14:43:38.377341",
    "latitude": 30.255809,
    "longitude": -89.7446876,
    "geocoded_address": "840, Voters Road, Slidell, St. Tammany Parish, Louisiana, 70461, United States of America"
  },
  {
    "url": "https://www.foodpantries.org/li/southwest_la_aids_council_70601",
    "name": "Southwest LA AIDS Council",
    "address": "1715 Common St.",
    "city": "Lake Charles",
    "state": "LA",
    "zip": "70601",
    "phone": null,
    "fax": null,
    "email": null,
    "website": "http://www.freefood.org/",
    "hours": "Tuesday 10:00am - 2:00pm.  Must bring picture Id, proof of income and residency.\nGo To Details Page For More Information",
    "description": null,
    "requirements": null,
    "scraped_at": "2025-10-31T14:43:42.343962",
    "latitude": 30.2175582,
    "longitude": -93.2139292,
    "geocoded_address": "1715, Common Street, Lake Charles, Calcasieu Parish, Louisiana, 70601, United States of America"
  },
  {
    "url": "https://www.foodpantries.org/li/catholic_charities_lake_charles_70601",
    "name": "Catholic Charities Lake Charles",
    "address": "612 Louisiana Ave",
    "city": "Lake Charles",
    "state": "LA",
    "zip": "70601",
    "phone": "(337) 439-2646",
    "fax": null,
    "email": null,
    "website": "http://www.freefood.org/",
    "hours": "Tuesday 10:00am - 2:00pm.  Must bring picture Id, proof of income and residency.\nGo To Details Page For More Information",
    "description": null,
    "requirements": null,
    "scraped_at": "2025-10-31T14:43:45.682611",
    "latitude": 30.2315317,
    "longitude": -93.2057299,
    "geocoded_address": "612, Louisiana Avenue, Lake Charles, Calcasieu Parish, Louisiana, 70601, United States of America"
  },
  {
    "url": "https://www.foodpantries.org/li/lebeau_community_center_71345",
    "name": "Lebeau Community Center",
    "address": "103 Lebeau Church Rd",
    "city": "Lebeau",
    "state": "LA",
    "zip": "71345",
    "phone": null,
    "fax": null,
    "email": null,
    "website": "http://www.freefood.org/",
    "hours": "Monday - Sunday 9:00am - 8:00pm  Donations: Please call the office and we will be happy to assist you.  For more information, please call.  \nGo To Details Page For More Information",
    "description": null,
    "requirements": null,
    "scraped_at": "2025-10-31T14:43:47.895359",
    "latitude": 30.7262579,
    "longitude": -91.9701841,
    "geocoded_address": "Immaculate Conception Catholic Church, 103, Lebeau Church Road, Lebeau, St. Landry Parish, Louisiana, 71345, United States of America"
  },
  {
    "url": "https://www.foodpantries.org/li/town_of_washington_70589",
    "name": "Town of Washington",
    "address": "536 Saint Landry Veterans Memorial Hig",
    "city": "Washington",
    "state": "LA",
    "zip": "70589",
    "phone": null,
    "fax": null,
    "email": null,
    "website": "http://www.freefood.org/",
    "hours": "Monday - Sunday 9:00am - 8:00pm  Donations: Please call the office and we will be happy to assist you.  For more information, please call.  \nGo To Details Page For More Information",
    "description": null,
    "requirements": null,
    "scraped_at": "2025-10-31T14:43:50.421223",
    "latitude": 30.6163073,
    "longitude": -92.057063,
    "geocoded_address": "Washington, St. Landry Parish, Louisiana, United States of America",
    "note": "Geocoded to city center (exact address not found)"
  },
  {
    "url": "https://www.foodpantries.org/li/northside_church_of_christ_70571",
    "name": "Northside Church of Christ",
    "address": "9026 Highway 182",
    "city": "Opelousas",
    "state": "LA",
    "zip": "70571",
    "phone": null,
    "fax": null,
    "email": null,
    "website": "http://www.freefood.org/",
    "hours": "Monday - Sunday 9:00am - 8:00pm  Donations: Please call the office and we will be happy to assist you.  For more information, please call.  \nGo To Details Page For More Information",
    "description": null,
    "requirements": null,
    "scraped_at": "2025-10-31T14:43:55.035077",
    "latitude": 30.5335302,
    "longitude": -92.081509,
    "geocoded_address": "Opelousas, St. Landry Parish, Louisiana, 70570, United States of America",
    "note": "Geocoded to city center (exact address not found)"
  },
  {
    "url": "https://www.foodpantries.org/li/mansura-care-hope-ministries-center",
    "name": "Mansura Care & Hope Ministries Center",
    "address": "2058 L'Eglise Street",
    "city": "Mansura",
    "state": "LA",
    "zip": "71350",
    "phone": "(318) 597-8791",
    "fax": "(318) 964-5569",
    "email": null,
    "website": "http://www.freefood.org/",
    "hours": null,
    "description": null,
    "requirements": null,
    "scraped_at": "2025-10-31T14:43:58.951793",
    "latitude": 31.0579664,
    "longitude": -92.049012,
    "geocoded_address": "Mansura, Avoyelles Parish, Louisiana, 71350, United States of America",
    "note": "Geocoded to city center (exact address not found)"
  },
  {
    "url": "https://www.foodpantries.org/li/woman_to_woman_rescue_center_70094",
    "name": "Tabaernacle Church",
    "address": "355 Sala Ave",
    "city": "Westwego",
    "state": "LA",
    "zip": "70094",
    "phone": "(504) 341-4707",
    "fax": null,
    "email": null,
    "website": "http://www.freefood.org/",
    "hours": "Tuesdays 10:00 am to 12:00 pm Thursdays 3:00 pm to 5:00 pm \nGo To Details Page For More Information",
    "description": null,
    "requirements": null,
    "scraped_at": "2025-10-31T14:44:05.744240",
    "latitude": 29.912628,
    "longitude": -90.1439651,
    "geocoded_address": "355, Sala Avenue, Westwego, Jefferson Parish, Louisiana, 70094, United States of America"
  },
  {
    "url": "https://www.foodpantries.org/li/la_new-orleans_rayne-memorial-united-methodist-church",
    "name": "Food pantry at Rayne Memorial United Methodist Church",
    "address": "3900 Saint Charles Ave.",
    "city": "New Orleans",
    "state": "LA",
    "zip": "70115",
    "phone": "(504) 899-3431",
    "fax": null,
    "email": null,
    "website": "http://www.freefood.org/",
    "hours": "Tuesdays 10:00 am to 12:00 pmThursdays 3:00 pm to 5:00 pm \nCounty or Counties Served: Orleans",
    "description": null,
    "requirements": "Picture ID and Social Security for everybody in the household. For more information, please call. \nGo To Details Page For More Information",
    "scraped_at": "2025-10-31T14:44:08.962597",
    "latitude": 29.9266307,
    "longitude": -90.0965053,
    "geocoded_address": "3900, Saint Charles Avenue, Uptown, New Orleans, Orleans Parish, Louisiana, 70115, United States of America"
  },
  {
    "url": "https://www.foodpantries.org/li/noahs_ark_community_center_70115",
    "name": "Noah's Ark Community Center",
    "address": "2840 S. Saratoga St.",
    "city": "New Orleans",
    "state": "LA",
    "zip": "70115",
    "phone": null,
    "fax": null,
    "email": null,
    "website": "http://www.freefood.org/",
    "hours": "The 2nd Saturday of the month \nGo To Details Page For More Information",
    "description": null,
    "requirements": "Picture ID and Social Security for everybody in the household. For more information, please call. \nGo To Details Page For More Information",
    "scraped_at": "2025-10-31T14:44:12.546462",
    "latitude": 29.934684,
    "longitude": -90.0895679,
    "geocoded_address": "2840, South Saratoga Street, Central City Historic District, Garden District, New Orleans, Orleans Parish, Louisiana, 70115, United States of America"
  },
  {
    "url": "https://www.foodpantries.org/li/st_joseph_church_feed_jesus_70119",
    "name": "St Joseph Church - Feed Jesus",
    "address": "1802 Tulane Ave",
    "city": "New Orleans",
    "state": "LA",
    "zip": "70112",
    "phone": "(504) 522-3186",
    "fax": "(504) 522-3171",
    "email": null,
    "website": "http://www.freefood.org/",
    "hours": "Monday to Friday: 9:00 am to 3:00 pm",
    "description": null,
    "requirements": "Picture ID and Social Security for everybody in the household. For more information, please call. \nGo To Details Page For More Information",
    "scraped_at": "2025-10-31T14:44:15.417448",
    "latitude": 29.9570928,
    "longitude": -90.081644,
    "geocoded_address": "Saint Joseph Catholic Church, 1802, Tulane Avenue, Mid-City, New Orleans, Orleans Parish, Louisiana, 70112, United States of America"
  },
  {
    "url": "https://www.foodpantries.org/li/kids_coupe_70118",
    "name": "Kids Coupe",
    "address": "1801 Adams St",
    "city": "New Orleans",
    "state": "LA",
    "zip": "70118",
    "phone": null,
    "fax": null,
    "email": null,
    "website": "http://www.freefood.org/",
    "hours": "Tuesday 8:30am - 6:00pm Friday 8:30am - 4:00pm Requirements: Picture ID and Social Security for everybody in the household. For more information, please call. \nGo To Details Page For More Information",
    "description": null,
    "requirements": "Picture ID and Social Security for everybody in the household. For more information, please call. \nGo To Details Page For More Information",
    "scraped_at": "2025-10-31T14:44:18.193806",
    "latitude": 29.9488924,
    "longitude": -90.1217537,
    "geocoded_address": "1801, Adams Street, Black Pearl, Greenville, New Orleans, Orleans Parish, Louisiana, 70118, United States of America"
  },
  {
    "url": "https://www.foodpantries.org/li/b_w_cooper_office_of_supportive_services_70125",
    "name": "B W Cooper Office of Supportive Services",
    "address": "3416 Earhart Blvd",
    "city": "New Orleans",
    "state": "LA",
    "zip": "70125",
    "phone": null,
    "fax": null,
    "email": null,
    "website": "http://www.freefood.org/",
    "hours": "Tuesday 8:30am - 6:00pm Friday 8:30am - 4:00pm Requirements: Picture ID and Social Security for everybody in the household. For more information, please call. \nGo To Details Page For More Information",
    "description": null,
    "requirements": "Picture ID and Social Security for everybody in the household. For more information, please call. \nGo To Details Page For More Information",
    "scraped_at": "2025-10-31T14:44:21.109838",
    "latitude": 29.9522652,
    "longitude": -90.0915724,
    "geocoded_address": "3416, Earhart Boulevard, Broadmoor, New Orleans, Orleans Parish, Louisiana, 70125, United States of America"
  },
  {
    "url": "https://www.foodpantries.org/li/empowerment_temple_outreach_70119",
    "name": "Empowerment Temple Outreach",
    "address": "221 1/2 South Genois Street",
    "city": "New Orleans",
    "state": "LA",
    "zip": "70119",
    "phone": "(504) 481-5540",
    "fax": null,
    "email": null,
    "website": "http://www.freefood.org/",
    "hours": "Monday to Friday: 9:00 am to 3:00 pm",
    "description": null,
    "requirements": "Picture ID and Social Security for everybody in the household. For more information, please call. \nGo To Details Page For More Information",
    "scraped_at": "2025-10-31T14:44:23.965390",
    "latitude": 29.9657259,
    "longitude": -90.101017,
    "geocoded_address": "South Genois Street, Mid-City, New Orleans, Orleans Parish, Louisiana, 70119, United States of America"
  },
  {
    "url": "https://www.foodpantries.org/li/food-bank-of-northeast-louisiana-inc",
    "name": "Food Bank Of Northeast Louisiana Inc",
    "address": "4600 Central Ave",
    "city": "Monroe",
    "state": "LA",
    "zip": "71203",
    "phone": "(318) 322-3567",
    "fax": "(318) 322-1620",
    "email": null,
    "website": "http://www.fbnela.org",
    "hours": "Monday - Friday\r\n8:00am - 4:00pm\n\r\nFor more information, please call. \nCounty or Counties Served: Ouachita",
    "description": null,
    "requirements": null,
    "scraped_at": "2025-10-31T14:44:26.883305",
    "latitude": 32.512706,
    "longitude": -92.063485,
    "geocoded_address": "4600, Central Avenue, Monroe, Ouachita Parish, Louisiana, 71203, United States of America"
  },
  {
    "url": "https://www.foodpantries.org/li/la_70123_st-charles-ave-baptist-church",
    "name": "St Charles Ave Baptist Church Hot Meals, Pantry and Clothes Closet",
    "address": "7100 St Charles Ave",
    "city": "New Orleans",
    "state": "LA",
    "zip": "70123",
    "phone": "(504) 861-9514",
    "fax": null,
    "email": null,
    "website": "http://www.freefood.org/",
    "hours": "Tuesday 8:30am - 6:00pm Friday 8:30am - 4:00pm Requirements: Picture ID and Social Security for everybody in the household. For more information, please call. \nGo To Details Page For More Information",
    "description": null,
    "requirements": "Picture ID and Social Security for everybody in the household. For more information, please call. \nGo To Details Page For More Information",
    "scraped_at": "2025-10-31T14:44:31.563009",
    "latitude": 29.936691,
    "longitude": -90.126273,
    "geocoded_address": "7100, Saint Charles Avenue, Black Pearl, Greenville, New Orleans, Orleans Parish, Louisiana, 70118, United States of America"
  },
  {
    "url": "https://www.foodpantries.org/li/st_peter_claver_church_70116",
    "name": "St Peter Claver Church",
    "address": "1923 St Philip Street",
    "city": "New Orleans",
    "state": "LA",
    "zip": "70116",
    "phone": "(504) 822-8059",
    "fax": "(504) 822-9251",
    "email": null,
    "website": "http://www.freefood.org/",
    "hours": "Tuesday \r\n8:00am \r\n \r\nHeld at the St. Jude Hall \r\n \r\nFor more information, please call.",
    "description": null,
    "requirements": null,
    "scraped_at": "2025-10-31T14:44:34.825543",
    "latitude": 29.9681498,
    "longitude": -90.0732753,
    "geocoded_address": "Saint Peter Claver Catholic Church, 1923, Saint Philip Street, Trem\u00e9, French Quarter, New Orleans, Orleans Parish, Louisiana, 70116, United States of America"
  },
  {
    "url": "https://www.foodpantries.org/li/total_community_action_70113",
    "name": "Total Community Action",
    "address": "1420 S Jefferson Davis Pkwy",
    "city": "New Orleans",
    "state": "LA",
    "zip": "70113",
    "phone": "(504) 872-0334",
    "fax": "(504) 872-0339",
    "email": null,
    "website": "http://www.tca-nola.org",
    "hours": "Tuesday8:30am - 6:00pmFriday8:30am - 4:00pmRequirements:Picture ID and Social Security for everybody in the household.For more information, please call. \nCounty or Counties Served: Orleans",
    "description": null,
    "requirements": "Picture ID and Social Security for everybody in the household.For more information, please call. \nCounty or Counties Served: Orleans",
    "scraped_at": "2025-10-31T14:44:39.696044",
    "latitude": 29.9559145,
    "longitude": -90.0730259,
    "geocoded_address": "New Orleans, Orleans Parish, Louisiana, United States of America",
    "note": "Geocoded to city center (exact address not found)"
  },
  {
    "url": "https://www.foodpantries.org/li/st_john_the_baptist_cc_70113",
    "name": "St. John the Baptist Community Center",
    "address": "1920 Clio Street",
    "city": "New Orleans",
    "state": "LA",
    "zip": "70113",
    "phone": "(504) 581-4987",
    "fax": null,
    "email": null,
    "website": "http://www.freefood.org/",
    "hours": "The 2nd Saturday of the month \nGo To Details Page For More Information",
    "description": null,
    "requirements": "Picture ID and Social Security for everybody in the household. For more information, please call. \nGo To Details Page For More Information",
    "scraped_at": "2025-10-31T14:44:44.749362",
    "latitude": 29.9436016,
    "longitude": -90.0780373,
    "geocoded_address": "1920, Clio Street, Central City Historic District, New Orleans, Orleans Parish, Louisiana, 70113, United States of America"
  },
  {
    "url": "https://www.foodpantries.org/li/peoples_community_organization_70112",
    "name": "St. Vincent de Paul Society - Our Lady of Guadalupe Church",
    "address": "400 N. Rampart Street",
    "city": "New Orleans",
    "state": "LA",
    "zip": "70112",
    "phone": "(504) 525-1551",
    "fax": "(504) 525-1827",
    "email": null,
    "website": "http://www.freefood.org/",
    "hours": "Tuesday\r\n8:00am\n\r\nHeld at the St. Jude Hall\n\r\nFor more information, please call. \nCounty or Counties Served: Orleans",
    "description": null,
    "requirements": null,
    "scraped_at": "2025-10-31T14:44:46.912447",
    "latitude": 29.9581522,
    "longitude": -90.0702224,
    "geocoded_address": "Saint Jude Community Center, 400, North Rampart Street, Storyville, New Orleans, Orleans Parish, Louisiana, 70112, United States of America"
  },
  {
    "url": "https://www.foodpantries.org/li/iglesia_bautista_getsemani_70122",
    "name": "Iglesia Bautista Getsemani",
    "address": "5834 Elysian Fields Ave",
    "city": "New Orleans",
    "state": "LA",
    "zip": "70122",
    "phone": null,
    "fax": null,
    "email": null,
    "website": "http://www.freefood.org/",
    "hours": "Monday/Tuesday/Thursday/Friday 9:00AM 12:00PM from the 1st 24th of the month",
    "description": null,
    "requirements": null,
    "scraped_at": "2025-10-31T14:44:50.938527",
    "latitude": 30.0189878,
    "longitude": -90.0613743,
    "geocoded_address": "5834, Elysian Fields Avenue, Lake Oaks, Milneburg, New Orleans, Orleans Parish, Louisiana, 70122, United States of America"
  },
  {
    "url": "https://www.foodpantries.org/li/just_the_right_attitude_70128",
    "name": "Just the Right Attitude",
    "address": "4720 E Judge Perez Dr",
    "city": "New Orleans",
    "state": "LA",
    "zip": "70128",
    "phone": "(504) 430-5307",
    "fax": null,
    "email": null,
    "website": "http://www.jtra.org",
    "hours": "Wednesday and Thursday 9:00am - 12:00pm  For more information, please call.  \nGo To Details Page For More Information",
    "description": null,
    "requirements": null,
    "scraped_at": "2025-10-31T14:44:53.679648",
    "latitude": 29.9559145,
    "longitude": -90.0730259,
    "geocoded_address": "New Orleans, Orleans Parish, Louisiana, United States of America",
    "note": "Geocoded to city center (exact address not found)"
  },
  {
    "url": "https://www.foodpantries.org/li/lake_visita_dba_sons_and_daughter_of_promise_70124",
    "name": "Lake Visita dba Sons and Daughter of Promise",
    "address": "15 Spanish Fort Blvd",
    "city": "New Orleans",
    "state": "LA",
    "zip": "70124",
    "phone": null,
    "fax": null,
    "email": null,
    "website": "http://www.freefood.org/",
    "hours": "Monday to Friday: 9:00 am to 3:00 pm",
    "description": null,
    "requirements": null,
    "scraped_at": "2025-10-31T14:44:59.102700",
    "latitude": 30.0196886,
    "longitude": -90.0905228,
    "geocoded_address": "15, Spanish Fort Boulevard, Lake Vista, Spanish Fort, New Orleans, Orleans Parish, Louisiana, 70124, United States of America"
  },
  {
    "url": "https://www.foodpantries.org/li/holy_faith_temple_baptist_church_70116",
    "name": "Holy Faith Temple Baptist Church",
    "address": "1325 Governor Nicholls Street",
    "city": "New Orleans",
    "state": "LA",
    "zip": "70116",
    "phone": "(504) 525-0856",
    "fax": null,
    "email": null,
    "website": "http://www.freefood.org/",
    "hours": "Tuesday \r\n8:00am \r\n \r\nHeld at the St. Jude Hall \r\n \r\nFor more information, please call.",
    "description": null,
    "requirements": null,
    "scraped_at": "2025-10-31T14:45:04.150121",
    "latitude": 29.9664385,
    "longitude": -90.0667904,
    "geocoded_address": "1325, Governor Nicholls Street, Trem\u00e9, French Quarter, New Orleans, Orleans Parish, Louisiana, 70116, United States of America"
  },
  {
    "url": "https://www.foodpantries.org/li/first_pentecostal_church_70128",
    "name": "First Pentecostal Church",
    "address": "122 N. Dorgenois",
    "city": "New Orleans",
    "state": "LA",
    "zip": "70128",
    "phone": null,
    "fax": null,
    "email": null,
    "website": "http://fpcnola.com",
    "hours": "Wednesday and Thursday 9:00am - 12:00pm  For more information, please call.  \nGo To Details Page For More Information",
    "description": null,
    "requirements": null,
    "scraped_at": "2025-10-31T14:45:07.170330",
    "latitude": 29.9649553,
    "longitude": -90.0851286,
    "geocoded_address": "122, North Dorgenois Street, Mid-City, New Orleans, Orleans Parish, Louisiana, 70119, United States of America"
  },
  {
    "url": "https://www.foodpantries.org/li/central_city_christian_fellowship_70113",
    "name": "Central City Christian Fellowship",
    "address": "2201 4th Street",
    "city": "New Orleans",
    "state": "LA",
    "zip": "70113",
    "phone": "(504) 891-5721",
    "fax": null,
    "email": null,
    "website": "http://www.freefood.org/",
    "hours": "The 2nd Saturday of the month\nCounty or Counties Served: Orleans",
    "description": null,
    "requirements": "Picture ID and Social Security for everybody in the household. For more information, please call. \nGo To Details Page For More Information",
    "scraped_at": "2025-10-31T14:45:10.178486",
    "latitude": 43.2104763,
    "longitude": -78.4029433,
    "geocoded_address": "4th Street, Village of Medina, Town of Shelby, Orleans County, New York, 14103, United States of America"
  },
  {
    "url": "https://www.foodpantries.org/li/covenant_presbyterian_urban_ministry_70113",
    "name": "Covenant Presbyterian Urban Ministry",
    "address": "2128 Felicity Street",
    "city": "New Orleans",
    "state": "LA",
    "zip": "70113",
    "phone": null,
    "fax": null,
    "email": null,
    "website": "http://www.freefood.org/",
    "hours": "The 2nd Saturday of the month \nGo To Details Page For More Information",
    "description": null,
    "requirements": "Picture ID and Social Security for everybody in the household. For more information, please call. \nGo To Details Page For More Information",
    "scraped_at": "2025-10-31T14:45:19.324628",
    "latitude": 29.9411426,
    "longitude": -90.0833058,
    "geocoded_address": "2128, Felicity Street, Central City Historic District, Garden District, New Orleans, Orleans Parish, Louisiana, 70113, United States of America"
  },
  {
    "url": "https://www.foodpantries.org/li/la_new-orleans_first-grace-united-methodist-church-pantry",
    "name": "First Grace United Methodist Church Food Pantry",
    "address": "3401 Canal Street",
    "city": "New Orleans",
    "state": "LA",
    "zip": "70119",
    "phone": "(504) 488-0856",
    "fax": null,
    "email": null,
    "website": "http://www.freefood.org/",
    "hours": "Monday to Friday:  9:00 am to 3:00 pm",
    "description": null,
    "requirements": "Picture ID and Social Security for everybody in the household. For more information, please call. \nGo To Details Page For More Information",
    "scraped_at": "2025-10-31T14:45:22.241548",
    "latitude": 29.9708828,
    "longitude": -90.0940342,
    "geocoded_address": "3401, Canal Street, Mid-City, New Orleans, Orleans Parish, Louisiana, 70119, United States of America"
  },
  {
    "url": "https://www.foodpantries.org/li/erwinville-childrens-community-care",
    "name": "Erwinville Childrens Community Care",
    "address": "12419 Section Rd",
    "city": "Port Allen",
    "state": "LA",
    "zip": "70767",
    "phone": "(225) 627-7725",
    "fax": null,
    "email": null,
    "website": "http://www.freefood.org/",
    "hours": "Monday - Friday8:00am - 4:30pmFor more information, please call. \nCounty or Counties Served: West Baton Rouge",
    "description": null,
    "requirements": "Photo ID and proof of residence and income are r\nGo To Details Page For More Information",
    "scraped_at": "2025-10-31T14:45:25.037247",
    "latitude": 30.45335,
    "longitude": -91.2100569,
    "geocoded_address": "Port Allen, West Baton Rouge Parish, Louisiana, United States of America",
    "note": "Geocoded to city center (exact address not found)"
  },
  {
    "url": "https://www.foodpantries.org/li/greater_macedonia_baptist_church_70083",
    "name": "Greater Macedonia Baptist Church",
    "address": "27796 Highway 23",
    "city": "Port Sulphur",
    "state": "LA",
    "zip": "70083",
    "phone": "(985) 564-2181",
    "fax": null,
    "email": null,
    "website": "http://www.freefood.org/",
    "hours": "Monday/Tuesday/Thursday/Friday 9:00 AM 2:00 PM, and Wednesday 12:00 PM 5:00PM. Senior citizens receive a food box each month. \nGo To Details Page For More Information",
    "description": null,
    "requirements": null,
    "scraped_at": "2025-10-31T14:45:32.219591",
    "latitude": 29.4409161,
    "longitude": -89.620327,
    "geocoded_address": "State Highway 23, Tropical Bend, Empire, Plaquemines Parish, Louisiana, 70041, United States of America"
  },
  {
    "url": "https://www.foodpantries.org/li/greater_new_plymouth_rock_b.c._70084",
    "name": "Greater New Plymouth Rock B.C.",
    "address": "110 Northwest 13th Street",
    "city": "Reserve",
    "state": "LA",
    "zip": "70084",
    "phone": "(985) 536-4215",
    "fax": "(985) 536-4214",
    "email": null,
    "website": "http://www.freefood.org/",
    "hours": null,
    "description": null,
    "requirements": null,
    "scraped_at": "2025-10-31T14:45:38.309216",
    "latitude": 30.0823981,
    "longitude": -90.5585162,
    "geocoded_address": "Reserve, St. John the Baptist Parish, Louisiana, 70084, United States of America",
    "note": "Geocoded to city center (exact address not found)"
  },
  {
    "url": "https://www.foodpantries.org/li/first_baptist_church_of_westlake_70669",
    "name": "First Baptist Church of Westlake",
    "address": "501 Sulphur Ave",
    "city": "Westlake",
    "state": "LA",
    "zip": "70669",
    "phone": null,
    "fax": null,
    "email": null,
    "website": "http://www.freefood.org/",
    "hours": "Tuesday 10:00am - 2:00pm.  Must bring picture Id, proof of income and residency.\nGo To Details Page For More Information",
    "description": null,
    "requirements": null,
    "scraped_at": "2025-10-31T14:45:45.481011",
    "latitude": 30.242263,
    "longitude": -93.25283,
    "geocoded_address": "501, Sulphur Avenue, Westlake, Calcasieu Parish, Louisiana, 70669, United States of America"
  },
  {
    "url": "https://www.foodpantries.org/li/good_hope_missionary_baptist_church_70669",
    "name": "Good Hope Missionary Baptist Church",
    "address": "821 Sampson Street",
    "city": "Westlake",
    "state": "LA",
    "zip": "70669",
    "phone": null,
    "fax": null,
    "email": null,
    "website": "http://www.freefood.org/",
    "hours": "Tuesday 10:00am - 2:00pm.  Must bring picture Id, proof of income and residency.\nGo To Details Page For More Information",
    "description": null,
    "requirements": null,
    "scraped_at": "2025-10-31T14:45:53.179720",
    "latitude": 30.2426896,
    "longitude": -93.2582154,
    "geocoded_address": "821, Sampson Street, Westlake, Calcasieu Parish, Louisiana, 70669, United States of America"
  },
  {
    "url": "https://www.foodpantries.org/li/st_john_community_action_agency_70084",
    "name": "St John Community Action Agency",
    "address": "128 Central Ave",
    "city": "Reserve",
    "state": "LA",
    "zip": "70084",
    "phone": "(985) 536-4955",
    "fax": null,
    "email": null,
    "website": "http://www.freefood.org/",
    "hours": null,
    "description": null,
    "requirements": null,
    "scraped_at": "2025-10-31T14:45:56.052867",
    "latitude": 30.0602866,
    "longitude": -90.5515701,
    "geocoded_address": "128, Central Avenue, Reserve, St. John the Baptist Parish, Louisiana, 70084, United States of America"
  },
  {
    "url": "https://www.foodpantries.org/li/bethlehem_missionary_baptist_church_70068",
    "name": "Bethlehem  Baptist Church",
    "address": "146 E 20th Street",
    "city": "Reserve",
    "state": "LA",
    "zip": "70084",
    "phone": "(985) 536-4357",
    "fax": null,
    "email": null,
    "website": "http://www.freefood.org/",
    "hours": null,
    "description": null,
    "requirements": null,
    "scraped_at": "2025-10-31T14:45:59.121337",
    "latitude": 30.0823981,
    "longitude": -90.5585162,
    "geocoded_address": "Reserve, St. John the Baptist Parish, Louisiana, 70084, United States of America",
    "note": "Geocoded to city center (exact address not found)"
  },
  {
    "url": "https://www.foodpantries.org/li/christian-community-action",
    "name": "Christian Community Action",
    "address": "108 South Bonner Street",
    "city": "Ruston",
    "state": "LA",
    "zip": "71270",
    "phone": "(318) 251-3282",
    "fax": "(318) 251-3792",
    "email": null,
    "website": "http://www.freefood.org/",
    "hours": "Monday - Friday 9:00am - 12:00pmFor more information, please call. \nCounty or Counties Served: Lincoln",
    "description": null,
    "requirements": null,
    "scraped_at": "2025-10-31T14:46:09.311454",
    "latitude": 32.527885,
    "longitude": -92.63702,
    "geocoded_address": "108, South Bonner Street, Ruston, Lincoln Parish, Louisiana, 71270, United States of America"
  },
  {
    "url": "https://www.foodpantries.org/li/youth-on-a-mission-community-center",
    "name": "Youth On A Mission Community Center",
    "address": "910 South Vienna Street, Ste 3",
    "city": "Ruston",
    "state": "LA",
    "zip": "71270",
    "phone": null,
    "fax": null,
    "email": null,
    "website": "http://www.freefood.org/",
    "hours": "1st &3rd Saturdays of each month 8:00am\u00a0 to 10:00am\r\n                                    \r\n                                    County or Counties Served: Lincoln",
    "description": null,
    "requirements": null,
    "scraped_at": "2025-10-31T14:46:13.976136",
    "latitude": 32.5297498,
    "longitude": -92.6386604,
    "geocoded_address": "Ruston, Lincoln Parish, Louisiana, United States of America",
    "note": "Geocoded to city center (exact address not found)"
  },
  {
    "url": "https://www.foodpantries.org/li/winners-circle-distribution-center",
    "name": "Winner's Circle Distribution Center",
    "address": "7425 Broadacres Rd",
    "city": "Shreveport",
    "state": "LA",
    "zip": "71129",
    "phone": "(318) 686-6483",
    "fax": null,
    "email": null,
    "website": "http://www.freefood.org/",
    "hours": "Monday, Tuesday and Thursday9:00am - 12:00pmCall first for appointment and list of requirement. Service area restricted by zip code. Pet Pantry for our clients. If you want to volunteer or donate or appointment.\nCounty or Counties Served: Caddo",
    "description": null,
    "requirements": "Must provide proof of address.  For more information, please call.  \nGo To Details Page For More Information",
    "scraped_at": "2025-10-31T14:46:18.400565",
    "latitude": 32.43653,
    "longitude": -93.8742537,
    "geocoded_address": "7425, Broadacres Road, Broadview, Shreveport, Caddo Parish, Louisiana, 71129, United States of America"
  },
  {
    "url": "https://www.foodpantries.org/li/ms_bay-saint-louis_hancock-county-food-pantry",
    "name": "Hancock County Food Pantry",
    "address": "9972 MS-603",
    "city": "Bay Saint Louis",
    "state": "MS",
    "zip": "39520",
    "phone": "(228) 467-2790",
    "fax": null,
    "email": null,
    "website": "http://www.freefood.org/",
    "hours": "Monday to Friday: 9:00 am to 12:00 pm except on holidays\nMission Statement\r\n               The Pantry\u2019s mission is to provide food and personal hygiene products for low income families living in Hancock County, MS who have an immediate \u201ccrisis or emergency\u201d need for the assistance we can provide.\r\n            \nCounty or Counties Served: Hancock",
    "description": null,
    "requirements": "Name of household. Family size, number of kids & number of seniors.  No other information is needed   \nGo To Details Page For More Information",
    "scraped_at": "2025-10-31T14:46:21.994364",
    "latitude": 30.312553,
    "longitude": -89.3910332,
    "geocoded_address": "9972, MS 43;MS 603, Bay St. Louis, Hancock County, Mississippi, 39520, United States of America"
  },
  {
    "url": "https://www.foodpantries.org/li/open-door-biker-church-food-pantry",
    "name": "Open Door Biker Church Food Pantry and Free Meal",
    "address": "423 West Burton Street",
    "city": "Sulphur",
    "state": "LA",
    "zip": "70663",
    "phone": "(337) 888-3126",
    "fax": null,
    "email": null,
    "website": "http://www.freefood.org/",
    "hours": "Free Lunch - Monday thru Friday & serve at about 11:30a.m. to 12:30p.m. Food Boxes - Once every three months Other items such as clothes, shoes, hygiene - once a weekNotes:Some days they have sandwiches, chips, & a drink but most days\u00a0 serve a full hot meal. \nCounty or Counties Served: Calcasieu",
    "description": null,
    "requirements": "Must be a resident of Sulphur/Carlyss, or have an emergency situation Picture ID, social security cards Proof of residency and income Monthly bills  \nGo To Details Page For More Information",
    "scraped_at": "2025-10-31T14:46:24.387946",
    "latitude": 30.2417091,
    "longitude": -93.3801632,
    "geocoded_address": "Open Door Biker Church, 423, West Burton Street, Portie Town, Sulphur, Calcasieu Parish, Louisiana, 70663, United States of America"
  },
  {
    "url": "https://www.foodpantries.org/li/la_70663_care-help",
    "name": "Care Help of Sulphur Food Pantry",
    "address": "112 East Thomas St",
    "city": "Sulphur",
    "state": "LA",
    "zip": "70663",
    "phone": "(337) 287-4793",
    "fax": "(337) 888-3115",
    "email": null,
    "website": "http://www.freefood.org/",
    "hours": "Monday, Tuesday and Wednesday from 9:00am- 4:00pm.Requirements:Must be a resident of Sulphur/Carlyss, or have an emergency situationPicture ID, social security cardsProof of residency and incomeMonthly bills\nVolunteering Information:Volunteer in person. \nCounty or Counties Served: Calcasieu",
    "description": null,
    "requirements": "Must be a resident of Sulphur/Carlyss, or have an emergency situationPicture ID, social security cardsProof of residency and incomeMonthly bills\nVolunteering Information:Volunteer in person. \nCounty or Counties Served: Calcasieu",
    "scraped_at": "2025-10-31T14:46:26.740540",
    "latitude": 30.2360914,
    "longitude": -93.3769684,
    "geocoded_address": "Care Help Food Pantry, 112, East Thomas Street, Portie Town, Sulphur, Calcasieu Parish, Louisiana, 70663, United States of America"
  },
  {
    "url": "https://www.foodpantries.org/li/westlake_united_methodist_church_70669",
    "name": "Westlake United Methodist Church",
    "address": "704 Johnson St.",
    "city": "Westlake",
    "state": "LA",
    "zip": "70669",
    "phone": null,
    "fax": null,
    "email": null,
    "website": "http://www.freefood.org/",
    "hours": "Tuesday 10:00am - 2:00pm.  Must bring picture Id, proof of income and residency.\nGo To Details Page For More Information",
    "description": null,
    "requirements": null,
    "scraped_at": "2025-10-31T14:46:31.312564",
    "latitude": 30.2413118,
    "longitude": -93.2551995,
    "geocoded_address": "704, Johnson Street, Westlake, Calcasieu Parish, Louisiana, 70669, United States of America"
  }
]