[
  {
    "url": "https://www.foodpantries.org/li/ms_38601_springfield-food-pantry",
    "name": "Springfield Food Pantry",
    "address": "62 County Road 106",
    "city": "Abbeville",
    "state": "MS",
    "zip": "38601",
    "phone": "(662) 801-6468",
    "fax": null,
    "email": null,
    "website": "http://www.freefood.org/",
    "hours": "Every 1st & 3rd Thursdays 10:00am - 12:00pm\r\n                                    Volunteering Information:Call 662-801-6468    or   email: dmalone1211@yahoo.com \nCounty or Counties Served: Lafayette",
    "description": null,
    "requirements": null,
    "scraped_at": "2025-10-31T18:09:30.739836",
    "latitude": 34.5031591,
    "longitude": -89.5031368,
    "geocoded_address": "Abbeville, Lafayette County, Mississippi, United States of America",
    "note": "Geocoded to city center (exact address not found)"
  },
  {
    "url": "https://www.foodpantries.org/li/the_pantry_38665",
    "name": "Oxford The Pantry",
    "address": "713 Molly Barr Road",
    "city": "Oxford",
    "state": "MS",
    "zip": "38665",
    "phone": "(662) 832-8001",
    "fax": null,
    "email": null,
    "website": "http://www.freefood.org/",
    "hours": "Wednesday\r\n 9:00am - 11:00am (under 65) \r\n Thursday\r\n 9:00 - 11:00am (Clients 65 and older)\n\r\nFor more information, please call. \nCounty or Counties Served: Tate",
    "description": null,
    "requirements": null,
    "scraped_at": "2025-10-31T18:09:36.966083",
    "latitude": 34.3746029,
    "longitude": -89.5270133,
    "geocoded_address": "713, Molly Barr Road, Molly Barr Cove, Oxford, Lafayette County, Mississippi, 38655, United States of America"
  },
  {
    "url": "https://www.foodpantries.org/li/jefferson_comprehensive_health_center_39069",
    "name": "Jefferson Comprehensive Health Center",
    "address": "225 Community Dr",
    "city": "Fayette",
    "state": "MS",
    "zip": "39069",
    "phone": null,
    "fax": null,
    "email": null,
    "website": "http://www.freefood.org/",
    "hours": "Wednesday \r\n 9:00am - 11:00am (under 65) \r\n Thursday \r\n 9:00 - 11:00am (Clients 65 and older) \r\n \r\nFor more information, please call.",
    "description": null,
    "requirements": "Must complete an application. Proof of residence in Grenada County. Proof of income.  For more information, please call.  \nGo To Details Page For More Information",
    "scraped_at": "2025-10-31T18:09:40.038028",
    "latitude": 31.7115169,
    "longitude": -91.0606607,
    "geocoded_address": "Fayette, Jefferson County, Mississippi, 39069, United States of America",
    "note": "Geocoded to city center (exact address not found)"
  },
  {
    "url": "https://www.foodpantries.org/li/marshall_county_community_development_corp_38635",
    "name": "Marshall County Community Development Corp",
    "address": "488 Martin Luther King Jr Dr",
    "city": "Holly Springs",
    "state": "MS",
    "zip": "38635",
    "phone": "(662) 252-4688",
    "fax": null,
    "email": null,
    "website": "http://www.freefood.org/",
    "hours": "Tuesday 12:00pm to 2:00pm Saturday 10:00am to 12:00pm  Additional services:  Clothes closet, immediate needs, financial assistance guidance, spiritual guidance. For more information, please \nGo To Details Page For More Information",
    "description": null,
    "requirements": null,
    "scraped_at": "2025-10-31T18:09:43.209193",
    "latitude": 34.7834307,
    "longitude": -89.4575961,
    "geocoded_address": "488, Martin Luther King Jr Drive, Holly Springs, Marshall County, Mississippi, 38635, United States of America"
  },
  {
    "url": "https://www.foodpantries.org/li/hosanna_family_worship_center_38658",
    "name": "Hosanna Family Worship Center",
    "address": "586 Hentz Rd.",
    "city": "Pope",
    "state": "MS",
    "zip": "38658",
    "phone": "(662) 578-8888",
    "fax": null,
    "email": null,
    "website": "http://hosannafwc.net",
    "hours": "Wednesday \r\n 9:00am - 11:00am (under 65) \r\n Thursday \r\n 9:00 - 11:00am (Clients 65 and older) \r\n \r\nFor more information, please call.",
    "description": null,
    "requirements": null,
    "scraped_at": "2025-10-31T18:09:45.596311",
    "latitude": 34.2151108,
    "longitude": -89.9478679,
    "geocoded_address": "Pope, Panola County, Mississippi, United States of America",
    "note": "Geocoded to city center (exact address not found)"
  },
  {
    "url": "https://www.foodpantries.org/li/pleasant_valley_united_methodist_church_39730",
    "name": "Pleasant Valley United Methodist Church",
    "address": "McAllister Road",
    "city": "Aberdeen",
    "state": "MS",
    "zip": "39730",
    "phone": null,
    "fax": null,
    "email": null,
    "website": "http://www.freefood.org/",
    "hours": "1st and 3rd Tuesday of every month at 8:00am to 11:00am. \r\n \r\nFor more information, please call.",
    "description": null,
    "requirements": null,
    "scraped_at": "2025-10-31T18:09:48.816985",
    "latitude": 33.8251139,
    "longitude": -88.5436553,
    "geocoded_address": "Aberdeen, Monroe County, Mississippi, United States of America",
    "note": "Geocoded to city center (exact address not found)"
  },
  {
    "url": "https://www.foodpantries.org/li/ms_39730_aberdeen-loaves-and-fishes-food-pantry",
    "name": "Aberdeen Loaves and Fishes Food Pantry",
    "address": "200 East Canal Street",
    "city": "Aberdeen",
    "state": "MS",
    "zip": "39730",
    "phone": "(662) 304-2003",
    "fax": null,
    "email": null,
    "website": "http://www.freefood.org/",
    "hours": "1st and 3rd Tuesday of every month at 8:00am to 11:00am. \r\n \r\nFor more information, please call.",
    "description": null,
    "requirements": null,
    "scraped_at": "2025-10-31T18:09:52.124373",
    "latitude": 33.826898,
    "longitude": -88.542559,
    "geocoded_address": "200, East Canal Street, Aberdeen, Monroe County, Mississippi, 39730, United States of America"
  },
  {
    "url": "https://www.foodpantries.org/li/amory_food_pantry_38821",
    "name": "Amory Food Pantry",
    "address": "123 S Main Street",
    "city": "Amory",
    "state": "MS",
    "zip": "38821",
    "phone": "(662) 256-5603",
    "fax": null,
    "email": null,
    "website": "http://www.freefood.org/",
    "hours": "1st and 3rd Tuesday of every month at 8:00am to 11:00am.\n\r\nFor more information, please call.",
    "description": null,
    "requirements": null,
    "scraped_at": "2025-10-31T18:09:54.616370",
    "latitude": 33.9850203,
    "longitude": -88.4888343,
    "geocoded_address": "123, South Main Street, Amory, Monroe County, Mississippi, 38821, United States of America"
  },
  {
    "url": "https://www.foodpantries.org/li/living_manna_church_39773",
    "name": "Living Manna Church",
    "address": "941 S Eshman Ave",
    "city": "West Point",
    "state": "MS",
    "zip": "39773",
    "phone": null,
    "fax": null,
    "email": null,
    "website": "http://www.freefood.org/",
    "hours": "the 1st and 3rd Thursday of each month \r\n11:00am to 2:00pm \r\n \r\nFor more information, please call.",
    "description": null,
    "requirements": null,
    "scraped_at": "2025-10-31T18:09:56.709575",
    "latitude": 33.594611,
    "longitude": -88.633217,
    "geocoded_address": "941, South Eshman Avenue, West Point, Clay County, Mississippi, 39773, United States of America"
  },
  {
    "url": "https://www.foodpantries.org/li/faith_food_pantry_38858",
    "name": "FAITH Food Pantry",
    "address": "102 Front Street",
    "city": "Nettleton",
    "state": "MS",
    "zip": "38858",
    "phone": "(662) 963-2646",
    "fax": null,
    "email": null,
    "website": "http://www.freefood.org/",
    "hours": "1st and 3rd Tuesday of every month at 8:00am to 11:00am. \r\n \r\nFor more information, please call.",
    "description": null,
    "requirements": null,
    "scraped_at": "2025-10-31T18:09:58.957363",
    "latitude": 34.089803,
    "longitude": -88.6223964,
    "geocoded_address": "Nettleton, Lee County, Mississippi, United States of America",
    "note": "Geocoded to city center (exact address not found)"
  },
  {
    "url": "https://www.foodpantries.org/li/bread-of-life-columbus-church-of-christ",
    "name": "BREAD of LIFE Food Pantry - Columbus Church of Christ",
    "address": "2401 7th Street North",
    "city": "Columbus",
    "state": "MS",
    "zip": "39705",
    "phone": "(662) 328-6084",
    "fax": null,
    "email": null,
    "website": "http://www.freefood.org/",
    "hours": "the 1st and 3rd Thursday of each month \r\n11:00am to 2:00pm\n\r\nFor more information, please call. \nCounty or Counties Served: Lowndes",
    "description": null,
    "requirements": null,
    "scraped_at": "2025-10-31T18:10:02.017388",
    "latitude": 33.521753,
    "longitude": -88.421082,
    "geocoded_address": "2401, North 7th Street, Briarwood, Columbus, Lowndes County, Mississippi, 39705, United States of America"
  },
  {
    "url": "https://www.foodpantries.org/li/first_assembly_of_god_care_center_39705",
    "name": "First Assembly of God Care Center",
    "address": "2201 Military Rd",
    "city": "Columbus",
    "state": "MS",
    "zip": "39705",
    "phone": null,
    "fax": null,
    "email": null,
    "website": "http://www.freefood.org/",
    "hours": "the 1st and 3rd Thursday of each month \r\n11:00am to 2:00pm \r\n \r\nFor more information, please call.",
    "description": null,
    "requirements": null,
    "scraped_at": "2025-10-31T18:10:04.743084",
    "latitude": 33.520341,
    "longitude": -88.410243,
    "geocoded_address": "2201, Military Road, Columbus, Lowndes County, Mississippi, 39705, United States of America"
  },
  {
    "url": "https://www.foodpantries.org/li/sand_creek_chapel_missionary_baptist_church_39759",
    "name": "Sand Creek Chapel Missionary Baptist Church",
    "address": "1571 Rockhill Rd",
    "city": "Starkville",
    "state": "MS",
    "zip": "39759",
    "phone": "(662) 323-3268",
    "fax": null,
    "email": null,
    "website": "http://www.freefood.org/",
    "hours": "Second Saturday of the month 9:00 am - 11:00 am  For more information, please call.  \nGo To Details Page For More Information",
    "description": null,
    "requirements": null,
    "scraped_at": "2025-10-31T18:10:07.691450",
    "latitude": 33.4966771,
    "longitude": -88.8103868,
    "geocoded_address": "1571, Rockhill Road, Starkville, Oktibbeha County, Mississippi, 39759, United States of America"
  },
  {
    "url": "https://www.foodpantries.org/li/stephens_chapel_baptist_church_39701",
    "name": "Stephens Chapel Baptist Church",
    "address": "2009 6th Ave N",
    "city": "Columbus",
    "state": "MS",
    "zip": "39701",
    "phone": null,
    "fax": null,
    "email": null,
    "website": "http://www.freefood.org/",
    "hours": "the 1st and 3rd Thursday of each month \r\n11:00am to 2:00pm \r\n \r\nFor more information, please call.",
    "description": null,
    "requirements": null,
    "scraped_at": "2025-10-31T18:10:09.701034",
    "latitude": 33.5024249,
    "longitude": -88.4109955,
    "geocoded_address": "2009, North 6th Avenue, Columbus, Lowndes County, Mississippi, 39701, United States of America"
  },
  {
    "url": "https://www.foodpantries.org/li/salvation_army_39701",
    "name": "Salvation Army",
    "address": "2219 Main Street",
    "city": "Columbus",
    "state": "MS",
    "zip": "39701",
    "phone": "(662) 327-5137",
    "fax": null,
    "email": null,
    "website": "http://www.freefood.org/",
    "hours": "the 1st and 3rd Thursday of each month \r\n11:00am to 2:00pm \r\n \r\nFor more information, please call.",
    "description": null,
    "requirements": null,
    "scraped_at": "2025-10-31T18:10:12.444896",
    "latitude": 33.4986335,
    "longitude": -88.4063892,
    "geocoded_address": "2219, Main Street, Columbus, Lowndes County, Mississippi, 39701, United States of America"
  },
  {
    "url": "https://www.foodpantries.org/li/st-joseph-catholic-church-food-pantry",
    "name": "St. Joseph Catholic Church Food Pantry",
    "address": "607 University Drive",
    "city": "Starkville",
    "state": "MS",
    "zip": "39759",
    "phone": "(662) 323-2257",
    "fax": null,
    "email": null,
    "website": "http://www.freefood.org/",
    "hours": "Second Saturday of the month 9:00 am - 11:00 amFor more information, please call. \nCounty or Counties Served: Oktibbeha",
    "description": null,
    "requirements": null,
    "scraped_at": "2025-10-31T18:10:15.228759",
    "latitude": 33.461974,
    "longitude": -88.8035815,
    "geocoded_address": "Saint Joseph Catholic Church, 607, University Drive, College View, The Cotton District, Starkville, Oktibbeha County, Mississippi, 39759, United States of America"
  },
  {
    "url": "https://www.foodpantries.org/li/fulton_methodist_church_38843",
    "name": "Fulton Methodist Church Food Pantry",
    "address": "301 E Main Street",
    "city": "Fulton",
    "state": "MS",
    "zip": "38843",
    "phone": "(662) 862-9530",
    "fax": null,
    "email": null,
    "website": "http://www.freefood.org/",
    "hours": "Saturday 9:00 am - 11:00 am   For more information, please call.  \nGo To Details Page For More Information",
    "description": null,
    "requirements": null,
    "scraped_at": "2025-10-31T18:10:17.506509",
    "latitude": 34.273009,
    "longitude": -88.403747,
    "geocoded_address": "301, East Main Street, Fulton, Itawamba County, Mississippi, 38843, United States of America"
  },
  {
    "url": "https://www.foodpantries.org/li/salvation_army_38804",
    "name": "Salvation Army",
    "address": "527 Carnation St",
    "city": "Tupelo",
    "state": "MS",
    "zip": "38804",
    "phone": null,
    "fax": null,
    "email": null,
    "website": "http://www.freefood.org/",
    "hours": "Saturday 9:00 am - 11:00 am   For more information, please call.  \nGo To Details Page For More Information",
    "description": null,
    "requirements": null,
    "scraped_at": "2025-10-31T18:10:20.623003",
    "latitude": 34.2533655,
    "longitude": -88.7091482,
    "geocoded_address": "527, Carnation Street, Clark Place, Tupelo, Lee County, Mississippi, 38804, United States of America"
  },
  {
    "url": "https://www.foodpantries.org/li/first_united_methodist_church_38804",
    "name": "First United Methodist Church Food Pantry",
    "address": "412 W Main Street",
    "city": "Tupelo",
    "state": "MS",
    "zip": "38802",
    "phone": "(662) 690-8100",
    "fax": "(662) 840-8757",
    "email": null,
    "website": "http://www.freefood.org/",
    "hours": "Saturday9:00 am - 11:00 amFor more information, please call. \nVolunteering Information:https://www.fumctupelo.com/volunteer.html \nCounty or Counties Served: Lee",
    "description": null,
    "requirements": null,
    "scraped_at": "2025-10-31T18:10:22.861384",
    "latitude": 34.2574528,
    "longitude": -88.7073337,
    "geocoded_address": "412, West Main Street, Clark Place, Tupelo, Lee County, Mississippi, 38804, United States of America"
  },
  {
    "url": "https://www.foodpantries.org/li/ms_tupelo_first-united-methodist-church-food-pantry",
    "name": "First United Methodist Church Food Pantry",
    "address": "412 W Main Street",
    "city": "Tupelo",
    "state": "MS",
    "zip": "38804",
    "phone": "(662) 690-8100",
    "fax": null,
    "email": null,
    "website": "http://www.freefood.org/",
    "hours": "Saturdays 9:00 a.m. - 11:00 a.m.\nCounty or Counties Served: Lee",
    "description": null,
    "requirements": null,
    "scraped_at": "2025-10-31T18:10:25.365449",
    "latitude": 34.2574528,
    "longitude": -88.7073337,
    "geocoded_address": "412, West Main Street, Clark Place, Tupelo, Lee County, Mississippi, 38804, United States of America"
  },
  {
    "url": "https://www.foodpantries.org/li/mantachie_methodist_parsonage_38855",
    "name": "Mantachie Methodist Parsonage",
    "address": "90 Pitts Dr",
    "city": "Mantachie",
    "state": "MS",
    "zip": "38855",
    "phone": null,
    "fax": null,
    "email": null,
    "website": "http://www.freefood.org/",
    "hours": "Saturday 9:00 am - 11:00 am   For more information, please call.  \nGo To Details Page For More Information",
    "description": null,
    "requirements": null,
    "scraped_at": "2025-10-31T18:10:27.893285",
    "latitude": 34.3178954,
    "longitude": -88.4903593,
    "geocoded_address": "90, Pitts Drive, Mantachie, Itawamba County, Mississippi, 38855, United States of America"
  },
  {
    "url": "https://www.foodpantries.org/li/st_luke_united_methodist_church_38804",
    "name": "St Luke United Methodist Church",
    "address": "1400 Clayton Ave",
    "city": "Tupelo",
    "state": "MS",
    "zip": "38804",
    "phone": "(662) 687-4500",
    "fax": null,
    "email": null,
    "website": "http://www.freefood.org/",
    "hours": "Saturdays 9:00 a.m. - 11:00 a.m. \nGo To Details Page For More Information",
    "description": null,
    "requirements": null,
    "scraped_at": "2025-10-31T18:10:29.951868",
    "latitude": 34.275645,
    "longitude": -88.724747,
    "geocoded_address": "1400, Clayton Avenue, Francis Subdivision, Tupelo, Lee County, Mississippi, 38804, United States of America"
  },
  {
    "url": "https://www.foodpantries.org/li/anguilla_methodist_church_38721",
    "name": "Anguilla Methodist Church",
    "address": "631 Front Street",
    "city": "Anguilla",
    "state": "MS",
    "zip": "38721",
    "phone": null,
    "fax": null,
    "email": null,
    "website": "http://www.freefood.org/",
    "hours": null,
    "description": null,
    "requirements": null,
    "scraped_at": "2025-10-31T18:10:32.443970",
    "latitude": 32.9732793,
    "longitude": -90.8339586,
    "geocoded_address": "Anguilla United Methodist Church, 631, Front Street, Anguilla, Sharkey County, Mississippi, 38721, United States of America"
  },
  {
    "url": "https://www.foodpantries.org/li/community_health_clinic_38754",
    "name": "Community Health Clinic",
    "address": "102 Julia Street",
    "city": "Isola",
    "state": "MS",
    "zip": "38754",
    "phone": null,
    "fax": null,
    "email": null,
    "website": "http://www.freefood.org/",
    "hours": null,
    "description": null,
    "requirements": null,
    "scraped_at": "2025-10-31T18:10:34.434712",
    "latitude": 33.261899,
    "longitude": -90.5920206,
    "geocoded_address": "102, Julia Street, Isola, Humphreys County, Mississippi, 38754, United States of America"
  },
  {
    "url": "https://www.foodpantries.org/li/leland_food_pantry_38756",
    "name": "Leland Food Pantry",
    "address": "202 N Broad Street",
    "city": "Leland",
    "state": "MS",
    "zip": "38756",
    "phone": "(662) 686-9910",
    "fax": null,
    "email": null,
    "website": "http://www.freefood.org/",
    "hours": "Monday and Thursday: 9:00am - 11:00am \nGo To Details Page For More Information",
    "description": null,
    "requirements": null,
    "scraped_at": "2025-10-31T18:10:36.736726",
    "latitude": 33.4090115,
    "longitude": -90.8943765,
    "geocoded_address": "North Broad Street, Leland, Washington County, Mississippi, 38756, United States of America"
  },
  {
    "url": "https://www.foodpantries.org/li/ms_greenville_hearty-helpings-food-pantry",
    "name": "Hearty Helpings Food Pantry, Hot Meals and Clothing Ministry",
    "address": "749 Main Street",
    "city": "Greenville",
    "state": "MS",
    "zip": "38701",
    "phone": "(662) 335-5554",
    "fax": null,
    "email": null,
    "website": "http://www.freefood.org/",
    "hours": "Monday and Thursday: 9:00am - 11:00am \nGo To Details Page For More Information",
    "description": null,
    "requirements": null,
    "scraped_at": "2025-10-31T18:10:39.569823",
    "latitude": 33.4070053,
    "longitude": -91.0565046,
    "geocoded_address": "749, Main Street, Fanny Arnold Park, Greenville, Washington County, Mississippi, 38701, United States of America"
  },
  {
    "url": "https://www.foodpantries.org/li/st_vincent_de_paul_society_38701",
    "name": "St Vincent De Paul Society",
    "address": "711 Washington Avenue",
    "city": "Greenville",
    "state": "MS",
    "zip": "38701",
    "phone": null,
    "fax": null,
    "email": null,
    "website": "http://www.freefood.org/",
    "hours": "Monday and Thursday: 9:00am - 11:00am \nGo To Details Page For More Information",
    "description": null,
    "requirements": null,
    "scraped_at": "2025-10-31T18:10:42.681982",
    "latitude": 33.4092324,
    "longitude": -91.0571882,
    "geocoded_address": "711, Washington Avenue, Greenville, Washington County, Mississippi, 38701, United States of America"
  },
  {
    "url": "https://www.foodpantries.org/li/salvation_army_38701",
    "name": "Salvation Army",
    "address": "502 N Broadway St",
    "city": "Greenville",
    "state": "MS",
    "zip": "38701",
    "phone": null,
    "fax": null,
    "email": null,
    "website": "http://www.freefood.org/",
    "hours": "Monday and Thursday: 9:00am - 11:00am \nGo To Details Page For More Information",
    "description": null,
    "requirements": null,
    "scraped_at": "2025-10-31T18:10:45.034774",
    "latitude": 33.4168457,
    "longitude": -91.0536691,
    "geocoded_address": "502, North Broadway Street, Greenville, Washington County, Mississippi, 38701, United States of America"
  },
  {
    "url": "https://www.foodpantries.org/li/ms_bay-saint-louis_hancock-county-food-pantry",
    "name": "Hancock County Food Pantry",
    "address": "9972 MS-603",
    "city": "Bay Saint Louis",
    "state": "MS",
    "zip": "39520",
    "phone": "(228) 467-2790",
    "fax": null,
    "email": null,
    "website": "http://www.freefood.org/",
    "hours": "Monday to Friday: 9:00 am to 12:00 pm except on holidays\nMission Statement\r\n               The Pantry\u2019s mission is to provide food and personal hygiene products for low income families living in Hancock County, MS who have an immediate \u201ccrisis or emergency\u201d need for the assistance we can provide.\r\n            \nCounty or Counties Served: Hancock",
    "description": null,
    "requirements": "Name of household. Family size, number of kids & number of seniors.  No other information is needed   \nGo To Details Page For More Information",
    "scraped_at": "2025-10-31T18:10:47.811878",
    "latitude": 30.312553,
    "longitude": -89.3910332,
    "geocoded_address": "9972, MS 43;MS 603, Bay St. Louis, Hancock County, Mississippi, 39520, United States of America"
  },
  {
    "url": "https://www.foodpantries.org/li/long-beach-community-food-pantry-inc",
    "name": "Long Beach Community Food Pantry Inc.",
    "address": "21081 Johnson Road",
    "city": "Long Beach",
    "state": "MS",
    "zip": "39560",
    "phone": "(228) 861-1291",
    "fax": null,
    "email": null,
    "website": "http://www.freefood.org/",
    "hours": "Tuesday & Thursday: 9:00 am to 11:30\u202fam Only able to assist the first 50 Gulfport families. Eligibility is determined according to income and household size.\nGo To Details Page For More Information",
    "description": null,
    "requirements": "Must show proof of residency and monthly income.  Volunteer: Call Sandy at 850-217-7832 or email mltootlefoodpantry@gmail.com. They need help with pickups from Winn Dixie 3 times a w\nGo To Details Page For More Information",
    "scraped_at": "2025-10-31T18:10:50.041254",
    "latitude": 30.3506557,
    "longitude": -89.1889259,
    "geocoded_address": "21081, Johnson Road, Long Beach, Harrison County, Mississippi, 39560, United States of America"
  },
  {
    "url": "https://www.foodpantries.org/li/gulf-coast-community-ministries",
    "name": "Gulf Coast Community Ministries Food Pantry",
    "address": "3916 15th Street",
    "city": "Gulfport",
    "state": "MS",
    "zip": "39501",
    "phone": "(228) 868-8202",
    "fax": "(228) 868-1938",
    "email": null,
    "website": "http://www.freefood.org/",
    "hours": "Tuesday & Thursday: 9:00 am to 11:30\u202famOnly able to assist the first 50 Gulfport families. Eligibility is determined according to income and household size.\r\n                                    \r\n                                    County or Counties Served: Harrison",
    "description": null,
    "requirements": "Must show proof of residency and monthly income.  Volunteer: Call Sandy at 850-217-7832 or email mltootlefoodpantry@gmail.com. They need help with pickups from Winn Dixie 3 times a w\nGo To Details Page For More Information",
    "scraped_at": "2025-10-31T18:10:54.135602",
    "latitude": 30.369328,
    "longitude": -89.1090919,
    "geocoded_address": "3916, 15th Street, Gulfport, Harrison County, Mississippi, 39501, United States of America"
  },
  {
    "url": "https://www.foodpantries.org/li/greater_n_shore_full_gospel_baptist_church_70459",
    "name": "Greater North Shore Full Gospel Baptist Church",
    "address": "840 Voters Rd",
    "city": "Slidell",
    "state": "LA",
    "zip": "70461",
    "phone": "(985) 649-8009",
    "fax": null,
    "email": null,
    "website": "http://www.freefood.org/",
    "hours": "Monday, Wednesday, Thursday, Friday, and Saturday 10:00 am through 4:00 pm  Eligibility:  Services are exclusively for residents of St. Tammany Parish. Kindly ensure you have a state ID with you whenever you are on campus.  Volunteer:  Email volunteer@neworleansmis\nGo To Details Page For More Information",
    "description": null,
    "requirements": null,
    "scraped_at": "2025-10-31T18:10:56.571553",
    "latitude": 30.255809,
    "longitude": -89.7446876,
    "geocoded_address": "840, Voters Road, Slidell, St. Tammany Parish, Louisiana, 70461, United States of America"
  },
  {
    "url": "https://www.foodpantries.org/li/joy_fellowship_church_slidell_70458",
    "name": "Joy Fellowship Church Slidell",
    "address": "1510 West Lindberg Drive",
    "city": "Slidell",
    "state": "LA",
    "zip": "70458",
    "phone": "(985) 326-4569",
    "fax": null,
    "email": null,
    "website": "http://www.freefood.org/",
    "hours": "Monday, Wednesday, Thursday, Friday, and Saturday 10:00 am through 4:00 pm  Eligibility:  Services are exclusively for residents of St. Tammany Parish. Kindly ensure you have a state ID with you whenever you are on campus.  Volunteer:  Email volunteer@neworleansmis\nGo To Details Page For More Information",
    "description": null,
    "requirements": null,
    "scraped_at": "2025-10-31T18:10:58.947525",
    "latitude": 30.2751945,
    "longitude": -89.7811745,
    "geocoded_address": "Slidell, St. Tammany Parish, Louisiana, United States of America",
    "note": "Geocoded to city center (exact address not found)"
  },
  {
    "url": "https://www.foodpantries.org/li/pearl_river_church_of_nazerene_70452",
    "name": "Pearl River Church of Nazerene",
    "address": "64129 LA 41",
    "city": "Pearl River",
    "state": "LA",
    "zip": "70452",
    "phone": "(985) 863-5378",
    "fax": null,
    "email": null,
    "website": "http://www.freefood.org/",
    "hours": "Monday, Wednesday, Thursday, Friday, and Saturday 10:00 am through 4:00 pm  Eligibility:  Services are exclusively for residents of St. Tammany Parish. Kindly ensure you have a state ID with you whenever you are on campus.  Volunteer:  Email volunteer@neworleansmis\nGo To Details Page For More Information",
    "description": null,
    "requirements": "Verification of residency is required. Submit an actual street address; P.O. boxes will not be considered. Adhere to USDA Income Guidelines. Furnish the complete details for all permanent household residents: F\nGo To Details Page For More Information",
    "scraped_at": "2025-10-31T18:11:02.598897",
    "latitude": 30.3624956,
    "longitude": -89.7539516,
    "geocoded_address": "64129, Watts Road, Pearl River, St. Tammany Parish, Louisiana, 70452, United States of America"
  },
  {
    "url": "https://www.foodpantries.org/li/ms_39501_feed-my-sheep",
    "name": "Feed My Sheep",
    "address": "2615 19th Street",
    "city": "Gulfport",
    "state": "MS",
    "zip": "39501",
    "phone": "(228) 864-2701",
    "fax": null,
    "email": null,
    "website": "http://www.freefood.org/",
    "hours": "Monday - Friday 12:00PM - 1:00PM\nVolunteering Information:Contact our number and/or our email for further information on how to volunteer.",
    "description": null,
    "requirements": "Must show proof of residency and monthly income.  Volunteer: Call Sandy at 850-217-7832 or email mltootlefoodpantry@gmail.com. They need help with pickups from Winn Dixie 3 times a w\nGo To Details Page For More Information",
    "scraped_at": "2025-10-31T18:11:05.180238",
    "latitude": 30.3733585,
    "longitude": -89.0941914,
    "geocoded_address": "2615, 19th Street, Gulfport, Harrison County, Mississippi, 39501, United States of America"
  },
  {
    "url": "https://www.foodpantries.org/li/the-salvation-army-ms-gulf-coast",
    "name": "The Salvation Army MS Gulf Coast",
    "address": "2019 22nd Street",
    "city": "Gulfport",
    "state": "MS",
    "zip": "39501",
    "phone": "(228) 374-8301",
    "fax": null,
    "email": null,
    "website": "http://www.freefood.org/",
    "hours": "Monday\r\n1:30 pm\r\nWednesday\r\n1:30 pm\r\nFriday\r\n8:30 am \n\r\nFood from our pantry is given on a first-come, first-serve basis. We open the pantry at the times above and close when we have reached capacity for that time period.",
    "description": null,
    "requirements": "Must show proof of residency and monthly income.  Volunteer: Call Sandy at 850-217-7832 or email mltootlefoodpantry@gmail.com. They need help with pickups from Winn Dixie 3 times a w\nGo To Details Page For More Information",
    "scraped_at": "2025-10-31T18:11:08.046891",
    "latitude": 30.3766423,
    "longitude": -89.0864022,
    "geocoded_address": "2019, 22nd Street, Gulfport, Harrison County, Mississippi, 39501, United States of America"
  },
  {
    "url": "https://www.foodpantries.org/li/ms_gulfport_extended-hands-assembly-of-god-food-pantry",
    "name": "Extended Hands Food Pantry at Assembly of God",
    "address": "16427 Shaw Road",
    "city": "Gulfport",
    "state": "MS",
    "zip": "39503",
    "phone": "(228) 832-3838",
    "fax": null,
    "email": null,
    "website": "http://www.freefood.org/",
    "hours": "Fridays 12:00 pm to 2:00pmNotes:No special requirements needed to receive Food Distribution.No ID required or proof of income.Only requirements:Name of household.Family size, number of kids & number of seniors.No other information is needed\nCounty or Counties Served: Harrison",
    "description": null,
    "requirements": "Name of household.Family size, number of kids & number of seniors.No other information is needed\nCounty or Counties Served: Harrison",
    "scraped_at": "2025-10-31T18:11:10.362345",
    "latitude": 30.3674198,
    "longitude": -89.0928155,
    "geocoded_address": "Gulfport, Harrison County, Mississippi, United States of America",
    "note": "Geocoded to city center (exact address not found)"
  },
  {
    "url": "https://www.foodpantries.org/li/community_christian_concern_70458",
    "name": "Community Christian Concern",
    "address": "2515 Carey Street",
    "city": "Slidell",
    "state": "LA",
    "zip": "70458",
    "phone": "(985) 646-0357",
    "fax": null,
    "email": null,
    "website": "http://www.freefood.org/",
    "hours": "Monday, Wednesday, Thursday, Friday, and Saturday 10:00 am through 4:00 pm  Eligibility:  Services are exclusively for residents of St. Tammany Parish. Kindly ensure you have a state ID with you whenever you are on campus.  Volunteer:  Email volunteer@neworleansmis\nGo To Details Page For More Information",
    "description": null,
    "requirements": null,
    "scraped_at": "2025-10-31T18:11:15.625892",
    "latitude": 30.2691692,
    "longitude": -89.7837944,
    "geocoded_address": "2515, Carey Street, Lincoln Park, Slidell, St. Tammany Parish, Louisiana, 70458, United States of America"
  },
  {
    "url": "https://www.foodpantries.org/li/first-missionary-baptist-church-blessings-ministry",
    "name": "FMBC Blessings Ministry Food Pantry",
    "address": "658 Esters Blvd.",
    "city": "Biloxi",
    "state": "MS",
    "zip": "39530",
    "phone": "(228) 432-7296",
    "fax": null,
    "email": null,
    "website": "http://www.freefood.org/",
    "hours": "Wednesday11:30 am to 12:00pmFor more information, please call. \nCounty or Counties Served: Harrison",
    "description": null,
    "requirements": "Must show proof of residency and monthly income.  Volunteer: Call Sandy at 850-217-7832 or email mltootlefoodpantry@gmail.com. They need help with pickups from Winn Dixie 3 times a w\nGo To Details Page For More Information",
    "scraped_at": "2025-10-31T18:11:18.047780",
    "latitude": 30.398927,
    "longitude": -88.882312,
    "geocoded_address": "658, Esters Boulevard, Biloxi, Harrison County, Mississippi, 39530, United States of America"
  },
  {
    "url": "https://www.foodpantries.org/li/the-lord-is-my-help",
    "name": "The Lord Is My Help Food Kitchen",
    "address": "1205 Desoto Street",
    "city": "Ocean Springs",
    "state": "MS",
    "zip": "39564",
    "phone": "(228) 872-2331",
    "fax": null,
    "email": null,
    "website": "http://www.freefood.org/",
    "hours": "9am -12:30am\nCounty or Counties Served: Jackson\nServices offered: The Lord Is My Help offers 400 hot meals through a cafeteria, and delivery program daily. Emergency groceries are also offered daily.",
    "description": null,
    "requirements": "Must show proof of residency and monthly income.  Volunteer: Call Sandy at 850-217-7832 or email mltootlefoodpantry@gmail.com. They need help with pickups from Winn Dixie 3 times a w\nGo To Details Page For More Information",
    "scraped_at": "2025-10-31T18:11:20.179382",
    "latitude": 30.4141189,
    "longitude": -88.8244768,
    "geocoded_address": "The Lord is My Help, 1205, Desoto Street, Ocean Springs, Jackson County, Mississippi, United States of America"
  },
  {
    "url": "https://www.foodpantries.org/li/ms_39503_gateway-umc-ml-tootle-food-pantry",
    "name": "ML Tootle Food Pantry at Gateway UMC",
    "address": "16020 S.Swan Road",
    "city": "Gulfport",
    "state": "MS",
    "zip": "39503",
    "phone": "(228) 832-0135",
    "fax": null,
    "email": null,
    "website": "http://www.freefood.org/",
    "hours": "Wednesdays 10:00 am - 1:00pm Serves: For residents of zip codes 39503 and 39574.Requirements: Must show proof of residency and monthly income. Volunteer:Call Sandy at 850-217-7832 or email mltootlefoodpantry@gmail.com. They need help with pickups from Winn Dixie 3 times a week, Twelve Baskets twice a month, and other areas throughout the year, need folks for the distribution process from about 9:30 am - 1:30 pm. For more information, please call.\nCounty or Counties Served: Harrison",
    "description": null,
    "requirements": "Must show proof of residency and monthly income. Volunteer:Call Sandy at 850-217-7832 or email mltootlefoodpantry@gmail.com. They need help with pickups from Winn Dixie 3 times a week, Twelve Baskets twice a month, and other areas throughout the year, need folks for the distribution process from about 9:30 am - 1:30 pm. For more information, please call.\nCounty or Counties Served: Harrison",
    "scraped_at": "2025-10-31T18:11:22.487012",
    "latitude": 30.4936985,
    "longitude": -89.1039065,
    "geocoded_address": "16020, South Swan Road, Bulah, Gulfport, Harrison County, Mississippi, 39503, United States of America"
  },
  {
    "url": "https://www.foodpantries.org/li/saucier-community-food-pantry",
    "name": "Saucier Community Food Pantry",
    "address": "24135 Church Avenue",
    "city": "Saucier",
    "state": "MS",
    "zip": "39574",
    "phone": "(228) 832-3737",
    "fax": null,
    "email": null,
    "website": "http://www.freefood.org/",
    "hours": "During the SummerThe first Tuesday of each month and the following Thursday8:00am to 11:00amDuring the Winter9:00 to 12:00 Hours change with daylight savings time. Requirements:New accounts must bring proper ID We serve approximately 200 families per month and welcome any and all non-perishable food items or cash donations.\r\n                                    \r\n                                    County or Counties Served: Harrison",
    "description": null,
    "requirements": "New accounts must bring proper ID We serve approximately 200 families per month and welcome any and all non-perishable food items or cash donations.\r\n                                    \r\n                                    County or Counties Served: Harrison",
    "scraped_at": "2025-10-31T18:11:24.745257",
    "latitude": 30.636216,
    "longitude": -89.1341575,
    "geocoded_address": "24135, Church Avenue, Saucier, Harrison County, Mississippi, 39574, United States of America"
  },
  {
    "url": "https://www.foodpantries.org/li/orange_hill_m_b_church_39041",
    "name": "Orange Hill M B Church",
    "address": "4080 Coxs Ferry Rd",
    "city": "Bolton",
    "state": "MS",
    "zip": "39041",
    "phone": "(601) 866-2187",
    "fax": null,
    "email": null,
    "website": "http://www.freefood.org/",
    "hours": "3rd Saturday of each month from 9am - 10:30am.  \nGo To Details Page For More Information",
    "description": null,
    "requirements": null,
    "scraped_at": "2025-10-31T18:11:27.084325",
    "latitude": 32.3493122,
    "longitude": -90.4600958,
    "geocoded_address": "Bolton, Hinds County, Mississippi, United States of America",
    "note": "Geocoded to city center (exact address not found)"
  },
  {
    "url": "https://www.foodpantries.org/li/sand_hill_missionary_baptist_church_39066",
    "name": "Sand Hill Missionary Baptist Church",
    "address": "5112 Mississippi 22",
    "city": "Edwards",
    "state": "MS",
    "zip": "39066",
    "phone": "(601) 852-4277",
    "fax": null,
    "email": null,
    "website": "http://www.freefood.org/",
    "hours": "3rd Saturday of each month from 9am - 10:30am.  \nGo To Details Page For More Information",
    "description": null,
    "requirements": null,
    "scraped_at": "2025-10-31T18:11:30.289734",
    "latitude": 32.3301465,
    "longitude": -90.6056548,
    "geocoded_address": "Edwards, Hinds County, Mississippi, United States of America",
    "note": "Geocoded to city center (exact address not found)"
  },
  {
    "url": "https://www.foodpantries.org/li/first_church_of_deliverance_39154",
    "name": "First Church Of Deliverance",
    "address": "2405 Raymond Bolton Rd.",
    "city": "Raymond",
    "state": "MS",
    "zip": "39154",
    "phone": "(601) 857-8351",
    "fax": null,
    "email": null,
    "website": "http://www.freefood.org/",
    "hours": "The third Saturday of each month 8:30am and 11:30am  For more information, please call.  \nGo To Details Page For More Information",
    "description": null,
    "requirements": null,
    "scraped_at": "2025-10-31T18:11:34.981547",
    "latitude": 32.2980248,
    "longitude": -90.4620255,
    "geocoded_address": "Raymond Bolton Road, Raymond, Hinds County, Mississippi, 39041, United States of America"
  },
  {
    "url": "https://www.foodpantries.org/li/morrison_heights_baptist_church_39056",
    "name": "MORRISON HEIGHTS BAPTIST CHURCH",
    "address": "3000 Hampstead Boulevard",
    "city": "Clinton",
    "state": "MS",
    "zip": "39056",
    "phone": "(601) 924-5620",
    "fax": null,
    "email": null,
    "website": "http://www.freefood.org/",
    "hours": "Friday 9:00am - 12:00pm  For more information, please call.  \nGo To Details Page For More Information",
    "description": null,
    "requirements": null,
    "scraped_at": "2025-10-31T18:11:37.192281",
    "latitude": 32.320195,
    "longitude": -90.3130212,
    "geocoded_address": "Hampstead Boulevard, Easthaven, Clinton, Hinds County, Mississippi, 39058, United States of America"
  },
  {
    "url": "https://www.foodpantries.org/li/community-animal-rescue-adoption",
    "name": "Community Animal Rescue & Adoption",
    "address": "960 N. Flag Chapel Rd.",
    "city": "Jackson",
    "state": "MS",
    "zip": "39209",
    "phone": "(601) 922-7575",
    "fax": null,
    "email": null,
    "website": "http://carams.org",
    "hours": "Friday 9:00am - 12:00pm  For more information, please call.  \nGo To Details Page For More Information",
    "description": null,
    "requirements": null,
    "scraped_at": "2025-10-31T18:11:39.904492",
    "latitude": 32.3557065,
    "longitude": -90.2655254,
    "geocoded_address": "960, North Flag Chapel Road, Queens Lane, Jackson, Hinds County, Mississippi, 39209, United States of America"
  },
  {
    "url": "https://www.foodpantries.org/li/ms_flora_first-baptist-church-of-flora-food-pantry",
    "name": "First Baptist Church Of Flora Food Pantry",
    "address": "102 Jackson Street",
    "city": "Flora",
    "state": "MS",
    "zip": "39071",
    "phone": "(601) 879-8022",
    "fax": null,
    "email": null,
    "website": "https://fbcflora.org/",
    "hours": "3rd Saturday of each month from 9am - 10:30am. \nCounty or Counties Served: Madison",
    "description": null,
    "requirements": null,
    "scraped_at": "2025-10-31T18:11:42.149880",
    "latitude": 32.5434451,
    "longitude": -90.3131285,
    "geocoded_address": "102, Jackson Street, Flora, Madison County, Mississippi, 39071, United States of America"
  },
  {
    "url": "https://www.foodpantries.org/li/word_of_truth_kingdom_church_39209",
    "name": "Word Of Truth Kingdom Church - Touch One",
    "address": "4491 W Northside Drive",
    "city": "Jackson",
    "state": "MS",
    "zip": "39209",
    "phone": "(601) 923-3325",
    "fax": null,
    "email": null,
    "website": "http://www.freefood.org/",
    "hours": "Friday 9:00am - 12:00pm  For more information, please call.  \nGo To Details Page For More Information",
    "description": null,
    "requirements": null,
    "scraped_at": "2025-10-31T18:11:44.551952",
    "latitude": 32.3560668,
    "longitude": -90.244232,
    "geocoded_address": "4491, West Northside Drive, Northwest Hills, Jackson, Hinds County, Mississippi, 39209, United States of America"
  },
  {
    "url": "https://www.foodpantries.org/li/parkview_church_of_christ_39209",
    "name": "Parkview Church of Christ",
    "address": "5200 Clinton Blvd",
    "city": "Jackson",
    "state": "MS",
    "zip": "39209",
    "phone": null,
    "fax": null,
    "email": null,
    "website": "http://www.freefood.org/",
    "hours": "Friday 9:00am - 12:00pm  For more information, please call.  \nGo To Details Page For More Information",
    "description": null,
    "requirements": null,
    "scraped_at": "2025-10-31T18:11:46.770496",
    "latitude": 32.331657,
    "longitude": -90.263227,
    "geocoded_address": "5200, Clinton Boulevard, Dixon, Jackson, Hinds County, Mississippi, 39209, United States of America"
  },
  {
    "url": "https://www.foodpantries.org/li/christians_united_missionary_baptist_church_39213",
    "name": "Christians United Missionary Baptist Church",
    "address": "5394 Methodist Home Rd",
    "city": "Jackson",
    "state": "MS",
    "zip": "39213",
    "phone": null,
    "fax": null,
    "email": null,
    "website": "http://www.freefood.org/",
    "hours": "Friday 9:00am - 12:00pm  For more information, please call.  \nGo To Details Page For More Information",
    "description": null,
    "requirements": null,
    "scraped_at": "2025-10-31T18:11:49.716566",
    "latitude": 32.3704518,
    "longitude": -90.2225612,
    "geocoded_address": "5394, Methodist Home Road, Jackson, Hinds County, Mississippi, 39213, United States of America"
  },
  {
    "url": "https://www.foodpantries.org/li/south_jackson_seventh_day_adventist_39204",
    "name": "South Jackson Seventh Day Adventist",
    "address": "5125 A Robinson Rd",
    "city": "Jackson",
    "state": "MS",
    "zip": "39204",
    "phone": "(601) 373-7600",
    "fax": null,
    "email": null,
    "website": "http://www.freefood.org/",
    "hours": "Friday 9:00am - 12:00pm  For more information, please call.  \nGo To Details Page For More Information",
    "description": null,
    "requirements": null,
    "scraped_at": "2025-10-31T18:11:51.958343",
    "latitude": 32.274425,
    "longitude": -90.2604179,
    "geocoded_address": "Robinson Road, Colony Square, Bradie, Jackson, Hinds County, Mississippi, 39204, United States of America"
  },
  {
    "url": "https://www.foodpantries.org/li/pinelake_church_39047",
    "name": "Pinelake Church",
    "address": "103 Marshall Rd",
    "city": "Brandon",
    "state": "MS",
    "zip": "39047",
    "phone": null,
    "fax": null,
    "email": null,
    "website": "http://www.freefood.org/",
    "hours": "The 3rd Saturday of every month 9:00am - 10:30am  We also serve emergency cases such as fires, floods, recent releases from jail or rehab from all surrounding counties.  Donation Hours: Monday - Friday 9:00am - 4:\nGo To Details Page For More Information",
    "description": null,
    "requirements": null,
    "scraped_at": "2025-10-31T18:11:54.608867",
    "latitude": 32.2731475,
    "longitude": -89.9868058,
    "geocoded_address": "Brandon, Rankin County, Mississippi, 39042, United States of America",
    "note": "Geocoded to city center (exact address not found)"
  },
  {
    "url": "https://www.foodpantries.org/li/crossgates_baptist_church_39042",
    "name": "Crossgates Baptist Church",
    "address": "8 Crosswoods Rd",
    "city": "Brandon",
    "state": "MS",
    "zip": "39042",
    "phone": "(601) 540-3643",
    "fax": null,
    "email": null,
    "website": "http://www.freefood.org/",
    "hours": "The 3rd Saturday of every month 9:00am - 10:30am  We also serve emergency cases such as fires, floods, recent releases from jail or rehab from all surrounding counties.  Donation Hours: Monday - Friday 9:00am - 4:\nGo To Details Page For More Information",
    "description": null,
    "requirements": null,
    "scraped_at": "2025-10-31T18:11:58.481795",
    "latitude": 32.2869691,
    "longitude": -90.0232658,
    "geocoded_address": "Crossgates Baptist Church, 8, Crosswoods Road, Crossgates, Hunters Woods, Brandon, Rankin County, Mississippi, 39042, United States of America"
  },
  {
    "url": "https://www.foodpantries.org/li/ms_39208_skyway-hills-church-of-christ",
    "name": "Skyway Hills Church of Christ",
    "address": "3800 Hwy 80 E",
    "city": "Pearl",
    "state": "MS",
    "zip": "39208",
    "phone": "(601) 939-5473",
    "fax": "(601) 939-5447",
    "email": null,
    "website": "http://www.freefood.org/",
    "hours": "Saturday of every month9:00am - 10:30am We also serve emergency cases such as fires, floods, recent releases from jail or rehab from all surrounding counties. Donation Hours:Monday - Friday9:00am - 4:00pmExcept during holidaysWe accept donations of clean laundered clothing For more information, please call.",
    "description": null,
    "requirements": null,
    "scraped_at": "2025-10-31T18:12:00.588339",
    "latitude": 32.2735792,
    "longitude": -90.127881,
    "geocoded_address": "Pearl, Rankin County, Mississippi, United States of America",
    "note": "Geocoded to city center (exact address not found)"
  },
  {
    "url": "https://www.foodpantries.org/li/oak_grove_baptist_church_39232",
    "name": "Oak Grove Baptist Church",
    "address": "250 Oak Grove Church Rd",
    "city": "Pearl",
    "state": "MS",
    "zip": "39208",
    "phone": "(601) 932-3812",
    "fax": null,
    "email": null,
    "website": "http://www.freefood.org/",
    "hours": "The 3rd Saturday of every month 9:00am - 10:30am  We also serve emergency cases such as fires, floods, recent releases from jail or rehab from all surrounding counties.  Donation Hours: Monday - Friday 9:00am - 4:\nGo To Details Page For More Information",
    "description": null,
    "requirements": null,
    "scraped_at": "2025-10-31T18:12:04.326413",
    "latitude": 32.2587978,
    "longitude": -90.0721677,
    "geocoded_address": "250, Oak Grove Church Road, Pearl, Rankin County, Mississippi, 39208, United States of America"
  },
  {
    "url": "https://www.foodpantries.org/li/cornerstone_church_39208",
    "name": "Cornerstone Church",
    "address": "1950 Highway 80 E",
    "city": "Pearl",
    "state": "MS",
    "zip": "39208",
    "phone": "(601) 420-4840",
    "fax": "(601) 420-4838",
    "email": null,
    "website": "http://www.cstonems.org",
    "hours": "The 3rd Saturday of every month 9:00am - 10:30am  We also serve emergency cases such as fires, floods, recent releases from jail or rehab from all surrounding counties.  Donation Hours: Monday - Friday 9:00am - 4:\nGo To Details Page For More Information",
    "description": null,
    "requirements": null,
    "scraped_at": "2025-10-31T18:12:06.644923",
    "latitude": 32.2735792,
    "longitude": -90.127881,
    "geocoded_address": "Pearl, Rankin County, Mississippi, United States of America",
    "note": "Geocoded to city center (exact address not found)"
  },
  {
    "url": "https://www.foodpantries.org/li/living_independence_for_everyone_life_39202",
    "name": "Living Independence For Everyone Life",
    "address": "1304 Vine Street",
    "city": "Jackson",
    "state": "MS",
    "zip": "39202",
    "phone": "(601) 969-4009",
    "fax": "(601) 969-1662",
    "email": null,
    "website": "http://www.freefood.org/",
    "hours": "Tuesday and Thursday from 9:00am-11:00am Second Saturday of every month from 10:00AM-11:00am.",
    "description": null,
    "requirements": null,
    "scraped_at": "2025-10-31T18:12:10.215321",
    "latitude": 32.3054015,
    "longitude": -90.1701059,
    "geocoded_address": "1304, Vine Street, Greater Belhaven, Jackson, Hinds County, Mississippi, 39202, United States of America"
  },
  {
    "url": "https://www.foodpantries.org/li/new_vision_outreach_ministry_39211",
    "name": "New Vision Outreach Ministry",
    "address": "5155 Wayneland Dr.",
    "city": "Jackson",
    "state": "MS",
    "zip": "39211",
    "phone": null,
    "fax": null,
    "email": null,
    "website": "http://www.freefood.org/",
    "hours": null,
    "description": null,
    "requirements": null,
    "scraped_at": "2025-10-31T18:12:12.551366",
    "latitude": 32.3702882,
    "longitude": -90.1460461,
    "geocoded_address": "5155, Wayneland Drive, Briarwood, Jackson, Hinds County, Mississippi, 39211, United States of America"
  },
  {
    "url": "https://www.foodpantries.org/li/planting_seeds_outreach_ministry_39206",
    "name": "Planting Seeds Outreach Ministry",
    "address": "5360 Executive Pl",
    "city": "Jackson",
    "state": "MS",
    "zip": "39206",
    "phone": null,
    "fax": null,
    "email": null,
    "website": "http://www.freefood.org/",
    "hours": null,
    "description": null,
    "requirements": null,
    "scraped_at": "2025-10-31T18:12:16.000587",
    "latitude": 32.3724492,
    "longitude": -90.1510624,
    "geocoded_address": "5360, Executive Place, Jackson, Hinds County, Mississippi, 39206, United States of America"
  },
  {
    "url": "https://www.foodpantries.org/li/ms_39202_we-will-go",
    "name": "We Will Go Food Pantry",
    "address": "806 North Farish Street",
    "city": "Jackson",
    "state": "MS",
    "zip": "39202",
    "phone": "(601) 398-2410",
    "fax": null,
    "email": null,
    "website": "http://www.freefood.org/",
    "hours": "Monday 9:30 am - 12:00 pm For more information, please call. \nGo To Details Page For More Information",
    "description": null,
    "requirements": null,
    "scraped_at": "2025-10-31T18:12:18.196388",
    "latitude": 32.3087678,
    "longitude": -90.1885564,
    "geocoded_address": "806, North Farish Street, Farish Street Historic District, Jackson, Hinds County, Mississippi, 39202, United States of America"
  },
  {
    "url": "https://www.foodpantries.org/li/central_united_methodist_church_39202",
    "name": "Central United Methodist Church",
    "address": "500 N Farish St",
    "city": "Jackson",
    "state": "MS",
    "zip": "39202",
    "phone": null,
    "fax": null,
    "email": null,
    "website": "http://www.freefood.org/",
    "hours": "Monday 9:30 am - 12:00 pm For more information, please call. \nGo To Details Page For More Information",
    "description": null,
    "requirements": null,
    "scraped_at": "2025-10-31T18:12:20.777695",
    "latitude": 32.305002,
    "longitude": -90.188519,
    "geocoded_address": "500, North Farish Street, Farish Street Historic District, Jackson, Hinds County, Mississippi, 39202, United States of America"
  },
  {
    "url": "https://www.foodpantries.org/li/new_dimensions_development_foundation_39202",
    "name": "New Dimensions Development Foundation",
    "address": "111 W Monument St",
    "city": "Jackson",
    "state": "MS",
    "zip": "39202",
    "phone": null,
    "fax": null,
    "email": null,
    "website": "http://www.freefood.org/",
    "hours": "Monday 9:30 am - 12:00 pm For more information, please call. \nGo To Details Page For More Information",
    "description": null,
    "requirements": null,
    "scraped_at": "2025-10-31T18:12:25.818818",
    "latitude": 32.3084503,
    "longitude": -90.1889933,
    "geocoded_address": "111, West Monument Street, Farish Street Historic District, Jackson, Hinds County, Mississippi, 39202, United States of America"
  },
  {
    "url": "https://www.foodpantries.org/li/brookhaven-outreach-ministries-south-central-mississippi-food-bank",
    "name": "Brookhaven Outreach Ministries South Central Mississippi Food Bank",
    "address": "101 E Court Street",
    "city": "Brookhaven",
    "state": "MS",
    "zip": "39601",
    "phone": "(601) 833-1350",
    "fax": null,
    "email": null,
    "website": "http://www.freefood.org/",
    "hours": null,
    "description": null,
    "requirements": null,
    "scraped_at": "2025-10-31T18:12:28.894715",
    "latitude": 31.58088,
    "longitude": -90.441593,
    "geocoded_address": "101, East Court Street, Brookhaven, Lincoln County, Mississippi, 39601, United States of America"
  },
  {
    "url": "https://www.foodpantries.org/li/brookhaven_outreach_ministries_south_central_mississippi_foo_",
    "name": "Brookhaven Outreach Ministries South Central Mississippi Foo",
    "address": "101 E Court St\r\n            Brookhaven, MS - \r\n            Phone: 601-833-8889\n\n\n\n\nUser Questions and Answers\r\n     Help our users find out more about Brookhaven Outreach Ministries South Central Mississippi Foo.\nAnswer a question below ONLY IF you know the answer to help people who want more information on Brookhaven Outreach Ministries South Central Mississippi Foo.\n\n\n\n\nHow do I volunteer?\n\n\n\nAnswer\n\n\n\n\n\n\n\n\nDo you know if I can get food delivered to me?\n\n\n\nAnswer\n\n\n\n\n\n\n\n\nDo I need to make an appointment?\n\n\n\nAnswer\n\n\n\n\n\n\n\n\nHow do I make a donation?\n\n\n\nAnswer\n\n\n\n\n\n\n\n\nCan I do my community service hours at this location?\n\n\n\nAnswer\n\n\n\n\n\n\n\n\nWhat type of documentation do I need to apply for food?\n\n\n\nAnswer\n\n\n\n\n\n\n\nBe The First To Make A Review\n\n\nYour opinion matters. Leave A Review Or Edit This Listing for Brookhaven Outreach Ministries South Central Mississippi Foo.\nDo not request help here. Contact the Pantry directly.\n\n\n\n\n\n\n\n\n\n Name (required) \n\n\n\n eMail (will not be published) (required) \n\n\n\n Comment (required)\n\n\n\n\n\n\nSubmit\n\n\n\n\n\n\nPantry Details, hours, photos, information: Brookhaven Outreach Ministries South Central Mississippi Foo\nProvides a food pantry. \r\n                                    \r\n                                                                        \n* Important: Please call the food pantries to confirm that the hours have not changed. We do our best to provide full information and details, but food pantries often change their hours without notifying us. We do not want you to waste your time visiting a pantry that is not open.\n\nDonations And Volunteers\r\n            Please contact us directly by phone to donate and/or volunteer.\r\n            \nNeed More Information\r\n            We always need more information on our pantries. If you know of any details, volunteer information, website, hours or more description information about\r\n            Brookhaven Outreach Ministries South Central Mississippi Foo please add a comment below with information. We will then display this for all visitors on this page.\r\n            \n\n\n\n\n\n\n\n\n\nNearby Area Listings \n\nBethel AME Church - Food Pantry\n\n\n\n\n\n\nView Website and Full Address",
    "city": "Brookhaven",
    "state": "MS",
    "zip": "39601",
    "phone": null,
    "fax": null,
    "email": null,
    "website": "http://www.freefood.org/",
    "hours": null,
    "description": null,
    "requirements": null,
    "scraped_at": "2025-10-31T18:12:31.475068",
    "latitude": 31.5790667,
    "longitude": -90.4407122,
    "geocoded_address": "Brookhaven, Lincoln County, Mississippi, United States of America",
    "note": "Geocoded to city center (exact address not found)"
  },
  {
    "url": "https://www.foodpantries.org/li/beyhel-ame-church-sons-of-allen-food-pantry",
    "name": "Bethel AME Church - Food Pantry",
    "address": "712 South First Street",
    "city": "Brookhaven",
    "state": "MS",
    "zip": "39601",
    "phone": "(601) 833-7740",
    "fax": null,
    "email": null,
    "website": "http://www.freefood.org/",
    "hours": null,
    "description": null,
    "requirements": null,
    "scraped_at": "2025-10-31T18:12:34.890523",
    "latitude": 31.5790667,
    "longitude": -90.4407122,
    "geocoded_address": "Brookhaven, Lincoln County, Mississippi, United States of America",
    "note": "Geocoded to city center (exact address not found)"
  },
  {
    "url": "https://www.foodpantries.org/li/copiah_county_health_dept_39083",
    "name": "Copiah County Health Dept",
    "address": "640 Georgetown Street",
    "city": "Hazlehurst",
    "state": "MS",
    "zip": "39083",
    "phone": "(601) 894-2271",
    "fax": null,
    "email": null,
    "website": "http://www.freefood.org/",
    "hours": "The third Saturday of each month 8:30am and 11:30am  For more information, please call.  \nGo To Details Page For More Information",
    "description": null,
    "requirements": null,
    "scraped_at": "2025-10-31T18:12:38.520263",
    "latitude": 31.872062,
    "longitude": -90.384585,
    "geocoded_address": "640, Georgetown Street, Hazlehurst, Copiah County, Mississippi, 39083, United States of America"
  },
  {
    "url": "https://www.foodpantries.org/li/bethesda_united_methodist_church_39059",
    "name": "Bethesda United Methodist Church",
    "address": "4089 Bethesda Road",
    "city": "Crystal Springs",
    "state": "MS",
    "zip": "39059",
    "phone": "(601) 892-1297",
    "fax": null,
    "email": null,
    "website": "http://www.freefood.org/",
    "hours": "The third Saturday of each month 8:30am and 11:30am  For more information, please call.  \nGo To Details Page For More Information",
    "description": null,
    "requirements": null,
    "scraped_at": "2025-10-31T18:12:40.769376",
    "latitude": 31.9871757,
    "longitude": -90.356182,
    "geocoded_address": "Crystal Springs, Copiah County, Mississippi, 39059, United States of America",
    "note": "Geocoded to city center (exact address not found)"
  },
  {
    "url": "https://www.foodpantries.org/li/st_andrews_mission_clinic_and_community_center_39648",
    "name": "St Andrew's Mission Clinic and Community Center",
    "address": "615 Bendat St.",
    "city": "McComb",
    "state": "MS",
    "zip": "39648",
    "phone": "(601) 250-6830",
    "fax": null,
    "email": null,
    "website": "http://www.freefood.org/",
    "hours": null,
    "description": null,
    "requirements": null,
    "scraped_at": "2025-10-31T18:12:44.057241",
    "latitude": 31.2333537,
    "longitude": -90.4633344,
    "geocoded_address": "Bendat Street, Bear Town, McComb, Pike County, Mississippi, 39648, United States of America"
  },
  {
    "url": "https://www.foodpantries.org/li/st_luke_the_evangelist_38915",
    "name": "St Luke the Evangelist",
    "address": "209 W. Calhoun St.",
    "city": "Bruce",
    "state": "MS",
    "zip": "38915",
    "phone": null,
    "fax": null,
    "email": null,
    "website": "http://www.freefood.org/",
    "hours": "Wednesday \r\n 9:00am - 11:00am (under 65) \r\n Thursday \r\n 9:00 - 11:00am (Clients 65 and older) \r\n \r\nFor more information, please call.",
    "description": null,
    "requirements": null,
    "scraped_at": "2025-10-31T18:12:46.399078",
    "latitude": 33.9913761,
    "longitude": -89.3489376,
    "geocoded_address": "209, West Calhoun Street, Bruce, Calhoun County, Mississippi, 38915, United States of America"
  },
  {
    "url": "https://www.foodpantries.org/li/christian_fellowship_church_38851",
    "name": "Christian Fellowship Church",
    "address": "123 County Road 62",
    "city": "Houston",
    "state": "MS",
    "zip": "38851",
    "phone": null,
    "fax": null,
    "email": null,
    "website": "http://www.freefood.org/",
    "hours": "Saturday 9:00 am - 11:00 am   For more information, please call.  \nGo To Details Page For More Information",
    "description": null,
    "requirements": null,
    "scraped_at": "2025-10-31T18:12:49.129157",
    "latitude": 33.8984461,
    "longitude": -88.9992267,
    "geocoded_address": "Houston, Chickasaw County, Mississippi, 38851, United States of America",
    "note": "Geocoded to city center (exact address not found)"
  },
  {
    "url": "https://www.foodpantries.org/li/potters_house_family_services_38851",
    "name": "Potter's House Family Services",
    "address": "678 N Jefferson St",
    "city": "Houston",
    "state": "MS",
    "zip": "38851",
    "phone": null,
    "fax": null,
    "email": null,
    "website": "http://www.freefood.org/",
    "hours": "Saturday 9:00 am - 11:00 am   For more information, please call.  \nGo To Details Page For More Information",
    "description": null,
    "requirements": null,
    "scraped_at": "2025-10-31T18:12:53.106789",
    "latitude": 33.9056637,
    "longitude": -88.999282,
    "geocoded_address": "678, North Jefferson Street, Houston, Chickasaw County, Mississippi, 38851, United States of America"
  },
  {
    "url": "https://www.foodpantries.org/li/ms_38863_salvation-army-pontotoc-county",
    "name": "Salvation Army Pontotoc County",
    "address": "P.O. Box 267",
    "city": "Pontotoc",
    "state": "MS",
    "zip": "38863",
    "phone": null,
    "fax": null,
    "email": null,
    "website": "http://www.freefood.org/",
    "hours": "Saturdays 9:00 a.m. - 11:00 a.m. \nGo To Details Page For More Information",
    "description": null,
    "requirements": null,
    "scraped_at": "2025-10-31T18:12:55.946088",
    "latitude": 34.2478831,
    "longitude": -88.998673,
    "geocoded_address": "Pontotoc, Pontotoc County, Mississippi, 38863, United States of America",
    "note": "Geocoded to city center (exact address not found)"
  },
  {
    "url": "https://www.foodpantries.org/li/heart-hand-ministries",
    "name": "Hearts & Hands Ministries Food Pantry",
    "address": "32 W Brunswick Street",
    "city": "Byhalia",
    "state": "MS",
    "zip": "38611",
    "phone": "(662) 838-8899",
    "fax": "(662) 838-8899",
    "email": null,
    "website": "http://www.freefood.org/",
    "hours": "Tuesday 12:00pm to 2:00pmSaturday 10:00am to 12:00pmAdditional services:Clothes closet, immediate needs, financial assistance guidance, spiritual guidance.For more information, please call.",
    "description": null,
    "requirements": "Proof of residence and income and ID  For more information, please call.  \nGo To Details Page For More Information",
    "scraped_at": "2025-10-31T18:13:00.481109",
    "latitude": 34.871353,
    "longitude": -89.6881069,
    "geocoded_address": "West Brunswick Street, Byhalia, Marshall County, Mississippi, 38611, United States of America"
  },
  {
    "url": "https://www.foodpantries.org/li/olive_branch_food_ministry_38654",
    "name": "Olive Branch Food Ministry",
    "address": "10947 Highway 178",
    "city": "Olive Branch",
    "state": "MS",
    "zip": "38654",
    "phone": "(662) 895-2913",
    "fax": null,
    "email": null,
    "website": "http://www.freefood.org/",
    "hours": "Tuesday10:00am - 12:00pmThursday6:00pm - 8:00pmFor more information, please call. \nVolunteering Information:https://www.theobfoodpantry.com/volunteer \nCounty or Counties Served: DeSoto",
    "description": null,
    "requirements": "Proof of residence and income and ID  For more information, please call.  \nGo To Details Page For More Information",
    "scraped_at": "2025-10-31T18:13:02.983728",
    "latitude": 34.9333318,
    "longitude": -89.7960262,
    "geocoded_address": "10947, Old Highway 78, Fairhaven, Olive Branch, DeSoto County, Mississippi, 38654, United States of America"
  },
  {
    "url": "https://www.foodpantries.org/li/collierville-food-pantry",
    "name": "Collierville Food Pantry",
    "address": "167 Washington Street",
    "city": "Collierville",
    "state": "TN",
    "zip": "38017",
    "phone": "(901) 853-3235",
    "fax": null,
    "email": null,
    "website": "http://www.freefood.org/",
    "hours": "Thursdays, call for hours.  Pantry Dates and hours varies, please contact the Food Pantry directly for more information.  \nGo To Details Page For More Information",
    "description": null,
    "requirements": "Proof of residence and income and ID  For more information, please call.  \nGo To Details Page For More Information",
    "scraped_at": "2025-10-31T18:13:05.734330",
    "latitude": 35.0425667,
    "longitude": -89.6631295,
    "geocoded_address": "167, Washington Street, Collierville, Shelby County, West Tennessee, Tennessee, 38017, United States of America"
  },
  {
    "url": "https://www.foodpantries.org/li/tn_38057_lagoshen-local-food-pantry-ministry",
    "name": "LaGoshen Local Food Pantry Ministry",
    "address": "490 LaGoshen Drive",
    "city": "Moscow",
    "state": "TN",
    "zip": "38057",
    "phone": "(901) 877-3555",
    "fax": null,
    "email": null,
    "website": "http://www.freefood.org/",
    "hours": "Tuesday 12:00pm to 2:00pm Saturday 10:00am to 12:00pm  Additional services:  Clothes closet, immediate needs, financial assistance guidance, spiritual guidance. For more information, please \nGo To Details Page For More Information",
    "description": null,
    "requirements": null,
    "scraped_at": "2025-10-31T18:13:09.270003",
    "latitude": 35.0619984,
    "longitude": -89.4039612,
    "geocoded_address": "Moscow, Fayette County, West Tennessee, Tennessee, 38057, United States of America",
    "note": "Geocoded to city center (exact address not found)"
  },
  {
    "url": "https://www.foodpantries.org/li/tn_memphis_holy-spirits-loaves-and-fishes-food-pantry",
    "name": "Loaves and Fishes Food Pantry at Church of the Holy Spirit",
    "address": "2300 Hickory Crest Drive",
    "city": "Memphis",
    "state": "TN",
    "zip": "38119",
    "phone": "(901) 754-7146",
    "fax": null,
    "email": null,
    "website": "http://www.hspirit.com/",
    "hours": "Thursdays, call for hours.Pantry Dates and hours varies, please contact the Food Pantry directly for more information.\nCounty or Counties Served: Shelby",
    "description": null,
    "requirements": "Proof of residence and income and ID  For more information, please call.  \nGo To Details Page For More Information",
    "scraped_at": "2025-10-31T18:13:12.615439",
    "latitude": 35.087105,
    "longitude": -89.8329374,
    "geocoded_address": "2300, Hickory Crest Drive, Greenlawn, Memphis, Shelby County, West Tennessee, Tennessee, 38119, United States of America"
  },
  {
    "url": "https://www.foodpantries.org/li/the-memphis-tn-food-bank",
    "name": "Mid- South Food Bank",
    "address": "3865 South Perkins Rd",
    "city": "Memphis",
    "state": "TN",
    "zip": "38118",
    "phone": "(901) 527-0841",
    "fax": null,
    "email": null,
    "website": "http://www.freefood.org/",
    "hours": "Monday - Wednesday 10:00am - 1:30pm  Requirements: Proof of residence and income and ID  For more information, please call.",
    "description": null,
    "requirements": "Proof of residence and income and ID  For more information, please call.  \nGo To Details Page For More Information",
    "scraped_at": "2025-10-31T18:13:14.984858",
    "latitude": 35.0425576,
    "longitude": -89.9091715,
    "geocoded_address": "3865, South Perkins Road, Memphis, Shelby County, West Tennessee, Tennessee, 38118, United States of America"
  },
  {
    "url": "https://www.foodpantries.org/li/hartland-hands",
    "name": "HartLand Hands",
    "address": "385 Stateline Rd East",
    "city": "Southaven",
    "state": "MS",
    "zip": "38671",
    "phone": "(662) 280-5365",
    "fax": null,
    "email": null,
    "website": "http://www.freefood.org/",
    "hours": "Monday - Wednesday 10:00am - 1:30pm  Requirements: Proof of residence and income and ID  For more information, please call.  \nGo To Details Page For More Information",
    "description": null,
    "requirements": "Proof of residence and income and ID  For more information, please call.  \nGo To Details Page For More Information",
    "scraped_at": "2025-10-31T18:13:17.461331",
    "latitude": 34.9917546,
    "longitude": -89.9632818,
    "geocoded_address": "Stateline Road East, Southaven, DeSoto County, Mississippi, 38671, United States of America"
  },
  {
    "url": "https://www.foodpantries.org/li/samaritans_38637",
    "name": "Samaritans",
    "address": "2600 Goodman Rd W",
    "city": "Horn Lake",
    "state": "MS",
    "zip": "38637",
    "phone": "(662) 393-6439",
    "fax": null,
    "email": null,
    "website": "http://www.freefood.org/",
    "hours": "Monday - Wednesday10:00am - 1:30pmRequirements:Proof of residence and income and ID For more information, please call. \nCounty or Counties Served: DeSoto",
    "description": null,
    "requirements": "Proof of residence and income and ID For more information, please call. \nCounty or Counties Served: DeSoto",
    "scraped_at": "2025-10-31T18:13:19.796392",
    "latitude": 34.962721,
    "longitude": -90.03688,
    "geocoded_address": "2600, Goodman Road West, Horn Lake, DeSoto County, Mississippi, 38637, United States of America"
  },
  {
    "url": "https://www.foodpantries.org/li/holy-trinity-community-church",
    "name": "Holy Trinity Community Church Food Pantry",
    "address": "685 S Highland Street",
    "city": "Memphis",
    "state": "TN",
    "zip": "38111",
    "phone": "(901) 320-9376",
    "fax": null,
    "email": null,
    "website": "http://www.freefood.org/",
    "hours": "Monday: 9:00am - 12:00pmExcluding national holidays. The Holy Trinity Food Pantry will not be open during inclement weather when the Shelby Co or Memphis City Schools close due to severe weather conditions.Food donations may be dropped off at the church office. For more information, please call.\nCounty or Counties Served: Shelby",
    "description": null,
    "requirements": "Proof of residence and income and ID  For more information, please call.  \nGo To Details Page For More Information",
    "scraped_at": "2025-10-31T18:13:22.273947",
    "latitude": 35.1128596,
    "longitude": -89.9459482,
    "geocoded_address": "685, South Highland Street, Memphis, Shelby County, West Tennessee, Tennessee, 38111, United States of America"
  },
  {
    "url": "https://www.foodpantries.org/li/heritage_baptist_church_39272",
    "name": "Heritage Baptist Church",
    "address": "5911 Terry Rd",
    "city": "Byram",
    "state": "MS",
    "zip": "39272",
    "phone": "(601) 373-2708",
    "fax": null,
    "email": null,
    "website": "http://www.hbcbyram.com",
    "hours": "The third Saturday of each month 8:30am and 11:30am  For more information, please call.  \nGo To Details Page For More Information",
    "description": null,
    "requirements": null,
    "scraped_at": "2025-10-31T18:13:25.942342",
    "latitude": 32.1809219,
    "longitude": -90.2662522,
    "geocoded_address": "5911, Terry Road, New Byram, Hinds County, Mississippi, 39272, United States of America"
  },
  {
    "url": "https://www.foodpantries.org/li/hands_and_feet_food_pantry_co_crossroads_of_life",
    "name": "Hands and Feet Food Pantry - Crossroads of Life",
    "address": "6775 Siwell Road",
    "city": "Jackson",
    "state": "MS",
    "zip": "39272",
    "phone": "(601) 373-6230",
    "fax": null,
    "email": null,
    "website": "http://www.freefood.org/",
    "hours": "The third Saturday of each month8:30am and 11:30amFor more information, please call.\nCounty or Counties Served: Hinds",
    "description": null,
    "requirements": null,
    "scraped_at": "2025-10-31T18:13:28.734887",
    "latitude": 32.2266612,
    "longitude": -90.3003106,
    "geocoded_address": "South Siwell Road, Siwel, Jackson, Hinds County, Mississippi, 39272, United States of America"
  },
  {
    "url": "https://www.foodpantries.org/li/emmanuel_missionary_baptist_church_39212",
    "name": "Emmanuel Missionary Baptist Church",
    "address": "1109 Cooper Road",
    "city": "Jackson",
    "state": "MS",
    "zip": "39212",
    "phone": "(601) 371-8855",
    "fax": null,
    "email": null,
    "website": "http://www.freefood.org/",
    "hours": "The third Saturday of each month 8:30am and 11:30am  For more information, please call.  \nGo To Details Page For More Information",
    "description": null,
    "requirements": null,
    "scraped_at": "2025-10-31T18:13:30.942591",
    "latitude": 32.2523454,
    "longitude": -90.2602692,
    "geocoded_address": "1109, Cooper Road, Woodville Heights, Windsor Forest, Jackson, Hinds County, Mississippi, 39212, United States of America"
  },
  {
    "url": "https://www.foodpantries.org/li/turning_point_mission_center_39204",
    "name": "Turning Point Mission Center",
    "address": "1814 Shady Lane Drive",
    "city": "Jackson",
    "state": "MS",
    "zip": "39204",
    "phone": "(601) 372-1080",
    "fax": null,
    "email": null,
    "website": "http://www.freefood.org/",
    "hours": "Monday 9:30 am - 12:00 pm For more information, please call. \nGo To Details Page For More Information",
    "description": null,
    "requirements": null,
    "scraped_at": "2025-10-31T18:13:33.470587",
    "latitude": 32.2836336,
    "longitude": -90.2371589,
    "geocoded_address": "1814, Shady Lane Drive, Garden Park, Jackson, Hinds County, Mississippi, 39204, United States of America"
  },
  {
    "url": "https://www.foodpantries.org/li/alta_woods_united_methodist_church_39204",
    "name": "Alta Woods United Methodist Church",
    "address": "109 Alta Woods Blvd",
    "city": "Jackson",
    "state": "MS",
    "zip": "39204",
    "phone": null,
    "fax": null,
    "email": null,
    "website": "http://www.freefood.org/",
    "hours": "Monday 9:30 am - 12:00 pm For more information, please call. \nGo To Details Page For More Information",
    "description": null,
    "requirements": null,
    "scraped_at": "2025-10-31T18:13:35.930832",
    "latitude": 32.2764131,
    "longitude": -90.2166831,
    "geocoded_address": "109, Alta Woods Boulevard, Alta Woods, Jackson, Hinds County, Mississippi, 39204, United States of America"
  },
  {
    "url": "https://www.foodpantries.org/li/southside_assembly_of_god_39204",
    "name": "Southside Assembly of God",
    "address": "665 Raymond Rd",
    "city": "Jackson",
    "state": "MS",
    "zip": "39204",
    "phone": null,
    "fax": null,
    "email": null,
    "website": "http://www.freefood.org/",
    "hours": "Monday 9:30 am - 12:00 pm For more information, please call. \nGo To Details Page For More Information",
    "description": null,
    "requirements": null,
    "scraped_at": "2025-10-31T18:13:38.722297",
    "latitude": 32.2829515,
    "longitude": -90.2266156,
    "geocoded_address": "665, Raymond Road, Jackson, Hinds County, Mississippi, 39204, United States of America"
  },
  {
    "url": "https://www.foodpantries.org/li/deliver_me_senior_support_services_39201",
    "name": "Deliver Me Senior Support Services",
    "address": "1405 S Gallatin St",
    "city": "Jackson",
    "state": "MS",
    "zip": "39201",
    "phone": null,
    "fax": null,
    "email": null,
    "website": "http://www.freefood.org/",
    "hours": "Monday 9:30 am - 12:00 pm For more information, please call. \nGo To Details Page For More Information",
    "description": null,
    "requirements": null,
    "scraped_at": "2025-10-31T18:13:40.997759",
    "latitude": 32.2850506,
    "longitude": -90.1930129,
    "geocoded_address": "1405, South Gallatin Street, Jackson, Hinds County, Mississippi, 39203, United States of America"
  },
  {
    "url": "https://www.foodpantries.org/li/college_hill_baptist_church_39204",
    "name": "College Hill Baptist Church",
    "address": "1600 Florence Avenue",
    "city": "Jackson",
    "state": "MS",
    "zip": "39204",
    "phone": null,
    "fax": null,
    "email": null,
    "website": "http://www.freefood.org/",
    "hours": "Monday 9:30 am - 12:00 pm For more information, please call. \nGo To Details Page For More Information",
    "description": null,
    "requirements": null,
    "scraped_at": "2025-10-31T18:13:43.667522",
    "latitude": 32.293879,
    "longitude": -90.211602,
    "geocoded_address": "1600, Florence Avenue, Washington Addition, Jackson, Hinds County, Mississippi, 39204, United States of America"
  },
  {
    "url": "https://www.foodpantries.org/li/epiphany_lutheran_church_39203",
    "name": "Epiphany Lutheran Church",
    "address": "1230 Isaiah Montgomery St",
    "city": "Jackson",
    "state": "MS",
    "zip": "39203",
    "phone": null,
    "fax": null,
    "email": null,
    "website": "http://www.freefood.org/",
    "hours": "Monday 9:30 am - 12:00 pm For more information, please call. \nGo To Details Page For More Information",
    "description": null,
    "requirements": null,
    "scraped_at": "2025-10-31T18:13:46.204190",
    "latitude": 32.2998686,
    "longitude": -90.1830408,
    "geocoded_address": "Jackson, Hinds County, Mississippi, United States of America",
    "note": "Geocoded to city center (exact address not found)"
  },
  {
    "url": "https://www.foodpantries.org/li/our_daily_bread_ministries_39046",
    "name": "Our Daily Bread Ministries",
    "address": "505 S Union St",
    "city": "Canton",
    "state": "MS",
    "zip": "39046",
    "phone": null,
    "fax": null,
    "email": null,
    "website": "http://www.freefood.org/",
    "hours": "3rd Saturday of each month from 9am - 10:30am.  \nGo To Details Page For More Information",
    "description": null,
    "requirements": null,
    "scraped_at": "2025-10-31T18:13:50.938966",
    "latitude": 32.6055421,
    "longitude": -90.0363158,
    "geocoded_address": "505, South Union Street, Canton, Madison County, Mississippi, 39046, United States of America"
  },
  {
    "url": "https://www.foodpantries.org/li/madcapp_food_pantry_madison_39046",
    "name": "MADCAPP Food Pantry Madison",
    "address": "181 Watford Pkwy Drive",
    "city": "Canton",
    "state": "MS",
    "zip": "39046",
    "phone": "(601) 407-1404",
    "fax": null,
    "email": null,
    "website": "http://www.madcaap.org",
    "hours": "3rd Saturday of each month from 9am - 10:30am.  \nGo To Details Page For More Information",
    "description": null,
    "requirements": null,
    "scraped_at": "2025-10-31T18:13:54.770065",
    "latitude": 32.612602,
    "longitude": -90.0367512,
    "geocoded_address": "Canton, Madison County, Mississippi, 39046, United States of America",
    "note": "Geocoded to city center (exact address not found)"
  },
  {
    "url": "https://www.foodpantries.org/li/anderson_united_methodist_church_39206",
    "name": "Anderson United Methodist Church",
    "address": "6205 Hanging Moss Rd",
    "city": "Jackson",
    "state": "MS",
    "zip": "39206",
    "phone": null,
    "fax": null,
    "email": null,
    "website": "http://www.freefood.org/",
    "hours": null,
    "description": null,
    "requirements": null,
    "scraped_at": "2025-10-31T18:13:59.279042",
    "latitude": 32.3944259,
    "longitude": -90.1794627,
    "geocoded_address": "6205, Hanging Moss Road, Woodhaven, Jackson, Hinds County, Mississippi, 39206, United States of America"
  },
  {
    "url": "https://www.foodpantries.org/li/salvation_army_39206",
    "name": "Salvation Army",
    "address": "110 Presto Lane",
    "city": "Jackson",
    "state": "MS",
    "zip": "39206",
    "phone": "(601) 982-4881",
    "fax": "(601) 982-4689",
    "email": null,
    "website": "http://www.freefood.org/",
    "hours": null,
    "description": null,
    "requirements": null,
    "scraped_at": "2025-10-31T18:14:01.951038",
    "latitude": 32.3787534,
    "longitude": -90.1627384,
    "geocoded_address": "110, Presto Lane, Jackson, Hinds County, Mississippi, 39206, United States of America"
  },
  {
    "url": "https://www.foodpantries.org/li/center_ridge_baptist_church_39194",
    "name": "Center Ridge Baptist Church",
    "address": "3150 Center Ridge Rd",
    "city": "Yazoo City",
    "state": "MS",
    "zip": "39194",
    "phone": "(662) 746-1528",
    "fax": null,
    "email": null,
    "website": "http://www.freefood.org/",
    "hours": "Every 2nd Friday of the month starting at 10:00 AM\nGo To Details Page For More Information",
    "description": null,
    "requirements": null,
    "scraped_at": "2025-10-31T18:14:04.524324",
    "latitude": 32.84569,
    "longitude": -90.4146109,
    "geocoded_address": "Yazoo City, Yazoo County, Mississippi, 39194, United States of America",
    "note": "Geocoded to city center (exact address not found)"
  },
  {
    "url": "https://www.foodpantries.org/li/ms_39213_everscare-food-pantry",
    "name": "EversCare Food Pantry - Myrlie Evers-Williams Institute for the Elimation of Health Disparities",
    "address": "2548 Livingston Road",
    "city": "Jackson",
    "state": "MS",
    "zip": "39213",
    "phone": "(601) 815-3535",
    "fax": null,
    "email": null,
    "website": "http://www.freefood.org/",
    "hours": "Friday 9:00am - 12:00pm  For more information, please call.  \nGo To Details Page For More Information",
    "description": null,
    "requirements": null,
    "scraped_at": "2025-10-31T18:14:07.593758",
    "latitude": 32.3327212,
    "longitude": -90.1970321,
    "geocoded_address": "2548, Livingston Road, Jackson, Hinds County, Mississippi, 39213, United States of America"
  },
  {
    "url": "https://www.foodpantries.org/li/missions_carthage_food-pantry",
    "name": "Mission Carthage Food Pantry",
    "address": "940 E. Sabine",
    "city": "Carthage",
    "state": "MS",
    "zip": "75633",
    "phone": "(903) 693-4402",
    "fax": "(903) 693-3627",
    "email": null,
    "website": "http://www.freefood.org/",
    "hours": "Monday thru. Friday 9.00 am 5:pm  Scheduled visit non-perishables, the staple food. For more information, please call.  \nGo To Details Page For More Information",
    "description": null,
    "requirements": null,
    "scraped_at": "2025-10-31T18:14:09.614673",
    "latitude": 32.1570412,
    "longitude": -94.338114,
    "geocoded_address": "Carthage, Panola County, Texas, 75633, United States of America",
    "note": "Geocoded to city center (exact address not found)"
  },
  {
    "url": "https://www.foodpantries.org/li/ms_39189_community-outreach-services-leake-county-inc",
    "name": "Community Outreach Services",
    "address": "242 Main Street",
    "city": "Walnut Grove",
    "state": "MS",
    "zip": "39189",
    "phone": "(601) 253-2396",
    "fax": null,
    "email": null,
    "website": "http://www.freefood.org/",
    "hours": "Monday thru.  Friday 9.00 am 5:pm  Scheduled visit non-perishables, the staple food. For more information, please call. \nVolunteering Information:We are always looking for good helpers. 601-253-2396 \nCounty or Counties Served: Leake",
    "description": null,
    "requirements": null,
    "scraped_at": "2025-10-31T18:14:13.233353",
    "latitude": 32.6041477,
    "longitude": -89.459844,
    "geocoded_address": "242, Main Street, Walnut Grove, Leake County, Mississippi, 39189, United States of America"
  },
  {
    "url": "https://www.foodpantries.org/li/ms_walnut-grove_central-mississippi-food-pantry",
    "name": "Central Mississippi Food Pantry",
    "address": "109 Main Street",
    "city": "Walnut Grove",
    "state": "MS",
    "zip": "39189",
    "phone": "(601) 278-7666",
    "fax": null,
    "email": null,
    "website": "http://www.freefood.org/",
    "hours": "Every 4th Saturday of the month from 9:00am to 11:00am\nCounty or Counties Served: Leake",
    "description": null,
    "requirements": null,
    "scraped_at": "2025-10-31T18:14:15.638173",
    "latitude": 32.5935663,
    "longitude": -89.4593498,
    "geocoded_address": "109, Main Street, Walnut Grove, Leake County, Mississippi, 39189, United States of America"
  },
  {
    "url": "https://www.foodpantries.org/li/helping_hands_ministries_39090",
    "name": "Helping Hands Ministries",
    "address": "14117 Attala Road 4202",
    "city": "Kosciusko",
    "state": "MS",
    "zip": "39090",
    "phone": "(662) 289-7031",
    "fax": null,
    "email": null,
    "website": "http://www.freefood.org/",
    "hours": "Monday to Friday from 9:00am to 3:45am Mission Carthage serve Panola County, helping with food, clothing, utility assistance, medications and more.",
    "description": null,
    "requirements": null,
    "scraped_at": "2025-10-31T18:14:17.798753",
    "latitude": 33.0576295,
    "longitude": -89.5875764,
    "geocoded_address": "Kosciusko, Attala County, Mississippi, 39090, United States of America",
    "note": "Geocoded to city center (exact address not found)"
  },
  {
    "url": "https://www.foodpantries.org/li/ephesus_baptist_church_39074",
    "name": "Ephesus Baptist Church",
    "address": "3535 Ephesus Rd",
    "city": "Forest",
    "state": "MS",
    "zip": "39074",
    "phone": "(601) 469-1107",
    "fax": null,
    "email": null,
    "website": "http://www.freefood.org/",
    "hours": "12:00pm to 2:00pm  Additional Services:  Senior Citizens Day, they give a Free hot meal, bingo games and educational workshops during the same time as t\nGo To Details Page For More Information",
    "description": null,
    "requirements": null,
    "scraped_at": "2025-10-31T18:14:21.231180",
    "latitude": 32.3645888,
    "longitude": -89.4742348,
    "geocoded_address": "Forest, Scott County, Mississippi, United States of America",
    "note": "Geocoded to city center (exact address not found)"
  },
  {
    "url": "https://www.foodpantries.org/li/st_james_temple_church_of_god_in_christ_mission_38614",
    "name": "St James Temple Church of God In Christ Mission",
    "address": "397 Sunflower Ave",
    "city": "Clarksdale",
    "state": "MS",
    "zip": "38614",
    "phone": null,
    "fax": null,
    "email": null,
    "website": "http://www.freefood.org/",
    "hours": "Monday - Friday 8:00am - 5:00pm For more information, please call. \nGo To Details Page For More Information",
    "description": null,
    "requirements": null,
    "scraped_at": "2025-10-31T18:14:24.719287",
    "latitude": 34.1978536,
    "longitude": -90.5742422,
    "geocoded_address": "397, Sunflower Avenue, Riverton, Clarksdale, Coahoma County, Mississippi, 38614, United States of America"
  },
  {
    "url": "https://www.foodpantries.org/li/mid-delta_community_services_72342",
    "name": "Mid-delta Community Services",
    "address": "610 South Bisco Street",
    "city": "Helena",
    "state": "AR",
    "zip": "72342",
    "phone": "(870) 338-6406",
    "fax": "(870) 338-3629",
    "email": null,
    "website": "http://www.freefood.org/",
    "hours": "Monday - Friday 8:00am - 5:00pmFor more information, please call. \nCounty or Counties Served: Phillips",
    "description": null,
    "requirements": null,
    "scraped_at": "2025-10-31T18:14:26.939504",
    "latitude": 34.5266746,
    "longitude": -90.586274,
    "geocoded_address": "Helena, Helena-West Helena, Phillips County, Arkansas, 72342, United States of America",
    "note": "Geocoded to city center (exact address not found)"
  },
  {
    "url": "https://www.foodpantries.org/li/marion_county_food_pantry_39429",
    "name": "Marion County Food Pantry",
    "address": "151 South H School St.",
    "city": "Columbia",
    "state": "MS",
    "zip": "39429",
    "phone": null,
    "fax": null,
    "email": null,
    "website": "http://www.freefood.org/",
    "hours": "Monday - Friday 8:00 am - 4:30 pm  For more information, please call.  \nGo To Details Page For More Information",
    "description": null,
    "requirements": null,
    "scraped_at": "2025-10-31T18:14:30.303905",
    "latitude": 31.2518582,
    "longitude": -89.8353099,
    "geocoded_address": "Columbia, Marion County, Mississippi, United States of America",
    "note": "Geocoded to city center (exact address not found)"
  },
  {
    "url": "https://www.foodpantries.org/li/angels_of_grace_the_family_center_72342",
    "name": "Angels of Grace - The Family Center",
    "address": "406 Pecan Street",
    "city": "Helena",
    "state": "AR",
    "zip": "72342",
    "phone": "(870) 338-8447",
    "fax": "(870) 338-8048",
    "email": null,
    "website": "http://www.freefood.org/",
    "hours": "Monday - Friday 8:00 am - 4:30 pmFor more information, please call. \nCounty or Counties Served: Phillips",
    "description": null,
    "requirements": null,
    "scraped_at": "2025-10-31T18:14:35.234694",
    "latitude": 34.5264929,
    "longitude": -90.5882944,
    "geocoded_address": "406, Pecan Street, Helena, Helena-West Helena, Phillips County, Arkansas, 72342, United States of America"
  },
  {
    "url": "https://www.foodpantries.org/li/grace_community_food_pantry-_first_presbyterian_church_72342",
    "name": "Grace Community Food Pantry- First Presbyterian Church",
    "address": "520 Walnut Street",
    "city": "Helena",
    "state": "AR",
    "zip": "72342",
    "phone": null,
    "fax": null,
    "email": null,
    "website": "http://www.freefood.org/",
    "hours": "Thursday: 8:00am - 11:00am\r\n                                    \r\n                                                                        \n* Important: Please call the food pantries to confirm that the hours have not changed. We do our best to provide full information and details, but food pantries often change their hours without notifying us. We do not want you to waste your time visiting a pantry that is not open.",
    "description": null,
    "requirements": null,
    "scraped_at": "2025-10-31T18:14:37.485964",
    "latitude": 34.5272618,
    "longitude": -90.5872707,
    "geocoded_address": "520, Walnut Street, Helena, Helena-West Helena, Phillips County, Arkansas, 72342, United States of America"
  },
  {
    "url": "https://www.foodpantries.org/li/gods-house-a-safe-place-to-come-home-to-outreach-ministries",
    "name": "Gods House A Safe Place To Come Home To Outreach Ministries",
    "address": "309 Cresent Drive",
    "city": "West Helena",
    "state": "AR",
    "zip": "72390",
    "phone": null,
    "fax": null,
    "email": null,
    "website": "http://www.freefood.org/",
    "hours": "Mondays through Fridays 8:00am - 4:00pm\nGo To Details Page For More Information",
    "description": null,
    "requirements": null,
    "scraped_at": "2025-10-31T18:14:40.217087",
    "latitude": 34.5440124,
    "longitude": -90.6426195,
    "geocoded_address": "West Helena, Helena-West Helena, Phillips County, Arkansas, 72390, United States of America",
    "note": "Geocoded to city center (exact address not found)"
  },
  {
    "url": "https://www.foodpantries.org/li/church_of_the_living_god_72390",
    "name": "Church of The Living God",
    "address": "700 East Park Avenue",
    "city": "West Helena",
    "state": "AR",
    "zip": "72390",
    "phone": null,
    "fax": null,
    "email": null,
    "website": "http://www.freefood.org/",
    "hours": "Mondays through Fridays 8:00am - 4:00pm\nGo To Details Page For More Information",
    "description": null,
    "requirements": null,
    "scraped_at": "2025-10-31T18:14:43.250644",
    "latitude": 34.5399045,
    "longitude": -90.6424187,
    "geocoded_address": "East Park Avenue, West Helena, Helena-West Helena, Phillips County, Arkansas, 72390, United States of America"
  },
  {
    "url": "https://www.foodpantries.org/li/new_zion_community_center_the_benefit_bank_of_arkansas_72390",
    "name": "New Zion Community Center - The Benefit Bank of Arkansas",
    "address": "229 Ladino Street",
    "city": "West Helena",
    "state": "AR",
    "zip": "72390",
    "phone": null,
    "fax": null,
    "email": null,
    "website": "http://www.freefood.org/",
    "hours": "Mondays through Fridays 8:00am - 4:00pm\r\n                                    \r\n                                                                        \n* Important: Please call the food pantries to confirm that the hours have not changed. We do our best to provide full information and details, but food pantries often change their hours without notifying us. We do not want you to waste your time visiting a pantry that is not open.",
    "description": null,
    "requirements": null,
    "scraped_at": "2025-10-31T18:14:46.248219",
    "latitude": 34.5438091,
    "longitude": -90.6503866,
    "geocoded_address": "229, Ladino Street, West Helena, Helena-West Helena, Phillips County, Arkansas, 72390, United States of America"
  },
  {
    "url": "https://www.foodpantries.org/li/greater_first_baptist_outreach_ministry_72390",
    "name": "Greater First Baptist Outreach Ministry",
    "address": "122 North Sam Street",
    "city": "West Helena",
    "state": "AR",
    "zip": "72390",
    "phone": null,
    "fax": null,
    "email": null,
    "website": "http://www.freefood.org/",
    "hours": "Mondays through Fridays 9:00am - 3:00pm\r\n                                    \r\n                                                                        \n* Important: Please call the food pantries to confirm that the hours have not changed. We do our best to provide full information and details, but food pantries often change their hours without notifying us. We do not want you to waste your time visiting a pantry that is not open.",
    "description": null,
    "requirements": null,
    "scraped_at": "2025-10-31T18:14:48.531452",
    "latitude": 34.5471581,
    "longitude": -90.6520169,
    "geocoded_address": "North Sam Street, West Helena, Helena-West Helena, Phillips County, Arkansas, 72390, United States of America"
  },
  {
    "url": "https://www.foodpantries.org/li/greater_powerhouse_church-_cogic_72390",
    "name": "Greater Powerhouse Church- Cogic",
    "address": "531 Ladino Street",
    "city": "West Helena",
    "state": "AR",
    "zip": "72390",
    "phone": null,
    "fax": null,
    "email": null,
    "website": "http://www.freefood.org/",
    "hours": "Tuesday and Thursday: 6:00pm - 8:00pm\r\n                                    \r\n                                                                        \n* Important: Please call the food pantries to confirm that the hours have not changed. We do our best to provide full information and details, but food pantries often change their hours without notifying us. We do not want you to waste your time visiting a pantry that is not open.",
    "description": null,
    "requirements": null,
    "scraped_at": "2025-10-31T18:14:51.359740",
    "latitude": 34.5438176,
    "longitude": -90.6536129,
    "geocoded_address": "531, Ladino Street, West Helena, Helena-West Helena, Phillips County, Arkansas, 72390, United States of America"
  },
  {
    "url": "https://www.foodpantries.org/li/helping_hands_of_cleveland_38732",
    "name": "Helping Hands of Cleveland",
    "address": "404 N Martin Luther King Drive",
    "city": "Cleveland",
    "state": "MS",
    "zip": "38732",
    "phone": "(662) 843-7150",
    "fax": null,
    "email": null,
    "website": "http://www.freefood.org/",
    "hours": "Monday, Wednesday, Friday9:00am - 2:00pmFor more information, please call. \nCounty or Counties Served: Bolivar",
    "description": null,
    "requirements": null,
    "scraped_at": "2025-10-31T18:14:53.521871",
    "latitude": 33.7489576,
    "longitude": -90.7107388,
    "geocoded_address": "404, North Martin Luther King Jr Drive, Cleveland, Bolivar County, Mississippi, 38732, United States of America"
  },
  {
    "url": "https://www.foodpantries.org/li/church_of_god_in_christ_38773",
    "name": "Church of God In Christ",
    "address": "302 Cleveland Street",
    "city": "Shaw",
    "state": "MS",
    "zip": "38773",
    "phone": "(662) 754-2108",
    "fax": null,
    "email": null,
    "website": "http://www.freefood.org/",
    "hours": "Monday, Wednesday, Friday 9:00am - 2:00pm For more information, please call. \nGo To Details Page For More Information",
    "description": null,
    "requirements": null,
    "scraped_at": "2025-10-31T18:14:56.629455",
    "latitude": 33.6072992,
    "longitude": -90.7673116,
    "geocoded_address": "302, Cleveland Street, Shaw, Bolivar County, Mississippi, 38733, United States of America"
  },
  {
    "url": "https://www.foodpantries.org/li/st_colums_iona_house_food_pantry_39157",
    "name": "St. Columb's Espiscopal Church -  Iona House Food Pantry",
    "address": "315 Claiborne Ave",
    "city": "Jackson",
    "state": "MS",
    "zip": "39209",
    "phone": "(601) 853-0205",
    "fax": null,
    "email": null,
    "website": "http://www.freefood.org/",
    "hours": "Friday9:00am - 12:00pmFor more information, please call. \nCounty or Counties Served: Madison",
    "description": null,
    "requirements": null,
    "scraped_at": "2025-10-31T18:14:59.251640",
    "latitude": 32.3157771,
    "longitude": -90.222762,
    "geocoded_address": "315, Claiborne Avenue, Jackson, Hinds County, Mississippi, 39209, United States of America"
  },
  {
    "url": "https://www.foodpantries.org/li/first_hyde_park_mb_church_39213",
    "name": "First Hyde Park MB Church",
    "address": "2750 Coleman Ave",
    "city": "Jackson",
    "state": "MS",
    "zip": "39213",
    "phone": null,
    "fax": null,
    "email": null,
    "website": "http://www.freefood.org/",
    "hours": "Friday 9:00am - 12:00pm  For more information, please call.  \nGo To Details Page For More Information",
    "description": null,
    "requirements": null,
    "scraped_at": "2025-10-31T18:15:01.321501",
    "latitude": 32.3405099,
    "longitude": -90.2169671,
    "geocoded_address": "2750, Coleman Avenue, Georgetown, Jackson, Hinds County, Mississippi, 39213, United States of America"
  },
  {
    "url": "https://www.foodpantries.org/li/berean_seventh-day_adventist_church_39213",
    "name": "Berean Seventh-day Adventist Church",
    "address": "1150 W Woodrow Wilson Ave",
    "city": "Jackson",
    "state": "MS",
    "zip": "39213",
    "phone": null,
    "fax": null,
    "email": null,
    "website": "http://www.freefood.org/",
    "hours": "Friday 9:00am - 12:00pm  For more information, please call.  \nGo To Details Page For More Information",
    "description": null,
    "requirements": null,
    "scraped_at": "2025-10-31T18:15:03.566779",
    "latitude": 32.326701,
    "longitude": -90.2080366,
    "geocoded_address": "1150, West Woodrow Wilson Avenue, Georgetown, Jackson, Hinds County, Mississippi, 39213, United States of America"
  },
  {
    "url": "https://www.foodpantries.org/li/angie_baptist_church_70467",
    "name": "Angie Baptist Church",
    "address": "26284 Military Rd",
    "city": "Vernado",
    "state": "LA",
    "zip": "70467",
    "phone": null,
    "fax": null,
    "email": null,
    "website": "http://www.freefood.org/",
    "hours": "Tuesday and Thursday 9:00am - 1:00pm Sign-up on Tuesday at 9:00am - 12:30pm. Volunteers and donations are always welcome.\u00a0 Food items that are always in need are dried beans, ravioli, mac-n-cheese, green beans, chili, grits, and tuna. For more inform",
    "description": null,
    "requirements": null,
    "scraped_at": "2025-10-31T18:15:05.946257",
    "latitude": 30.842938,
    "longitude": -90.1464689,
    "geocoded_address": "Vernado, Franklinton, Washington Parish, Louisiana, 70438, United States of America",
    "note": "Geocoded to city center (exact address not found)"
  },
  {
    "url": "https://www.foodpantries.org/li/prairie_opportunity_inc_39759",
    "name": "Prairie Opportunity Inc",
    "address": "501 Highway 12 W # 110",
    "city": "Starkville",
    "state": "MS",
    "zip": "39759",
    "phone": null,
    "fax": null,
    "email": null,
    "website": "http://www.freefood.org/",
    "hours": "Second Saturday of the month 9:00 am - 11:00 am  For more information, please call.  \nGo To Details Page For More Information",
    "description": null,
    "requirements": null,
    "scraped_at": "2025-10-31T18:15:09.345689",
    "latitude": 33.4638745,
    "longitude": -88.8152074,
    "geocoded_address": "Starkville, Oktibbeha County, Mississippi, 39759, United States of America",
    "note": "Geocoded to city center (exact address not found)"
  },
  {
    "url": "https://www.foodpantries.org/li/starkville_church_of_god_39759",
    "name": "Starkville Church Of God - Compassion Food Pantry",
    "address": "100 Locksley Way",
    "city": "Starkville",
    "state": "MS",
    "zip": "39759",
    "phone": "(662) 323-0352",
    "fax": null,
    "email": null,
    "website": "http://www.freefood.org/",
    "hours": "Second Saturday of the month 9:00 am - 11:00 am  For more information, please call.  \nGo To Details Page For More Information",
    "description": null,
    "requirements": null,
    "scraped_at": "2025-10-31T18:15:12.628708",
    "latitude": 33.448491,
    "longitude": -88.808874,
    "geocoded_address": "100, Locksley Way, Stonegate, Starkville, Oktibbeha County, Mississippi, 39759, United States of America"
  },
  {
    "url": "https://www.foodpantries.org/li/salvation_army_vicksburg_39180",
    "name": "Salvation Army Vicksburg",
    "address": "530 Mission 66",
    "city": "Vicksburg",
    "state": "MS",
    "zip": "39183",
    "phone": "(601) 636-2706",
    "fax": null,
    "email": null,
    "website": "http://www.freefood.org/",
    "hours": "Monday and Wednesday  10 a.m. - 12 noon Thursday  5:00pm - 6:00pm  Requirements: In order to be served, a photo ID and Social Security cards on all members of the household must be presented and other pertinent information provide\nGo To Details Page For More Information",
    "description": null,
    "requirements": "Photo ID and Social Security cards on all members of the household  Notes:  For emergencies only Assistance may be given up to six times in twelve months Must wait at least 30 days betwe\nGo To Details Page For More Information",
    "scraped_at": "2025-10-31T18:15:14.943084",
    "latitude": 32.3583675,
    "longitude": -90.8632493,
    "geocoded_address": "530, Mission 66, Vicksburg, Warren County, Mississippi, 39183, United States of America"
  },
  {
    "url": "https://www.foodpantries.org/li/srorehouse-community-food-pantry",
    "name": "Srorehouse Community Food Pantry",
    "address": "718 Bowmar Avenue",
    "city": "Vicksburg",
    "state": "MS",
    "zip": "39180",
    "phone": "(601) 642-0636",
    "fax": null,
    "email": null,
    "website": "http://www.freefood.org/",
    "hours": "Monday and Wednesday  10 a.m. - 12 noon Thursday  5:00pm - 6:00pm  Requirements: In order to be served, a photo ID and Social Security cards on all members of the household must be presented and other pertinent information provide\nGo To Details Page For More Information",
    "description": null,
    "requirements": null,
    "scraped_at": "2025-10-31T18:15:18.146719",
    "latitude": 32.3350156,
    "longitude": -90.8867628,
    "geocoded_address": "718, Bowmar Avenue, Speeds Addition, Vicksburg, Warren County, Mississippi, 39180, United States of America"
  },
  {
    "url": "https://www.foodpantries.org/li/ms_39180_storehouse-community-food-pantry",
    "name": "Storehouse Community Food Pantry",
    "address": "629 Cherry Street",
    "city": "Vicksburg",
    "state": "MS",
    "zip": "39183",
    "phone": "(601) 642-0636",
    "fax": null,
    "email": null,
    "website": "http://www.freefood.org/",
    "hours": "Monday and Wednesday  10 a.m. - 12 noonThursday  5:00pm - 6:00pmRequirements:In order to be served, a photo ID and Social Security cards on all members of the household must be presented and other pertinent information provided. We cannot sustain the recipients but are here for emergencies only. Assistance may be given up to 3 times in twelve months but they must wait at least 30 days between any visits.",
    "description": null,
    "requirements": "In order to be served, a photo ID and Social Security cards on all members of the household must be presented and other pertinent information provided. We cannot sustain the recipients but are here for emergencies only. Assistance may be given up to 3 times in twelve months but they must wait at least 30 days between any visits.\r\n                                    \r\n                                    County or Counties Served: Warren",
    "scraped_at": "2025-10-31T18:15:20.560549",
    "latitude": 32.3567256,
    "longitude": -90.8772512,
    "geocoded_address": "629, Cherry Street, Vicksburg, Warren County, Mississippi, 39183, United States of America"
  },
  {
    "url": "https://www.foodpantries.org/li/we_care_community_services_39183",
    "name": "We Care Community Services",
    "address": "909 Walnut St",
    "city": "Vicksburg",
    "state": "MS",
    "zip": "39183",
    "phone": null,
    "fax": null,
    "email": null,
    "website": "http://www.freefood.org/",
    "hours": "Monday and Wednesday  10 a.m. - 12 noon Thursday  5:00pm - 6:00pm  Requirements: In order to be served, a photo ID and Social Security cards on all members of the household must be presented and other pertinent information provide\nGo To Details Page For More Information",
    "description": null,
    "requirements": "Photo ID and Social Security cards on all members of the household  Notes:  For emergencies only Assistance may be given up to six times in twelve months Must wait at least 30 days betwe\nGo To Details Page For More Information",
    "scraped_at": "2025-10-31T18:15:22.617552",
    "latitude": 32.3537875,
    "longitude": -90.8801984,
    "geocoded_address": "909, Walnut Street, Speeds Addition, Vicksburg, Warren County, Mississippi, 39183, United States of America"
  },
  {
    "url": "https://www.foodpantries.org/li/new_covenant_church_39437",
    "name": "New Covenant Church",
    "address": "1694 Mississippi 588",
    "city": "Ellisville",
    "state": "MS",
    "zip": "39437",
    "phone": null,
    "fax": null,
    "email": null,
    "website": "http://www.freefood.org/",
    "hours": "Monday, Wednesday, Friday 8:30 am-12:00 pm You can also eat at our soup kitchen  Soup Kitchen Hours: Monday-Friday 11:00 am-1:00 pm  For more information, please call.   \nGo To Details Page For More Information",
    "description": null,
    "requirements": null,
    "scraped_at": "2025-10-31T18:15:25.127845",
    "latitude": 31.6047734,
    "longitude": -89.195641,
    "geocoded_address": "Ellisville, Jones County, Mississippi, 35437, United States of America",
    "note": "Geocoded to city center (exact address not found)"
  },
  {
    "url": "https://www.foodpantries.org/li/grace_covenant_church_39437",
    "name": "Grace Covenant Church",
    "address": "100 Grace Lane",
    "city": "Ellisville",
    "state": "MS",
    "zip": "39437",
    "phone": "(601) 649-0262",
    "fax": null,
    "email": null,
    "website": "http://www.gcwm.org",
    "hours": "Monday, Wednesday, Friday 8:30 am-12:00 pm You can also eat at our soup kitchen  Soup Kitchen Hours: Monday-Friday 11:00 am-1:00 pm  For more information, please call.   \nGo To Details Page For More Information",
    "description": null,
    "requirements": null,
    "scraped_at": "2025-10-31T18:15:28.114375",
    "latitude": 31.6047734,
    "longitude": -89.195641,
    "geocoded_address": "Ellisville, Jones County, Mississippi, 35437, United States of America",
    "note": "Geocoded to city center (exact address not found)"
  },
  {
    "url": "https://www.foodpantries.org/li/christian-food-mission",
    "name": "Christian Food Mission",
    "address": "2507 Moose Drive",
    "city": "Laurel",
    "state": "MS",
    "zip": "39440",
    "phone": "(601) 428-0136",
    "fax": null,
    "email": null,
    "website": "http://www.freefood.org/",
    "hours": "Monday, Wednesday, Friday 8:30 am-12:00 pm You can also eat at our soup kitchen  Soup Kitchen Hours: Monday-Friday 11:00 am-1:00 pm  For more information, please call.   \nGo To Details Page For More Information",
    "description": null,
    "requirements": null,
    "scraped_at": "2025-10-31T18:15:32.642849",
    "latitude": 31.6940509,
    "longitude": -89.1306124,
    "geocoded_address": "Laurel, Jones County, Mississippi, 39440, United States of America",
    "note": "Geocoded to city center (exact address not found)"
  },
  {
    "url": "https://www.foodpantries.org/li/good_samaritan_center_39440",
    "name": "Good Samaritan Center",
    "address": "540 Ellisville Blvd",
    "city": "Laurel",
    "state": "MS",
    "zip": "39440",
    "phone": "(601) 426-3963",
    "fax": null,
    "email": null,
    "website": "http://www.freefood.org/",
    "hours": "Monday, Wednesday, Friday 8:30 am-12:00 pmYou can also eat at our soup kitchenSoup Kitchen Hours:Monday-Friday 11:00 am-1:00 pmFor more information, please call.  \nVolunteering Information:https://goodsamaritancenter.org/get-involved \nCounty or Counties Served: Jones",
    "description": null,
    "requirements": null,
    "scraped_at": "2025-10-31T18:15:35.654435",
    "latitude": 31.6830262,
    "longitude": -89.1363724,
    "geocoded_address": "540, Ellisville Boulevard, Queensburg, Laurel, Jones County, Mississippi, 39440, United States of America"
  },
  {
    "url": "https://www.foodpantries.org/li/salvation_army_39440",
    "name": "Salvation Army",
    "address": "205 N 13th Ave",
    "city": "Laurel",
    "state": "MS",
    "zip": "39440",
    "phone": "(601) 428-4232",
    "fax": null,
    "email": null,
    "website": "http://www.freefood.org/",
    "hours": "Monday, Wednesday, Friday 8:30 am-12:00 pm You can also eat at our soup kitchen  Soup Kitchen Hours: Monday-Friday 11:00 am-1:00 pm  For more information, please call.   \nGo To Details Page For More Information",
    "description": null,
    "requirements": null,
    "scraped_at": "2025-10-31T18:15:38.525840",
    "latitude": 31.6909393,
    "longitude": -89.1426053,
    "geocoded_address": "205, North 13th Avenue, Laurel, Jones County, Mississippi, 39440, United States of America"
  },
  {
    "url": "https://www.foodpantries.org/li/christian_services_MS_39403",
    "name": "Christian Services",
    "address": "301 East Second Street",
    "city": "Hattiesburg",
    "state": "MS",
    "zip": "39402",
    "phone": "(601) 582-5683",
    "fax": "(601) 544-9903",
    "email": null,
    "website": "http://www.freefood.org/",
    "hours": "Monday - Friday9:00am - 4:30pmFor more information, please call.\nCounty or Counties Served: Forrest",
    "description": null,
    "requirements": null,
    "scraped_at": "2025-10-31T18:15:42.931199",
    "latitude": 31.3271189,
    "longitude": -89.2903392,
    "geocoded_address": "Hattiesburg, Forrest County, Mississippi, United States of America",
    "note": "Geocoded to city center (exact address not found)"
  },
  {
    "url": "https://www.foodpantries.org/li/life-support-cares",
    "name": "Life Support Cares",
    "address": "301 Humble Ave",
    "city": "Hattiesburg",
    "state": "MS",
    "zip": "39401",
    "phone": "(601) 255-3574",
    "fax": "(601) 336-4881",
    "email": null,
    "website": "http://www.freefood.org/",
    "hours": "Monday through Friday 9am-5pm\nCounty or Counties Served: Forrest\nArea covered: Forrest, Lamar, and Perry County",
    "description": null,
    "requirements": null,
    "scraped_at": "2025-10-31T18:15:46.529452",
    "latitude": 31.3166415,
    "longitude": -89.3067733,
    "geocoded_address": "301, Humble Avenue, Hattiesburg, Forrest County, Mississippi, 39401, United States of America"
  },
  {
    "url": "https://www.foodpantries.org/li/one-way-international-ministries-inc-family-food-pantry",
    "name": "One Way International Ministries, Inc. Family Food Pantry",
    "address": "200 North 40th Avenue",
    "city": "Hattiesburg",
    "state": "MS",
    "zip": "39401",
    "phone": "(601) 885-3611",
    "fax": null,
    "email": null,
    "website": "https://www.owim.net",
    "hours": "Thursday and Friday 9:00am to 4:00pm  Edwards Street Fellowship Center is a United Methodist community center that has served the Hattiesburg area since 1979. A member of the MS Food Network, the ministry partners with businesses, churches, organizatio\nGo To Details Page For More Information",
    "description": null,
    "requirements": null,
    "scraped_at": "2025-10-31T18:15:48.526097",
    "latitude": 31.326976,
    "longitude": -89.348007,
    "geocoded_address": "200, North 40th Avenue, Hattiesburg, Lamar County, Mississippi, 39401, United States of America"
  },
  {
    "url": "https://www.foodpantries.org/li/edwards_street_fellowship_center_39401",
    "name": "Edwards Street Fellowship Center",
    "address": "1919 Edwards St.",
    "city": "Hattiesburg",
    "state": "MS",
    "zip": "39401",
    "phone": "(601) 544-6149",
    "fax": null,
    "email": null,
    "website": "http://www.freefood.org/",
    "hours": null,
    "description": null,
    "requirements": null,
    "scraped_at": "2025-10-31T18:15:50.870752",
    "latitude": 31.2943327,
    "longitude": -89.2865052,
    "geocoded_address": "1919, Edwards Street, Palmers Crossing, Hattiesburg, Forrest County, Mississippi, 39401, United States of America"
  },
  {
    "url": "https://www.foodpantries.org/li/pine_grove_baptist_church_39069",
    "name": "Pine Grove Baptist Church",
    "address": "7077 Stampley Rd",
    "city": "Fayette",
    "state": "MS",
    "zip": "39069",
    "phone": null,
    "fax": null,
    "email": null,
    "website": "http://www.freefood.org/",
    "hours": "2nd and 4th Thursday of the month from 12:00 pm to 4:00 pm  For more information, please call.    \nGo To Details Page For More Information",
    "description": null,
    "requirements": null,
    "scraped_at": "2025-10-31T18:15:52.943849",
    "latitude": 31.7115169,
    "longitude": -91.0606607,
    "geocoded_address": "Fayette, Jefferson County, Mississippi, 39069, United States of America",
    "note": "Geocoded to city center (exact address not found)"
  },
  {
    "url": "https://www.foodpantries.org/li/ms_39069_fayette-helping-hand",
    "name": "Fayette Helping Hand Food Pantry",
    "address": "1516 Main Street",
    "city": "Fayette",
    "state": "MS",
    "zip": "39069",
    "phone": "(601) 786-1863",
    "fax": null,
    "email": null,
    "website": "http://www.freefood.org/",
    "hours": "2nd and 4th Thursday of the month from 12:00 pm to 4:00 pm For more information, please call.  \nMission Statement\r\n               We are a non-profits organization with the mission of helping families that have suffered a disaster whatever their needs are we are here to support.\r\n            \nCounty or Counties Served: Jefferson",
    "description": null,
    "requirements": null,
    "scraped_at": "2025-10-31T18:15:56.386811",
    "latitude": 31.7127918,
    "longitude": -91.060747,
    "geocoded_address": "1516, Main Street, Fayette, Jefferson County, Mississippi, 39069, United States of America"
  },
  {
    "url": "https://www.foodpantries.org/li/fayette_helping_hands_39661",
    "name": "Fayette Helping Hands",
    "address": "1429 Main St",
    "city": "Roxie",
    "state": "MS",
    "zip": "39661",
    "phone": null,
    "fax": null,
    "email": null,
    "website": "http://www.freefood.org/",
    "hours": "2nd and 4th Thursday of the month from 12:00 pm to 4:00 pm  For more information, please call.    \nGo To Details Page For More Information",
    "description": null,
    "requirements": null,
    "scraped_at": "2025-10-31T18:15:59.300053",
    "latitude": 31.5046128,
    "longitude": -91.0689929,
    "geocoded_address": "Roxie, Franklin County, Mississippi, United States of America",
    "note": "Geocoded to city center (exact address not found)"
  },
  {
    "url": "https://www.foodpantries.org/li/city_of_port_gibson_emergency_shelter_team_inc_llc_39150",
    "name": "City of Port Gibson Emergency Shelter Team Inc LLC",
    "address": "1315 Bridewell Lane",
    "city": "Port Gibson",
    "state": "MS",
    "zip": "39150",
    "phone": null,
    "fax": null,
    "email": null,
    "website": "http://www.freefood.org/",
    "hours": "2nd and 4th Thursday of the month from 12:00 pm to 4:00 pm  For more information, please call.    \nGo To Details Page For More Information",
    "description": null,
    "requirements": "In order to be served, a photo ID and Social Security cards on all members of the household must be presented and other pertinent information provide\nGo To Details Page For More Information",
    "scraped_at": "2025-10-31T18:16:02.657716",
    "latitude": 31.960955,
    "longitude": -90.9839943,
    "geocoded_address": "Port Gibson, Claiborne County, Mississippi, 39150, United States of America",
    "note": "Geocoded to city center (exact address not found)"
  },
  {
    "url": "https://www.foodpantries.org/li/pilgrim_baptist_church_39120",
    "name": "Pilgrim Baptist Church",
    "address": "117 Pilgrim Rd",
    "city": "Natchez",
    "state": "MS",
    "zip": "39120",
    "phone": null,
    "fax": null,
    "email": null,
    "website": "http://www.freefood.org/",
    "hours": "Tuesday (Except 5th Tuesday) 12:00pm - 12:30pm For more information, please call. \nGo To Details Page For More Information",
    "description": null,
    "requirements": null,
    "scraped_at": "2025-10-31T18:16:06.846600",
    "latitude": 31.5604076,
    "longitude": -91.403171,
    "geocoded_address": "Natchez, Adams County, Mississippi, United States of America",
    "note": "Geocoded to city center (exact address not found)"
  },
  {
    "url": "https://www.foodpantries.org/li/catholic_charities_39120",
    "name": "Catholic Charities",
    "address": "212 N Shields Ln",
    "city": "Natchez",
    "state": "MS",
    "zip": "39120",
    "phone": null,
    "fax": null,
    "email": null,
    "website": "http://www.freefood.org/",
    "hours": "Tuesday (Except 5th Tuesday) 12:00pm - 12:30pm For more information, please call. \nGo To Details Page For More Information",
    "description": null,
    "requirements": null,
    "scraped_at": "2025-10-31T18:16:09.886598",
    "latitude": 31.5479689,
    "longitude": -91.3749631,
    "geocoded_address": "212, North Shields Lane, Saint Catherine, Natchez, Adams County, Mississippi, 39120, United States of America"
  },
  {
    "url": "https://www.foodpantries.org/li/first_assembly_of_god_39120",
    "name": "First Assembly of God",
    "address": "150 Liberty Rd",
    "city": "Natchez",
    "state": "MS",
    "zip": "39120",
    "phone": "(601) 442-3178",
    "fax": null,
    "email": null,
    "website": "http://www.freefood.org/",
    "hours": "Tuesday (Except 5th Tuesday)12:00pm - 12:30pmFor more information, please call. \nCounty or Counties Served: Adams",
    "description": null,
    "requirements": null,
    "scraped_at": "2025-10-31T18:16:12.008362",
    "latitude": 31.554521,
    "longitude": -91.383528,
    "geocoded_address": "150, Liberty Road, Natchez, Adams County, Mississippi, 39120, United States of America"
  },
  {
    "url": "https://www.foodpantries.org/li/stewpot_39120",
    "name": "Stewpot",
    "address": "69 E Franklin Street",
    "city": "Natchez",
    "state": "MS",
    "zip": "39120",
    "phone": "(601) 442-9413",
    "fax": null,
    "email": null,
    "website": "http://www.freefood.org/",
    "hours": "Tuesday (Except 5th Tuesday) 12:00pm - 12:30pm For more information, please call. \nGo To Details Page For More Information",
    "description": null,
    "requirements": null,
    "scraped_at": "2025-10-31T18:16:14.307329",
    "latitude": 31.556857,
    "longitude": -91.392907,
    "geocoded_address": "69, East Franklin Street, Natchez Historic District, Natchez, Adams County, Mississippi, 39120, United States of America"
  },
  {
    "url": "https://www.foodpantries.org/li/rose_hill_baptist_church_39120",
    "name": "Rose Hill Baptist Church",
    "address": "607 Madison Street",
    "city": "Natchez",
    "state": "MS",
    "zip": "39120",
    "phone": "(601) 445-4386",
    "fax": "(601) 445-4386",
    "email": null,
    "website": "http://www.freefood.org/",
    "hours": "Tuesday (Except 5th Tuesday) 12:00pm - 12:30pm For more information, please call. \nGo To Details Page For More Information",
    "description": null,
    "requirements": null,
    "scraped_at": "2025-10-31T18:16:16.396057",
    "latitude": 31.5627073,
    "longitude": -91.3972759,
    "geocoded_address": "607, Madison Street, Natchez Historic District, Natchez, Adams County, Mississippi, 39120, United States of America"
  },
  {
    "url": "https://www.foodpantries.org/li/61_south_church_of_christ_39120",
    "name": "61 South Church Of Christ",
    "address": "6 Beau Pre Rd",
    "city": "Natchez",
    "state": "MS",
    "zip": "39120",
    "phone": null,
    "fax": null,
    "email": null,
    "website": "http://www.freefood.org/",
    "hours": "Tuesday (Except 5th Tuesday) 12:00pm - 12:30pm For more information, please call. \nGo To Details Page For More Information",
    "description": null,
    "requirements": null,
    "scraped_at": "2025-10-31T18:16:18.642800",
    "latitude": 31.5604076,
    "longitude": -91.403171,
    "geocoded_address": "Natchez, Adams County, Mississippi, United States of America",
    "note": "Geocoded to city center (exact address not found)"
  },
  {
    "url": "https://www.foodpantries.org/li/ms_forest_crudup-ward-day-care-food-pantry",
    "name": "Crudup-Ward Activity Center Food Pantry",
    "address": "630 Longview Street",
    "city": "Forest",
    "state": "MS",
    "zip": "39074",
    "phone": "(601) 469-4463",
    "fax": null,
    "email": null,
    "website": "http://www.freefood.org/",
    "hours": "12:00pm to 2:00pmAdditional Services:Senior Citizens Day, they give a Free hot meal, bingo games and educational workshops during the same time as the food pantry distribution days.\nCounty or Counties Served: Scott",
    "description": null,
    "requirements": null,
    "scraped_at": "2025-10-31T18:16:21.680031",
    "latitude": 32.3596322,
    "longitude": -89.477131,
    "geocoded_address": "630, Longview Street, Forest, Scott County, Mississippi, 39074, United States of America"
  },
  {
    "url": "https://www.foodpantries.org/li/ever-reaching-community-outreach",
    "name": "Ever Reaching Community Outreach",
    "address": "306 North Brooks Street",
    "city": "Pelahatchie",
    "state": "MS",
    "zip": "39145",
    "phone": "(601) 665-5720",
    "fax": null,
    "email": null,
    "website": "http://www.freefood.org/",
    "hours": "Tuesday 8:30 am to 3:00 pm  Thursday9:00 am - 2:00 pmWe will be ever reaching, ever seeking opportunities to provide a message of hope and show Christ's love to families in need.  For more information, please call. \nCounty or Counties Served: Rankin",
    "description": null,
    "requirements": null,
    "scraped_at": "2025-10-31T18:16:23.767678",
    "latitude": 32.3132159,
    "longitude": -89.7989402,
    "geocoded_address": "Pelahatchie, Rankin County, Mississippi, 39145, United States of America",
    "note": "Geocoded to city center (exact address not found)"
  },
  {
    "url": "https://www.foodpantries.org/li/old_home_place_missions_39153",
    "name": "Old Home Place Missions",
    "address": "3848 Highway 501",
    "city": "Raleigh",
    "state": "MS",
    "zip": "39153",
    "phone": null,
    "fax": null,
    "email": null,
    "website": "http://www.freefood.org/",
    "hours": "12:00pm to 2:00pm  Additional Services:  Senior Citizens Day, they give a Free hot meal, bingo games and educational workshops during the same time as t\nGo To Details Page For More Information",
    "description": null,
    "requirements": null,
    "scraped_at": "2025-10-31T18:16:26.885405",
    "latitude": 32.033488,
    "longitude": -89.5222911,
    "geocoded_address": "Raleigh, Smith County, Mississippi, 39153, United States of America",
    "note": "Geocoded to city center (exact address not found)"
  },
  {
    "url": "https://www.foodpantries.org/li/smith_county_baptist_association_39153",
    "name": "Smith County Baptist Association",
    "address": "303 Wyatt Woods Street",
    "city": "Raleigh",
    "state": "MS",
    "zip": "39153",
    "phone": "(601) 782-9263",
    "fax": null,
    "email": null,
    "website": "http://www.freefood.org/",
    "hours": "12:00pm to 2:00pm  Additional Services:  Senior Citizens Day, they give a Free hot meal, bingo games and educational workshops during the same time as t\nGo To Details Page For More Information",
    "description": null,
    "requirements": null,
    "scraped_at": "2025-10-31T18:16:32.996875",
    "latitude": 32.033488,
    "longitude": -89.5222911,
    "geocoded_address": "Raleigh, Smith County, Mississippi, 39153, United States of America",
    "note": "Geocoded to city center (exact address not found)"
  },
  {
    "url": "https://www.foodpantries.org/li/jericho_baptist_church_38849",
    "name": "Jericho Baptist Church Food Bank",
    "address": "2179 County Road 171",
    "city": "Guntown",
    "state": "MS",
    "zip": "38849",
    "phone": "(662) 365-2504",
    "fax": null,
    "email": null,
    "website": "http://www.freefood.org/",
    "hours": "Saturdays 9:00 a.m. - 11:00 a.m. \nGo To Details Page For More Information",
    "description": null,
    "requirements": null,
    "scraped_at": "2025-10-31T18:16:36.529142",
    "latitude": 34.4431571,
    "longitude": -88.6597758,
    "geocoded_address": "Guntown, Lee County, Mississippi, United States of America",
    "note": "Geocoded to city center (exact address not found)"
  },
  {
    "url": "https://www.foodpantries.org/li/community_christian_effort_71653",
    "name": "Community Christian Effort",
    "address": "311 Jackson Street",
    "city": "Lake Village",
    "state": "AR",
    "zip": "71653",
    "phone": "(870) 265-5535",
    "fax": null,
    "email": null,
    "website": "http://www.freefood.org/",
    "hours": "Monday and Thursday: 9:00am - 11:00am\nCounty or Counties Served: Chicot",
    "description": null,
    "requirements": null,
    "scraped_at": "2025-10-31T18:16:39.730285",
    "latitude": 33.3319219,
    "longitude": -91.2832524,
    "geocoded_address": "311, Jackson Street, Lake Village, Chicot County, Arkansas, 71653, United States of America"
  },
  {
    "url": "https://www.foodpantries.org/li/johnnys-food-bank",
    "name": "Johnnys Food Bank",
    "address": "312 Church St",
    "city": "Lake Village",
    "state": "AR",
    "zip": "71653",
    "phone": "(870) 265-2601",
    "fax": null,
    "email": null,
    "website": "http://www.freefood.org/",
    "hours": "Monday and Thursday: 9:00am - 11:00am \nGo To Details Page For More Information",
    "description": null,
    "requirements": null,
    "scraped_at": "2025-10-31T18:16:42.416458",
    "latitude": 33.3307585,
    "longitude": -91.283583,
    "geocoded_address": "312, Church Street, Lake Village, Chicot County, Arkansas, 71653, United States of America"
  },
  {
    "url": "https://www.foodpantries.org/li/mcgehee-community-pantry",
    "name": "McGehee Community Pantry",
    "address": "112 N First St",
    "city": "Mcgehee",
    "state": "AR",
    "zip": "71654",
    "phone": "(870) 866-2881",
    "fax": null,
    "email": null,
    "website": "http://www.freefood.org/",
    "hours": "Tuesdays 9:00am - 12:00pm\nGo To Details Page For More Information",
    "description": null,
    "requirements": null,
    "scraped_at": "2025-10-31T18:16:45.025573",
    "latitude": 33.6294189,
    "longitude": -91.399277,
    "geocoded_address": "McGehee, Desha County, Arkansas, 71654, United States of America",
    "note": "Geocoded to city center (exact address not found)"
  },
  {
    "url": "https://www.foodpantries.org/li/arkansas_foodbank_network_mcgehee_71654",
    "name": "Arkansas Foodbank Network - Mcgehee",
    "address": "1504 North 3rd Street",
    "city": "Mc Gehee",
    "state": "AR",
    "zip": "71654",
    "phone": null,
    "fax": null,
    "email": null,
    "website": "http://www.freefood.org/",
    "hours": "Tuesdays 9:00am - 12:00pm\nGo To Details Page For More Information",
    "description": null,
    "requirements": null,
    "scraped_at": "2025-10-31T18:16:48.189245",
    "latitude": 33.6350451,
    "longitude": -91.3906604,
    "geocoded_address": "Abner Mc Gehee Drive, McGehee, Desha County, Arkansas, 71654, United States of America",
    "note": "Geocoded to city center (exact address not found)"
  },
  {
    "url": "https://www.foodpantries.org/li/shiloh_seventh_day_adventist_38930",
    "name": "Shiloh Seventh Day Adventist",
    "address": "625 Avenue H",
    "city": "Greenwood",
    "state": "MS",
    "zip": "38930",
    "phone": "(662) 453-7979",
    "fax": null,
    "email": null,
    "website": "http://www.freefood.org/",
    "hours": "The 4th Saturday of each month 8:00am - 10:30am  Requirements: Must complete an application. Proof of residence in Grenada County. Proof of income.  For more information, please call.  \nGo To Details Page For More Information",
    "description": null,
    "requirements": "Must complete an application. Proof of residence in Grenada County. Proof of income.  For more information, please call.  \nGo To Details Page For More Information",
    "scraped_at": "2025-10-31T18:16:51.635000",
    "latitude": 33.5111518,
    "longitude": -90.1718717,
    "geocoded_address": "625, Avenue H, Greenwood, Leflore County, Mississippi, 38930, United States of America"
  },
  {
    "url": "https://www.foodpantries.org/li/greenwood_interfaith_ministries_community_kitchen_38930",
    "name": "Greenwood Interfaith Ministries Community Kitchen",
    "address": "200 E Johnson St",
    "city": "Greenwood",
    "state": "MS",
    "zip": "38930",
    "phone": null,
    "fax": null,
    "email": null,
    "website": "http://www.freefood.org/",
    "hours": "The 4th Saturday of each month 8:00am - 10:30am  Requirements: Must complete an application. Proof of residence in Grenada County. Proof of income.  For more information, please call.  \nGo To Details Page For More Information",
    "description": null,
    "requirements": "Must complete an application. Proof of residence in Grenada County. Proof of income.  For more information, please call.  \nGo To Details Page For More Information",
    "scraped_at": "2025-10-31T18:16:54.462901",
    "latitude": 33.516863,
    "longitude": -90.178952,
    "geocoded_address": "200, East Johnson Street, Greenwood, Leflore County, Mississippi, 38930, United States of America"
  },
  {
    "url": "https://www.foodpantries.org/li/life_changers_38901",
    "name": "Life Changers",
    "address": "772 Maple Ln",
    "city": "Grenada",
    "state": "MS",
    "zip": "38901",
    "phone": null,
    "fax": null,
    "email": null,
    "website": "http://www.freefood.org/",
    "hours": "The 4th Saturday of each month 8:00am - 10:30am  Requirements: Must complete an application. Proof of residence in Grenada County. Proof of income.  For more information, please call.  \nGo To Details Page For More Information",
    "description": null,
    "requirements": "Must complete an application. Proof of residence in Grenada County. Proof of income.  For more information, please call.  \nGo To Details Page For More Information",
    "scraped_at": "2025-10-31T18:16:57.485863",
    "latitude": 33.7662058,
    "longitude": -89.7961427,
    "geocoded_address": "772, Maple Lane, Grenada, Grenada County, Mississippi, 38901, United States of America"
  },
  {
    "url": "https://www.foodpantries.org/li/ms-grenada-food-pantry",
    "name": "Grenada Food Pantry",
    "address": "19 Green Street",
    "city": "Grenada",
    "state": "MS",
    "zip": "38901",
    "phone": "(662) 417-6210",
    "fax": null,
    "email": null,
    "website": "http://www.freefood.org/",
    "hours": "The 4th Saturday of each month8:00am - 10:30amRequirements: Must complete an application. Proof of residence in Grenada County. Proof of income.For more information, please call. \nCounty or Counties Served: Grenada",
    "description": null,
    "requirements": "Must complete an application. Proof of residence in Grenada County. Proof of income.For more information, please call. \nCounty or Counties Served: Grenada",
    "scraped_at": "2025-10-31T18:17:00.147203",
    "latitude": 33.7641561,
    "longitude": -89.97545,
    "geocoded_address": "19, Green Street, Holcomb, Grenada County, Mississippi, 38940, United States of America"
  },
  {
    "url": "https://www.foodpantries.org/li/grenada_food_pantry_",
    "name": "Grenada Food Pantry",
    "address": "19 Green Street\r\n            Grenada, MS - \r\n            Phone: 662-417-6210\n\n\nWebsite\n\n\n\nUser Questions and Answers\r\n     Help our users find out more about Grenada Food Pantry.\nAnswer a question below ONLY IF you know the answer to help people who want more information on Grenada Food Pantry.\n\n\n\n\nHow do I volunteer?\n\n\n\nAnswer\n\n\n\n\n\n\n\n\nDo you know if I can get food delivered to me?\n\n\n\nAnswer\n\n\n\n\n\n\n\n\nDo I need to make an appointment?\n\n\n\nAnswer\n\n\n\n\n\n\n\n\nHow do I make a donation?\n\n\n\nAnswer\n\n\n\n\n\n\n\n\nCan I do my community service hours at this location?\n\n\n\nAnswer\n\n\n\n\n\n\n\n\nWhat type of documentation do I need to apply for food?\n\n\n\nAnswer\n\n\n\n\n\n\n\nBe The First To Make A Review\n\n\nYour opinion matters. Leave A Review Or Edit This Listing for Grenada Food Pantry.\nDo not request help here. Contact the Pantry directly.\n\n\n\n\n\n\n\n\n\n Name (required) \n\n\n\n eMail (will not be published) (required) \n\n\n\n Comment (required)\n\n\n\n\n\n\nSubmit\n\n\n\n\n\n\nPantry Details, hours, photos, information: Grenada Food Pantry\nProvides a food pantry. \r\n                                    \r\n                                                                        \n* Important: Please call the food pantries to confirm that the hours have not changed. We do our best to provide full information and details, but food pantries often change their hours without notifying us. We do not want you to waste your time visiting a pantry that is not open.\n\nDonations And Volunteers\r\n            Please contact us directly by phone to donate and/or volunteer.\r\n            \nNeed More Information\r\n            We always need more information on our pantries. If you know of any details, volunteer information, website, hours or more description information about\r\n            Grenada Food Pantry please add a comment below with information. We will then display this for all visitors on this page.\r\n            \n\n\n\n\n\n\n\n\n\nNearby Area Listings \n\nGrenada Food Pantry\n\n\n\n\n\n\nView Website and Full Address",
    "city": "Grenada",
    "state": "MS",
    "zip": "38901",
    "phone": null,
    "fax": null,
    "email": null,
    "website": "http://www.freefood.org/",
    "hours": "The 4th Saturday of each month 8:00am - 10:30am  Requirements: Must complete an application. Proof of residence in Grenada County. Proof of income.  For more information, please call.  \nGo To Details Page For More Information",
    "description": null,
    "requirements": "Must complete an application. Proof of residence in Grenada County. Proof of income.  For more information, please call.  \nGo To Details Page For More Information",
    "scraped_at": "2025-10-31T18:17:04.254498",
    "latitude": 33.7848667,
    "longitude": -89.8025901,
    "geocoded_address": "Grenada, Grenada County, Mississippi, United States of America",
    "note": "Geocoded to city center (exact address not found)"
  },
  {
    "url": "https://www.foodpantries.org/li/pristine_springs_38967",
    "name": "Pristine Springs",
    "address": "510 Raper Street",
    "city": "Winona",
    "state": "MS",
    "zip": "38967",
    "phone": "(662) 283-1372",
    "fax": null,
    "email": null,
    "website": "http://www.freefood.org/",
    "hours": "The 4th Saturday of each month 8:00am - 10:30am  Requirements: Must complete an application. Proof of residence in Grenada County. Proof of income.  For more information, please call.  \nGo To Details Page For More Information",
    "description": null,
    "requirements": "Must complete an application. Proof of residence in Grenada County. Proof of income.  For more information, please call.  \nGo To Details Page For More Information",
    "scraped_at": "2025-10-31T18:17:08.309457",
    "latitude": 33.4896638,
    "longitude": -89.7343172,
    "geocoded_address": "510, Raper Street, Winona, Montgomery County, Mississippi, 38967, United States of America"
  },
  {
    "url": "https://www.foodpantries.org/li/mission_hope_38967",
    "name": "Mission Hope",
    "address": "309 Summit",
    "city": "Winona",
    "state": "MS",
    "zip": "38967",
    "phone": "(662) 222-2230",
    "fax": null,
    "email": null,
    "website": "http://mh-win.org",
    "hours": "The 4th Saturday of each month 8:00am - 10:30am  Requirements: Must complete an application. Proof of residence in Grenada County. Proof of income.  For more information, please call.  \nGo To Details Page For More Information",
    "description": null,
    "requirements": "Must complete an application. Proof of residence in Grenada County. Proof of income.  For more information, please call.  \nGo To Details Page For More Information",
    "scraped_at": "2025-10-31T18:17:10.506452",
    "latitude": 33.4823577,
    "longitude": -89.7305405,
    "geocoded_address": "309, Summit Street, Winona, Montgomery County, Mississippi, 38967, United States of America"
  },
  {
    "url": "https://www.foodpantries.org/li/union_county_good_samaritan_38652",
    "name": "Union County Good Samaritan",
    "address": "845 Sam T Barkley Drive",
    "city": "New Albany",
    "state": "MS",
    "zip": "38652",
    "phone": "(662) 534-0931",
    "fax": null,
    "email": null,
    "website": "http://www.freefood.org/",
    "hours": "Monday 9:30am - 11:30am 1:00am - 3:00pm  For more information, please call.  \nGo To Details Page For More Information",
    "description": null,
    "requirements": null,
    "scraped_at": "2025-10-31T18:17:12.784149",
    "latitude": 34.5181539,
    "longitude": -89.0182376,
    "geocoded_address": "845, Sam T Barkley Drive, Glenfield, New Albany, Union County, Mississippi, 38652, United States of America"
  },
  {
    "url": "https://www.foodpantries.org/li/sacred_heart_southern_missions_38680",
    "name": "Sacred Heart Southern Missions (Corporate office)",
    "address": "6050 Hwy 161",
    "city": "Walls",
    "state": "MS",
    "zip": "38680",
    "phone": "(662) 342-3180",
    "fax": null,
    "email": null,
    "website": "http://www.shsm.org",
    "hours": "Monday - Wednesday 10:00am - 1:30pm  Requirements: Proof of residence and income and ID  For more information, please call.  \nGo To Details Page For More Information",
    "description": null,
    "requirements": "Proof of residence and income and ID  For more information, please call.  \nGo To Details Page For More Information",
    "scraped_at": "2025-10-31T18:17:14.940239",
    "latitude": 34.9578728,
    "longitude": -90.1517605,
    "geocoded_address": "Walls, DeSoto County, Mississippi, United States of America",
    "note": "Geocoded to city center (exact address not found)"
  },
  {
    "url": "https://www.foodpantries.org/li/tn_38126_life-food-pantry",
    "name": "Life Food Pantry at Life of Liberty Church",
    "address": "749 Tate Avenue",
    "city": "Memphis",
    "state": "TN",
    "zip": "38126",
    "phone": "(901) 691-6950",
    "fax": null,
    "email": null,
    "website": "http://www.freefood.org/",
    "hours": "4th Saturday from January until October from 8:00 a.m. until 9:30 a.m.3rd Saturday in November from 8:00 a.m. until 9:30 a.m.For emergencies only in December.Additional Services:Diaper Bank, adult diapers, baby diapers and period supplies.Transitional living facilitiesAlcoholic Anonymous and Cocaine Anonymous meetingsWomen support group meetings\nVolunteering Information:Call for volunteer opportunities.  \nCounty or Counties Served: Shelby",
    "description": null,
    "requirements": null,
    "scraped_at": "2025-10-31T18:17:18.121873",
    "latitude": 35.130372,
    "longitude": -90.036911,
    "geocoded_address": "749, Tate Avenue, Foote Homes, Memphis, Shelby County, West Tennessee, Tennessee, 38126, United States of America"
  },
  {
    "url": "https://www.foodpantries.org/li/st-johns-united-methodist-soup-kitchen",
    "name": "St John's United Methodist Soup Kitchen",
    "address": "1207 Peabody Ave.",
    "city": "Memphis",
    "state": "TN",
    "zip": "38104",
    "phone": "(901) 726-4104",
    "fax": null,
    "email": null,
    "website": "http://www.freefood.org/",
    "hours": "Monday - Friday \r\n 8:30am - 4:30pm \r\n \r\nFor more information, please call.",
    "description": null,
    "requirements": null,
    "scraped_at": "2025-10-31T18:17:20.221025",
    "latitude": 35.132667,
    "longitude": -90.0213035,
    "geocoded_address": "1207, Peabody Avenue, Annesdale Park, Downtown, Memphis, Shelby County, West Tennessee, Tennessee, 38104, United States of America"
  },
  {
    "url": "https://www.foodpantries.org/li/tn_st-john-baptist-church-food-pantry",
    "name": "St. John Baptist Church - The Manna Pantry",
    "address": "640 Vance Ave.",
    "city": "Memphis",
    "state": "TN",
    "zip": "38126",
    "phone": "(901) 525-1092",
    "fax": null,
    "email": null,
    "website": "http://www.freefood.org/",
    "hours": "4th Saturday from January until October from 8:00 a.m. until 9:30 a.m. 3rd Saturday in November from 8:00 a.m. until 9:30 a.m. For emergencies only in December.  Additional Services:  Diaper Bank, adult diapers, baby diapers and period supplies. Transitional living\nGo To Details Page For More Information",
    "description": null,
    "requirements": null,
    "scraped_at": "2025-10-31T18:17:22.408982",
    "latitude": 35.134403,
    "longitude": -90.040156,
    "geocoded_address": "640, Vance Avenue, Foote Homes, Memphis, Shelby County, West Tennessee, Tennessee, 38126, United States of America"
  },
  {
    "url": "https://www.foodpantries.org/li/mifa_metropolitan_inter-faith_association_38126",
    "name": "Mifa - Metropolitan Inter-faith Association",
    "address": "910 Vance Street",
    "city": "Memphis",
    "state": "TN",
    "zip": "38126",
    "phone": "(901) 527-0208",
    "fax": null,
    "email": null,
    "website": "https://www.mifa.org",
    "hours": "Monday - Friday\r\n 8:30am - 4:30pm\n\r\nFor more information, please call.\nCounty or Counties Served: Shelby",
    "description": null,
    "requirements": null,
    "scraped_at": "2025-10-31T18:17:24.498787",
    "latitude": 35.1375372,
    "longitude": -90.0577126,
    "geocoded_address": "Vance Avenue, Beale Street Historic District, Memphis, Shelby County, West Tennessee, Tennessee, 38126, United States of America"
  },
  {
    "url": "https://www.foodpantries.org/li/lintonia_chapel_seventh-day_adventist_church_39194",
    "name": "Lintonia Chapel Seventh-day Adventist Church",
    "address": "410 Clay Ave",
    "city": "Yazoo City",
    "state": "MS",
    "zip": "39194",
    "phone": null,
    "fax": null,
    "email": null,
    "website": "http://www.freefood.org/",
    "hours": "Every 2nd Friday of the month starting at 10:00 AM\nGo To Details Page For More Information",
    "description": null,
    "requirements": null,
    "scraped_at": "2025-10-31T18:17:29.180204",
    "latitude": 32.8552342,
    "longitude": -90.4081593,
    "geocoded_address": "410, Clay Avenue, Yazoo City, Yazoo County, Mississippi, 39194, United States of America"
  },
  {
    "url": "https://www.foodpantries.org/li/ms_39194_tulane-m-b-church",
    "name": "Tulane M.B. Church Food Pantry",
    "address": "220 East 3rd Street",
    "city": "Yazoo City",
    "state": "MS",
    "zip": "39194",
    "phone": "(601) 209-7122",
    "fax": null,
    "email": null,
    "website": "http://www.freefood.org/",
    "hours": "Every 2nd Friday of the month starting at 10:00 AM\r\n                                    Volunteering Information:Come to sight on distribution date \nCounty or Counties Served: Yazoo",
    "description": null,
    "requirements": null,
    "scraped_at": "2025-10-31T18:17:31.670648",
    "latitude": 32.8544075,
    "longitude": -90.409595,
    "geocoded_address": "220, East 3rd Street, Yazoo City, Yazoo County, Mississippi, 39194, United States of America"
  },
  {
    "url": "https://www.foodpantries.org/li/manna_house_39194",
    "name": "Manna House",
    "address": "323 North Main Street",
    "city": "Yazoo City",
    "state": "MS",
    "zip": "39194",
    "phone": "(662) 746-5082",
    "fax": null,
    "email": null,
    "website": "http://www.freefood.org/",
    "hours": "Every 2nd Friday of the month starting at 10:00 AM\nGo To Details Page For More Information",
    "description": null,
    "requirements": null,
    "scraped_at": "2025-10-31T18:17:34.018766",
    "latitude": 32.8496026,
    "longitude": -90.4124436,
    "geocoded_address": "323, North Main Street, Yazoo City, Yazoo County, Mississippi, 39194, United States of America"
  },
  {
    "url": "https://www.foodpantries.org/li/southside_baptist_church_39194",
    "name": "Southside Baptist Church",
    "address": "120 S Monroe St",
    "city": "Yazoo City",
    "state": "MS",
    "zip": "39194",
    "phone": null,
    "fax": null,
    "email": null,
    "website": "http://www.freefood.org/",
    "hours": "Every 2nd Friday of the month starting at 10:00 AM\nGo To Details Page For More Information",
    "description": null,
    "requirements": null,
    "scraped_at": "2025-10-31T18:17:36.364711",
    "latitude": 32.8461641,
    "longitude": -90.4117745,
    "geocoded_address": "120, South Monroe Street, Yazoo City, Yazoo County, Mississippi, 39194, United States of America"
  },
  {
    "url": "https://www.foodpantries.org/li/stewpot_community_services_39203",
    "name": "Stewpot Community Services",
    "address": "1100 W Capitol St",
    "city": "Jackson",
    "state": "MS",
    "zip": "39203",
    "phone": null,
    "fax": null,
    "email": null,
    "website": "https://stewpot.org/",
    "hours": "Monday 9:30 am - 12:00 pm For more information, please call. \nGo To Details Page For More Information",
    "description": null,
    "requirements": null,
    "scraped_at": "2025-10-31T18:17:40.074430",
    "latitude": 32.3069058,
    "longitude": -90.2001652,
    "geocoded_address": "Central Presbyterian Church, 1100, West Capitol Street, Jackson, Hinds County, Mississippi, 39203, United States of America"
  },
  {
    "url": "https://www.foodpantries.org/li/new_zion_gospel_church_39213",
    "name": "New Zion Gospel Church",
    "address": "2395 Martin Luther King Junior Drive",
    "city": "Jackson",
    "state": "MS",
    "zip": "39213",
    "phone": null,
    "fax": null,
    "email": null,
    "website": "http://www.freefood.org/",
    "hours": "Friday 9:00am - 12:00pm  For more information, please call.  \nGo To Details Page For More Information",
    "description": null,
    "requirements": null,
    "scraped_at": "2025-10-31T18:17:42.662087",
    "latitude": 32.2998686,
    "longitude": -90.1830408,
    "geocoded_address": "Jackson, Hinds County, Mississippi, United States of America",
    "note": "Geocoded to city center (exact address not found)"
  },
  {
    "url": "https://www.foodpantries.org/li/jackson_revival_center_church_food_outreach_39209",
    "name": "Jackson Revival Center Church - Food Outreach",
    "address": "1616 Robinson Street",
    "city": "Jackson",
    "state": "MS",
    "zip": "39209",
    "phone": "(601) 948-3618",
    "fax": null,
    "email": null,
    "website": "http://www.freefood.org/",
    "hours": "Monday9:30 am - 12:00 pmFor more information, please call. \nCounty or Counties Served: Hinds",
    "description": null,
    "requirements": null,
    "scraped_at": "2025-10-31T18:17:46.566064",
    "latitude": 32.305022,
    "longitude": -90.211657,
    "geocoded_address": "1616, Robinson Street, Jackson, Hinds County, Mississippi, 39209, United States of America"
  },
  {
    "url": "https://www.foodpantries.org/li/gateway_rescue_mission_39203",
    "name": "Gateway Rescue Mission",
    "address": "328 S Gallatin Street",
    "city": "Jackson",
    "state": "MS",
    "zip": "39203",
    "phone": "(601) 353-5864",
    "fax": null,
    "email": null,
    "website": "http://www.freefood.org/",
    "hours": "Monday 9:30 am - 12:00 pm For more information, please call. \nGo To Details Page For More Information",
    "description": null,
    "requirements": null,
    "scraped_at": "2025-10-31T18:17:49.052477",
    "latitude": 32.2983983,
    "longitude": -90.1927881,
    "geocoded_address": "328, South Gallatin Street, Jackson, Hinds County, Mississippi, 39203, United States of America"
  },
  {
    "url": "https://www.foodpantries.org/li/good_samaritan_center_39202",
    "name": "Good Samaritan Center",
    "address": "114 Millsaps Ave",
    "city": "Jackson",
    "state": "MS",
    "zip": "39202",
    "phone": null,
    "fax": null,
    "email": null,
    "website": "http://www.freefood.org/",
    "hours": "Tuesday and Thursday from 9:00am-11:00am Second Saturday of every month from 10:00AM-11:00am.",
    "description": null,
    "requirements": null,
    "scraped_at": "2025-10-31T18:17:51.637429",
    "latitude": 32.3216587,
    "longitude": -90.1876586,
    "geocoded_address": "114, Millsaps Avenue, Midtown, Jackson, Hinds County, Mississippi, 39202, United States of America"
  },
  {
    "url": "https://www.foodpantries.org/li/greater_mt_calvary_baptist_church_39203",
    "name": "Greater Mt Calvary Baptist Church",
    "address": "1400 Robinson Street",
    "city": "Jackson",
    "state": "MS",
    "zip": "39209",
    "phone": "(601) 352-8585",
    "fax": "(601) 352-4185",
    "email": null,
    "website": "http://www.freefood.org/",
    "hours": "Monday 9:30 am - 12:00 pm For more information, please call. \nGo To Details Page For More Information",
    "description": null,
    "requirements": null,
    "scraped_at": "2025-10-31T18:17:53.946046",
    "latitude": 32.305005,
    "longitude": -90.208475,
    "geocoded_address": "1400, Robinson Street, Jackson, Hinds County, Mississippi, 39203, United States of America"
  },
  {
    "url": "https://www.foodpantries.org/li/unity_missionary_baptist_church_39339",
    "name": "Unity Missionary Baptist Church",
    "address": "205 Day Street",
    "city": "Louisville",
    "state": "MS",
    "zip": "39339",
    "phone": "(662) 773-4440",
    "fax": null,
    "email": null,
    "website": "http://www.freefood.org/",
    "hours": "Second Saturday of the month 9:00 am - 11:00 am  For more information, please call.  \nGo To Details Page For More Information",
    "description": null,
    "requirements": null,
    "scraped_at": "2025-10-31T18:17:56.419889",
    "latitude": 33.1237377,
    "longitude": -89.0550624,
    "geocoded_address": "Louisville, Winston County, Mississippi, 39339, United States of America",
    "note": "Geocoded to city center (exact address not found)"
  },
  {
    "url": "https://www.foodpantries.org/li/ms_lucedale_first-united-methodist-church-food-pantry",
    "name": "First United Methodist Church Local Missions Food Pantry",
    "address": "5101 Main Street",
    "city": "Lucedale",
    "state": "MS",
    "zip": "39452",
    "phone": "(601) 947-8132",
    "fax": null,
    "email": null,
    "website": "http://www.freefood.org/",
    "hours": "Tuesday from 9:00 a.m.\u00a0 - 11:00 p.mThey also provide counseling to needy families in the community.\nCounty or Counties Served: George",
    "description": null,
    "requirements": "Personal ID or utility bill.  Service Area:  36695 and 36609 bounded by Cottage Hill to Knollwood\nGo To Details Page For More Information",
    "scraped_at": "2025-10-31T18:18:02.195912",
    "latitude": 30.9247016,
    "longitude": -88.5907585,
    "geocoded_address": "5101, Main Street, Lucedale, George County, Mississippi, 39452, United States of America"
  },
  {
    "url": "https://www.foodpantries.org/li/al_36587_love-mission",
    "name": "Love Mission Food Distribution",
    "address": "14913 Moffett Road",
    "city": "Wilmer",
    "state": "AL",
    "zip": "36587",
    "phone": "(251) 610-8560",
    "fax": null,
    "email": null,
    "website": "http://www.freefood.org/",
    "hours": "Tuesday from 9:00 a.m.\u00a0 - 11:00 p.m They also provide counseling to needy families in the community. \nGo To Details Page For More Information",
    "description": null,
    "requirements": "Personal ID or utility bill.  Service Area:  36695 and 36609 bounded by Cottage Hill to Knollwood\nGo To Details Page For More Information",
    "scraped_at": "2025-10-31T18:18:04.443125",
    "latitude": 30.8478118,
    "longitude": -88.3972041,
    "geocoded_address": "14913, Moffett Road, Warley, Mobile County Commission District 2, Mobile County, Alabama, 36587, United States of America"
  },
  {
    "url": "https://www.foodpantries.org/li/ransom-ministries",
    "name": "Ransom Ministries",
    "address": "7485 Airport Blvd",
    "city": "Mobile",
    "state": "AL",
    "zip": "36608",
    "phone": "(251) 751-0044",
    "fax": null,
    "email": null,
    "website": "http://www.freefood.org/",
    "hours": "Mondays and Thursdays from 1:30pm to 3:30pm. Closed on holidays.  Notes:  You can pick up food once a month.  Requirements:  Personal ID or utility bill.  Service Area:  36695 and 36609 bounded by Cottage Hill to Knollwood\nGo To Details Page For More Information",
    "description": null,
    "requirements": "Personal ID or utility bill.  Service Area:  36695 and 36609 bounded by Cottage Hill to Knollwood\nGo To Details Page For More Information",
    "scraped_at": "2025-10-31T18:18:06.568083",
    "latitude": 30.6861661,
    "longitude": -88.2173328,
    "geocoded_address": "7485, Airport Boulevard, Mobile County Commission District 2, Mobile, Mobile County, Alabama, 36608, United States of America"
  },
  {
    "url": "https://www.foodpantries.org/li/al_36695_st-vincent-de-paul-our-savior-catholic-church",
    "name": "St. Vincent De Paul @ Our Savior Catholic Church",
    "address": "1801 Cody Rd. South",
    "city": "Mobile",
    "state": "AL",
    "zip": "36695",
    "phone": "(251) 633-6762",
    "fax": null,
    "email": null,
    "website": "http://www.freefood.org/",
    "hours": "Mondays and Thursdays from 1:30pm to 3:30pm.Closed on holidays.Notes:You can pick up food once a month.Requirements:Personal ID or utility bill.Service Area:36695 and 36609 bounded by Cottage Hill to Knollwood to Grelot to Hillcrest.\nCounty or Counties Served: Mobile",
    "description": null,
    "requirements": "Personal ID or utility bill.Service Area:36695 and 36609 bounded by Cottage Hill to Knollwood to Grelot to Hillcrest.\nCounty or Counties Served: Mobile",
    "scraped_at": "2025-10-31T18:18:09.278699",
    "latitude": 30.6891259,
    "longitude": -88.2075571,
    "geocoded_address": "Cody Road South, Mobile County Commission District 2, Mobile, Mobile County, Alabama, 36685, United States of America"
  },
  {
    "url": "https://www.foodpantries.org/li/christ_united_methodist_36609",
    "name": "Christ United Methodist",
    "address": "6101 Grelot Road",
    "city": "Mobile",
    "state": "AL",
    "zip": "36609",
    "phone": "(251) 342-0462",
    "fax": "(251) 342-7195",
    "email": null,
    "website": "http://www.freefood.org/",
    "hours": "Monday and Wednesday8:00am - 10:30amFor more information, please call. \nCounty or Counties Served: Mobile",
    "description": null,
    "requirements": "Personal ID or utility bill.  Service Area:  36695 and 36609 bounded by Cottage Hill to Knollwood\nGo To Details Page For More Information",
    "scraped_at": "2025-10-31T18:18:11.566097",
    "latitude": 30.66105,
    "longitude": -88.190828,
    "geocoded_address": "6101, Grelot Road, Mobile County Commission District 2, Mobile, Mobile County, Alabama, 36609, United States of America"
  },
  {
    "url": "https://www.foodpantries.org/li/al_citronelle_citronelle-united-methodist-food-pantry",
    "name": "Citronelle United Methodist Food Pantry",
    "address": "7970 Lebaron Avenue",
    "city": "Citronelle",
    "state": "AL",
    "zip": "36522",
    "phone": "(251) 866-7423",
    "fax": null,
    "email": null,
    "website": "http://www.freefood.org/",
    "hours": "Second Wednesday of each month.\r\n                                    \r\n                                    County or Counties Served: Mobile",
    "description": null,
    "requirements": "ID picture and proof residence For more information, please call. \nGo To Details Page For More Information",
    "scraped_at": "2025-10-31T18:18:13.799040",
    "latitude": 31.0944306,
    "longitude": -88.2316899,
    "geocoded_address": "7970, East Lebaron Avenue, Mobile County Commission District 1, Citronelle, Mobile County, Alabama, 36522, United States of America"
  },
  {
    "url": "https://www.foodpantries.org/li/first_baptist_church_of_tillmans_corner_36619",
    "name": "First Baptist Church of Tillmans Corner - Food Pantry",
    "address": "5660 Three Notch Road",
    "city": "Mobile",
    "state": "AL",
    "zip": "36619",
    "phone": "(251) 661-0114",
    "fax": null,
    "email": null,
    "website": "http://www.fbtc.org",
    "hours": "Friday 9:00am to 12:00pmDirections:Drive up to the red brick building facing the skating center.For more information, please call. \nCounty or Counties Served: Mobile",
    "description": null,
    "requirements": "Personal ID or utility bill.  Service Area:  36695 and 36609 bounded by Cottage Hill to Knollwood\nGo To Details Page For More Information",
    "scraped_at": "2025-10-31T18:18:15.881979",
    "latitude": 30.5889034,
    "longitude": -88.2497851,
    "geocoded_address": "Three Notch Road, Mobile County Commission District 3, Mobile County, Alabama, 36582, United States of America"
  },
  {
    "url": "https://www.foodpantries.org/li/bryants_residential_care_39111",
    "name": "Bryant's Residential Care",
    "address": "1310 Hwy 541 South",
    "city": "Magee",
    "state": "MS",
    "zip": "39111",
    "phone": "(601) 849-6160",
    "fax": null,
    "email": null,
    "website": "http://www.freefood.org/",
    "hours": "The 3rd Saturday of every month 9:00am - 10:30am  We also serve emergency cases such as fires, floods, recent releases from jail or rehab from all surrounding counties.  Donation Hours: Monday - Friday 9:00am - 4:\nGo To Details Page For More Information",
    "description": null,
    "requirements": null,
    "scraped_at": "2025-10-31T18:18:18.429638",
    "latitude": 31.8724469,
    "longitude": -89.7323162,
    "geocoded_address": "Magee, Simpson County, Mississippi, 39111, United States of America",
    "note": "Geocoded to city center (exact address not found)"
  },
  {
    "url": "https://www.foodpantries.org/li/simpson_baptist_association_39114",
    "name": "Simpson Baptist Association",
    "address": "120 Simpson Baptist Drive",
    "city": "Mendenhall",
    "state": "MS",
    "zip": "39114",
    "phone": "(601) 867-9600",
    "fax": null,
    "email": null,
    "website": "http://www.freefood.org/",
    "hours": "The 3rd Saturday of every month 9:00am - 10:30am  We also serve emergency cases such as fires, floods, recent releases from jail or rehab from all surrounding counties.  Donation Hours: Monday - Friday 9:00am - 4:\nGo To Details Page For More Information",
    "description": null,
    "requirements": null,
    "scraped_at": "2025-10-31T18:18:21.851660",
    "latitude": 31.9622006,
    "longitude": -89.8702079,
    "geocoded_address": "Mendenhall, Simpson County, Mississippi, 39114, United States of America",
    "note": "Geocoded to city center (exact address not found)"
  },
  {
    "url": "https://www.foodpantries.org/li/outreach_full_gospel_baptist_church_",
    "name": "Outreach Full Gospel Baptist Church",
    "address": "304 13th Avenue\r\n            Franklinton, LA - \r\n            Phone: 985-839-5294\n\nInstagram URL\n\n\n\nUser Questions and Answers\r\n     Help our users find out more about Outreach Full Gospel Baptist Church.\nAnswer a question below ONLY IF you know the answer to help people who want more information on Outreach Full Gospel Baptist Church.\n\n\n\n\nHow do I volunteer?\n\n\n\nAnswer\n\n\n\n\n\n\n\n\nDo you know if I can get food delivered to me?\n\n\n\nAnswer\n\n\n\n\n\n\n\n\nDo I need to make an appointment?\n\n\n\nAnswer\n\n\n\n\n\n\n\n\nHow do I make a donation?\n\n\n\nAnswer\n\n\n\n\n\n\n\n\nCan I do my community service hours at this location?\n\n\n\nAnswer\n\n\n\n\n\n\n\n\nWhat type of documentation do I need to apply for food?\n\n\n\nAnswer\n\n\n\n\n\n\n\nBe The First To Make A Review\n\n\nYour opinion matters. Leave A Review Or Edit This Listing for Outreach Full Gospel Baptist Church.\nDo not request help here. Contact the Pantry directly.\n\n\n\n\n\n\n\n\n\n Name (required) \n\n\n\n eMail (will not be published) (required) \n\n\n\n Comment (required)\n\n\n\n\n\n\nSubmit\n\n\n\n\n\n\nPantry Details, hours, photos, information: Outreach Full Gospel Baptist Church\nProvides a food pantry. \r\n                                    \r\n                                                                        \n* Important: Please call the food pantries to confirm that the hours have not changed. We do our best to provide full information and details, but food pantries often change their hours without notifying us. We do not want you to waste your time visiting a pantry that is not open.\n\nDonations And Volunteers\r\n            Please contact us directly by phone to donate and/or volunteer.\r\n            \nNeed More Information\r\n            We always need more information on our pantries. If you know of any details, volunteer information, website, hours or more description information about\r\n            Outreach Full Gospel Baptist Church please add a comment below with information. We will then display this for all visitors on this page.\r\n            \n\n\n\n\n\n\n\n\n\nNearby Area Listings \n\nWashington Parish Food Bank\n\n\n\n\n\n\nView Website and Full Address",
    "city": "Franklinton",
    "state": "LA",
    "zip": "70438",
    "phone": null,
    "fax": null,
    "email": null,
    "website": "http://www.freefood.org/",
    "hours": "Monday, Tuesday, and Thursday 9:00am - 12:00pm  Requirements:     Verification of residency is required. Submit an actual street address; P.O. boxes will not be considered. Adhere to USDA Income Guidelines. Furnish the complete details for all permanent household residents: F\nGo To Details Page For More Information",
    "description": null,
    "requirements": "Verification of residency is required. Submit an actual street address; P.O. boxes will not be considered. Adhere to USDA Income Guidelines. Furnish the complete details for all permanent household residents: F\nGo To Details Page For More Information",
    "scraped_at": "2025-10-31T18:18:24.854013",
    "latitude": 30.8471283,
    "longitude": -90.153141,
    "geocoded_address": "Franklinton, Washington Parish, Louisiana, United States of America",
    "note": "Geocoded to city center (exact address not found)"
  },
  {
    "url": "https://www.foodpantries.org/li/immanuel_better_living_church_70438",
    "name": "Immanuel Better Living Church",
    "address": "46105 Highway 10",
    "city": "Franklinton",
    "state": "LA",
    "zip": "70438",
    "phone": null,
    "fax": null,
    "email": null,
    "website": "http://www.freefood.org/",
    "hours": "Monday, Tuesday, and Thursday 9:00am - 12:00pm  Requirements:     Verification of residency is required. Submit an actual street address; P.O. boxes will not be considered. Adhere to USDA Income Guidelines. Furnish the complete details for all permanent household residents: F\nGo To Details Page For More Information",
    "description": null,
    "requirements": "Verification of residency is required. Submit an actual street address; P.O. boxes will not be considered. Adhere to USDA Income Guidelines. Furnish the complete details for all permanent household residents: F\nGo To Details Page For More Information",
    "scraped_at": "2025-10-31T18:18:27.985200",
    "latitude": 30.8471283,
    "longitude": -90.153141,
    "geocoded_address": "Franklinton, Washington Parish, Louisiana, United States of America",
    "note": "Geocoded to city center (exact address not found)"
  },
  {
    "url": "https://www.foodpantries.org/li/ms_meridian_feed-by-faith-food-pantry",
    "name": "Feed by Faith Food/Soup Kitchen",
    "address": "3401 5th Street",
    "city": "Meridian",
    "state": "MS",
    "zip": "39301",
    "phone": "(601) 483-8999",
    "fax": null,
    "email": null,
    "website": "http://www.freefood.org/",
    "hours": "Monday to Thursday: 8:00 am to 3:00 pm \nGo To Details Page For More Information",
    "description": null,
    "requirements": null,
    "scraped_at": "2025-10-31T18:18:33.767631",
    "latitude": 32.360968,
    "longitude": -88.712666,
    "geocoded_address": "3401, 5th Street, Meridian, Lauderdale County, Mississippi, 39307, United States of America"
  },
  {
    "url": "https://www.foodpantries.org/li/zion_hill_methodist_church_39301",
    "name": "Zion Hill Methodist Church",
    "address": "1190 Sandflat Rd",
    "city": "Meridian",
    "state": "MS",
    "zip": "39301",
    "phone": "(601) 483-2865",
    "fax": null,
    "email": null,
    "website": "http://www.freefood.org/",
    "hours": "1st and 3rd Monday: 9:30-12:30\nGo To Details Page For More Information",
    "description": null,
    "requirements": null,
    "scraped_at": "2025-10-31T18:18:36.439804",
    "latitude": 32.3509565,
    "longitude": -88.6260125,
    "geocoded_address": "1190, Sandflat Road, Meridian, Lauderdale County, Mississippi, 39301, United States of America"
  },
  {
    "url": "https://www.foodpantries.org/li/salvation_army_39301",
    "name": "Salvation Army",
    "address": "120 6th Ave S",
    "city": "Meridian",
    "state": "MS",
    "zip": "39301",
    "phone": "(601) 483-6156",
    "fax": null,
    "email": null,
    "website": "http://www.freefood.org/",
    "hours": "Monday to Thursday: 8:00 am to 3:00 pm \nGo To Details Page For More Information",
    "description": null,
    "requirements": null,
    "scraped_at": "2025-10-31T18:18:38.632310",
    "latitude": 32.3643098,
    "longitude": -88.703656,
    "geocoded_address": "Meridian, Lauderdale County, Mississippi, United States of America",
    "note": "Geocoded to city center (exact address not found)"
  },
  {
    "url": "https://www.foodpantries.org/li/multi_county_community_agency_39301",
    "name": "Multi-County Community Agency",
    "address": "2906 Saint Paul Street",
    "city": "Meridian",
    "state": "MS",
    "zip": "39302",
    "phone": "(601) 483-4838",
    "fax": "(601) 486-4917",
    "email": null,
    "website": "http://www.freefood.org/",
    "hours": "Monday to Thursday: 8:00 am to 3:00 pm \nGo To Details Page For More Information",
    "description": null,
    "requirements": null,
    "scraped_at": "2025-10-31T18:18:43.705182",
    "latitude": 32.350984,
    "longitude": -88.707342,
    "geocoded_address": "2906, Saint Paul Street, Meridian, Lauderdale County, Mississippi, 39301, United States of America"
  },
  {
    "url": "https://www.foodpantries.org/li/loves_kitchen_39301",
    "name": "Love's Kitchen",
    "address": "801 18th Ave S",
    "city": "Meridian",
    "state": "MS",
    "zip": "39301",
    "phone": null,
    "fax": null,
    "email": null,
    "website": "http://www.freefood.org/",
    "hours": "Monday to Thursday: 8:00 am to 3:00 pm \nGo To Details Page For More Information",
    "description": null,
    "requirements": null,
    "scraped_at": "2025-10-31T18:18:45.838114",
    "latitude": 32.3643098,
    "longitude": -88.703656,
    "geocoded_address": "Meridian, Lauderdale County, Mississippi, United States of America",
    "note": "Geocoded to city center (exact address not found)"
  },
  {
    "url": "https://www.foodpantries.org/li/maranatha_fellowship_church_39309",
    "name": "Maranatha Fellowship Church",
    "address": "720a John C Stennis Dr",
    "city": "Meridian",
    "state": "MS",
    "zip": "39309",
    "phone": "(601) 679-7927",
    "fax": null,
    "email": null,
    "website": "http://www.freefood.org/",
    "hours": "1st and 3rd Monday: 9:30-12:30\nGo To Details Page For More Information",
    "description": null,
    "requirements": null,
    "scraped_at": "2025-10-31T18:18:49.760878",
    "latitude": 32.3643098,
    "longitude": -88.703656,
    "geocoded_address": "Meridian, Lauderdale County, Mississippi, United States of America",
    "note": "Geocoded to city center (exact address not found)"
  },
  {
    "url": "https://www.foodpantries.org/li/tippah_county_good_samaritan_center_38663",
    "name": "Tippah County Good Samaritan Center - Central Branch",
    "address": "160 Bails Road",
    "city": "Ripley",
    "state": "MS",
    "zip": "38663",
    "phone": "(662) 512-0031",
    "fax": "(662) 837-8162",
    "email": null,
    "website": "http://www.tcgsc.org",
    "hours": "Monday9:30am - 11:30am1:00am - 3:00pmFor more information, please call. \nCounty or Counties Served: Tippah",
    "description": null,
    "requirements": null,
    "scraped_at": "2025-10-31T18:18:54.248920",
    "latitude": 34.7404077,
    "longitude": -88.9582256,
    "geocoded_address": "160, Bails Road, Ripley, Tippah County, Mississippi, 38663, United States of America"
  },
  {
    "url": "https://www.foodpantries.org/li/ms_38860_mission-okolona-food-pantry",
    "name": "Mission Okolona Food Pantry",
    "address": "111 S Church St, P.O. Box 537",
    "city": "Okolona",
    "state": "MS",
    "zip": "38860",
    "phone": "(662) 401-9198",
    "fax": null,
    "email": null,
    "website": "http://www.freefood.org/",
    "hours": null,
    "description": null,
    "requirements": null,
    "scraped_at": "2025-10-31T18:18:56.517471",
    "latitude": 34.0020146,
    "longitude": -88.7547357,
    "geocoded_address": "Okolona, Chickasaw County, Mississippi, 38860, United States of America",
    "note": "Geocoded to city center (exact address not found)"
  },
  {
    "url": "https://www.foodpantries.org/li/brothers-keeper-ministries",
    "name": "Brothers' Keeper Ministries",
    "address": "208 N Main St",
    "city": "Poplarville",
    "state": "MS",
    "zip": "39470",
    "phone": "(601) 795-3173",
    "fax": "(601) 795-3190",
    "email": null,
    "website": "http://www.freefood.org/",
    "hours": "Fridays 12:00 pm to 2:00pm  Notes:  No special requirements needed to receive Food Distribution. No ID required or proof of income. Only requirements: Name of household. Family size, number of kids & number of seniors.  No other information is needed   \nGo To Details Page For More Information",
    "description": null,
    "requirements": "Name of household. Family size, number of kids & number of seniors.  No other information is needed   \nGo To Details Page For More Information",
    "scraped_at": "2025-10-31T18:19:00.289986",
    "latitude": 30.8451705,
    "longitude": -89.535578,
    "geocoded_address": "208, North Main Street, Poplarville, Pearl River County, Mississippi, 39470, United States of America"
  },
  {
    "url": "https://www.foodpantries.org/li/greater_bogaulsa_full_gospel_70427",
    "name": "Greater Bogaulsa Full Gospel",
    "address": "226 Memphis Street",
    "city": "Bogalusa",
    "state": "LA",
    "zip": "70427",
    "phone": null,
    "fax": null,
    "email": null,
    "website": "http://www.freefood.org/",
    "hours": "Monday, Tuesday, and Thursday 9:00am - 12:00pm  Requirements:     Verification of residency is required. Submit an actual street address; P.O. boxes will not be considered. Adhere to USDA Income Guidelines. Furnish the complete details for all permanent household residents: F\nGo To Details Page For More Information",
    "description": null,
    "requirements": "Verification of residency is required. Submit an actual street address; P.O. boxes will not be considered. Adhere to USDA Income Guidelines. Furnish the complete details for all permanent household residents: F\nGo To Details Page For More Information",
    "scraped_at": "2025-10-31T18:19:02.592856",
    "latitude": 30.7868845,
    "longitude": -89.860481,
    "geocoded_address": "226, Memphis Street, Bogalusa, Washington Parish, Louisiana, 70427, United States of America"
  },
  {
    "url": "https://www.foodpantries.org/li/ms_quitman_clarke-county-baptist-center-food-pantry",
    "name": "Clarke County Baptist Center Food Pantry",
    "address": "100 N Jackson Avenue",
    "city": "Quitman",
    "state": "MS",
    "zip": "39355",
    "phone": "(601) 776-6748",
    "fax": null,
    "email": null,
    "website": "http://www.freefood.org/",
    "hours": "Monday to Thursday: 8:00 am to 3:00 pm\nCounty or Counties Served: Clarke",
    "description": null,
    "requirements": null,
    "scraped_at": "2025-10-31T18:19:04.856982",
    "latitude": 32.057294,
    "longitude": -88.723504,
    "geocoded_address": "100, North Jackson Avenue, Quitman, Clarke County, Mississippi, 39355, United States of America"
  },
  {
    "url": "https://www.foodpantries.org/li/marengo_co._operation_homecare_36925",
    "name": "Marengo Co. Operation Homecare",
    "address": "300 Kentucky Ave",
    "city": "York",
    "state": "AL",
    "zip": "36925",
    "phone": "(205) 392-9292",
    "fax": null,
    "email": null,
    "website": "http://www.freefood.org/",
    "hours": "1st and 3rd Monday: 9:30-12:30\r\n                                    \r\n                                                                        \n* Important: Please call the food pantries to confirm that the hours have not changed. We do our best to provide full information and details, but food pantries often change their hours without notifying us. We do not want you to waste your time visiting a pantry that is not open.",
    "description": null,
    "requirements": null,
    "scraped_at": "2025-10-31T18:19:08.867353",
    "latitude": 32.485251,
    "longitude": -88.309691,
    "geocoded_address": "300, Kentucky Avenue, York, Sumter County, Alabama, 36925, United States of America"
  },
  {
    "url": "https://www.foodpantries.org/li/ms_38683_tippah-county-good-samaritan-center-north-branch",
    "name": "Tippah County Good Samaritan Center - North Branch",
    "address": "560 Main Street",
    "city": "Walnut",
    "state": "MS",
    "zip": "38683",
    "phone": "(662) 223-4411",
    "fax": null,
    "email": null,
    "website": "http://www.tcgsc.org",
    "hours": "Tuesday10:00am - 11:45amThursday4:00apm - 5:45pmFor more information, please call. \nCounty or Counties Served: Tippah",
    "description": null,
    "requirements": null,
    "scraped_at": "2025-10-31T18:19:11.353081",
    "latitude": 34.9444751,
    "longitude": -88.9004876,
    "geocoded_address": "560, Main Street, Walnut, Tippah County, Mississippi, 38683, United States of America"
  },
  {
    "url": "https://www.foodpantries.org/li/pbm-ministries",
    "name": "PBM Ministries Food Pantry",
    "address": "639 Second South Street",
    "city": "Woodville",
    "state": "MS",
    "zip": "39669",
    "phone": "(601) 888-3880",
    "fax": null,
    "email": null,
    "website": "http://www.freefood.org/",
    "hours": "Last Saturday of every month from 8:00am to 11:00 a.m. Volunteer:Loading Boxes and paperwork happens every Tuesday and Thursday morning.For more information, please call. \nCounty or Counties Served: Wilkinson",
    "description": null,
    "requirements": null,
    "scraped_at": "2025-10-31T18:19:14.081058",
    "latitude": 31.1011525,
    "longitude": -91.2989924,
    "geocoded_address": "639, Second South Street, Woodville, Wilkinson County, Mississippi, 39669, United States of America"
  },
  {
    "url": "https://www.foodpantries.org/li/our-daily-bread-food-pantry-wiggins",
    "name": "Our Daily Bread Food Pantry Wiggins",
    "address": "227 First Street S",
    "city": "Wiggins",
    "state": "MS",
    "zip": "39577",
    "phone": "(601) 928-1668",
    "fax": null,
    "email": null,
    "website": "http://www.freefood.org/",
    "hours": "Every Tuesday & Thursday of the week from 8:00AM until 4:00PM  Other services:  Community assistance, rental assistance, substances abuse program, counseling services, clothing. The food pantry is located at a different site from the office.  Office l\nGo To Details Page For More Information",
    "description": null,
    "requirements": "New accounts must brin\nGo To Details Page For More Information",
    "scraped_at": "2025-10-31T18:19:16.358253",
    "latitude": 30.858244,
    "longitude": -89.1353283,
    "geocoded_address": "Wiggins, Stone County, Mississippi, 39577, United States of America",
    "note": "Geocoded to city center (exact address not found)"
  },
  {
    "url": "https://www.foodpantries.org/li/ms_39577_new-beginning-ministries",
    "name": "New Beginning Ministries - Food Pantry",
    "address": "407 East Avenue",
    "city": "Wiggins",
    "state": "MS",
    "zip": "39577",
    "phone": "(601) 928-8446",
    "fax": null,
    "email": null,
    "website": "http://www.freefood.org/",
    "hours": "Tuesday & Thursday of the week from 8:00AM until 4:00PMOther services:Community assistance, rental assistance, substances abuse program, counseling services, clothing.The food pantry is located at a different site from the office.Office location:1580 Industrial Park, Wiggins, MS, 39577",
    "description": null,
    "requirements": "New accounts must brin\nGo To Details Page For More Information",
    "scraped_at": "2025-10-31T18:19:19.413739",
    "latitude": 30.8487446,
    "longitude": -89.1337513,
    "geocoded_address": "407, East 5th Avenue, Wiggins, Stone County, Mississippi, 39577, United States of America"
  },
  {
    "url": "https://www.foodpantries.org/li/philadelphia-outreach-ministries",
    "name": "Philadelphia Outreach Ministries",
    "address": "407 Birch Street",
    "city": "West Memphis",
    "state": "AR",
    "zip": "72301",
    "phone": "(870) 735-0040",
    "fax": null,
    "email": null,
    "website": "http://www.freefood.org/",
    "hours": "Monday - Friday 10:00am - 2:00pm  Notes:  State issued ID is required Donations are accepted everyday  For more information, please call.  \nGo To Details Page For More Information",
    "description": null,
    "requirements": null,
    "scraped_at": "2025-10-31T18:19:22.288601",
    "latitude": 35.1369572,
    "longitude": -90.1944827,
    "geocoded_address": "407, Birch Street, Westwood Acres, Hulbert, West Memphis, Crittenden County, Arkansas, 72301, United States of America"
  },
  {
    "url": "https://www.foodpantries.org/li/good-neighbor-love-center",
    "name": "Good Neighbor Love Center Food Pantry",
    "address": "709 E. Broadway Ave.",
    "city": "West Memphis",
    "state": "AR",
    "zip": "72301",
    "phone": "(870) 735-0870",
    "fax": null,
    "email": null,
    "website": "http://www.freefood.org/",
    "hours": "Monday - Friday 10:00am - 2:00pm Notes:State issued ID is requiredDonations are accepted everydayFor more information, please call.\nCounty or Counties Served: Crittenden",
    "description": null,
    "requirements": null,
    "scraped_at": "2025-10-31T18:19:24.912853",
    "latitude": 35.1465034,
    "longitude": -90.1344322,
    "geocoded_address": "East Broadway Avenue, West Memphis, Crittenden County, Arkansas, 72301, United States of America"
  },
  {
    "url": "https://www.foodpantries.org/li/eighth_street_mission_for_jesus_christ_72303",
    "name": "Eighth Street Mission For Jesus Christ",
    "address": "717 East Broadway Ave.",
    "city": "West Memphis",
    "state": "AR",
    "zip": "72303",
    "phone": "(870) 735-6010",
    "fax": null,
    "email": null,
    "website": "http://www.freefood.org/",
    "hours": "Monday - Friday 10:00am - 2:00pm  Notes:  State issued ID is required Donations are accepted everyday  For more information, please call.  \nGo To Details Page For More Information",
    "description": null,
    "requirements": null,
    "scraped_at": "2025-10-31T18:19:27.603235",
    "latitude": 35.1465034,
    "longitude": -90.1344322,
    "geocoded_address": "East Broadway Avenue, West Memphis, Crittenden County, Arkansas, 72301, United States of America"
  },
  {
    "url": "https://www.foodpantries.org/li/new_vison_outreach_ministry_39367",
    "name": "New Vison Outreach Ministry",
    "address": "702 Wayne Street",
    "city": "Waynesboro",
    "state": "MS",
    "zip": "39367",
    "phone": "(601) 899-9629",
    "fax": null,
    "email": null,
    "website": "http://www.freefood.org/",
    "hours": "Monday to Thursday: 8:00 am to 3:00 pm \nGo To Details Page For More Information",
    "description": null,
    "requirements": null,
    "scraped_at": "2025-10-31T18:19:31.336150",
    "latitude": 31.6737087,
    "longitude": -88.6450272,
    "geocoded_address": "702, Wayne Street, Waynesboro, Wayne County, Mississippi, 39367, United States of America"
  },
  {
    "url": "https://www.foodpantries.org/li/pbm_ministries_",
    "name": "PBM Ministries",
    "address": "639 Second South St\r\n            Woodville, MS - \r\n            Phone: 601-888-3880\n\n\n\n\nUser Questions and Answers\r\n     Help our users find out more about PBM Ministries.\nAnswer a question below ONLY IF you know the answer to help people who want more information on PBM Ministries.\n\n\n\n\nHow do I volunteer?\n\n\n\nAnswer\n\n\n\n\n\n\n\n\nDo you know if I can get food delivered to me?\n\n\n\nAnswer\n\n\n\n\n\n\n\n\nDo I need to make an appointment?\n\n\n\nAnswer\n\n\n\n\n\n\n\n\nHow do I make a donation?\n\n\n\nAnswer\n\n\n\n\n\n\n\n\nCan I do my community service hours at this location?\n\n\n\nAnswer\n\n\n\n\n\n\n\n\nWhat type of documentation do I need to apply for food?\n\n\n\nAnswer\n\n\n\n\n\n\n\nBe The First To Make A Review\n\n\nYour opinion matters. Leave A Review Or Edit This Listing for PBM Ministries.\nDo not request help here. Contact the Pantry directly.\n\n\n\n\n\n\n\n\n\n Name (required) \n\n\n\n eMail (will not be published) (required) \n\n\n\n Comment (required)\n\n\n\n\n\n\nSubmit\n\n\n\n\n\n\nPantry Details, hours, photos, information: PBM Ministries\nProvides a food pantry. \r\n                                    \r\n                                                                        \n* Important: Please call the food pantries to confirm that the hours have not changed. We do our best to provide full information and details, but food pantries often change their hours without notifying us. We do not want you to waste your time visiting a pantry that is not open.\n\nDonations And Volunteers\r\n            Please contact us directly by phone to donate and/or volunteer.\r\n            \nNeed More Information\r\n            We always need more information on our pantries. If you know of any details, volunteer information, website, hours or more description information about\r\n            PBM Ministries please add a comment below with information. We will then display this for all visitors on this page.\r\n            \n\n\n\n\n\n\n\n\n\nNearby Area Listings \n\n61 South Church Of Christ\n\n\n\n\n\n\nView Website and Full Address",
    "city": "Natchez",
    "state": "MS",
    "zip": "39120",
    "phone": null,
    "fax": null,
    "email": null,
    "website": "http://www.freefood.org/",
    "hours": null,
    "description": null,
    "requirements": null,
    "scraped_at": "2025-10-31T18:19:33.394874",
    "latitude": 31.5604076,
    "longitude": -91.403171,
    "geocoded_address": "Natchez, Adams County, Mississippi, United States of America",
    "note": "Geocoded to city center (exact address not found)"
  }
]