[
  {
    "url": "https://www.foodpantries.org/li/alberton_senior_citizens_59820",
    "name": "Alberton Senior Citizens",
    "address": "701 Railroad Ave",
    "city": "Alberton",
    "state": "MT",
    "zip": "59820",
    "phone": null,
    "fax": null,
    "email": null,
    "website": "http://www.freefood.org/",
    "hours": "8 to 1:30 Tuesdays and Thursdays. Serve lunch at noon on those days.\r\n                                    \r\n                                                                        \n* Important: Please call the food pantries to confirm that the hours have not changed. We do our best to provide full information and details, but food pantries often change their hours without notifying us. We do not want you to waste your time visiting a pantry that is not open.",
    "description": null,
    "requirements": "ID, residence Frenchtown to Fish Creek, income restrictions.",
    "scraped_at": "2025-10-31T20:51:44.937145",
    "latitude": 47.0024466,
    "longitude": -114.4764643,
    "geocoded_address": "Alberton Branch Library, 701, Railroad Avenue, Alberton, Mineral County, Montana, 59820, United States of America"
  },
  {
    "url": "https://www.foodpantries.org/li/mt_alberton_alberton-community-food-pantry",
    "name": "Alberton Community Food Pantry",
    "address": "502 5th Street",
    "city": "Alberton",
    "state": "MT",
    "zip": "59820",
    "phone": "(406) 722-4410",
    "fax": null,
    "email": null,
    "website": "http://www.freefood.org/",
    "hours": "Every 2nd and 4th Wednesdays of each month: 1:00 pm to 6:00 pm",
    "description": null,
    "requirements": "ID, residence Frenchtown to Fish Creek, income restrictions.",
    "scraped_at": "2025-10-31T20:51:47.483508",
    "latitude": 47.0028052,
    "longitude": -114.4790689,
    "geocoded_address": "5th Street South, Alberton, Mineral County, Montana, United States of America"
  },
  {
    "url": "https://www.foodpantries.org/li/superior_senior_citizen_center_59872",
    "name": "Superior Senior Citizen Center",
    "address": "611 5th Ave E.",
    "city": "Superior",
    "state": "MT",
    "zip": "59872",
    "phone": null,
    "fax": null,
    "email": null,
    "website": "http://www.freefood.org/",
    "hours": "Wed. and Fri. 7 am to 1 pm; 1st and 3rd Mon. 7 am to 7 pm\r\n                                    \r\n                                                                        \n* Important: Please call the food pantries to confirm that the hours have not changed. We do our best to provide full information and details, but food pantries often change their hours without notifying us. We do not want you to waste your time visiting a pantry that is not open.",
    "description": null,
    "requirements": null,
    "scraped_at": "2025-10-31T20:51:49.913831",
    "latitude": 47.1908069,
    "longitude": -114.8833014,
    "geocoded_address": "611, 5th Avenue East, Riverview Trailer Park, Superior, Mineral County, Montana, 59872, United States of America"
  },
  {
    "url": "https://www.foodpantries.org/li/project_care_59711",
    "name": "Project Care Food Pantry",
    "address": "401 Alder Street",
    "city": "Anaconda",
    "state": "MT",
    "zip": "59711",
    "phone": "(406) 559-0247",
    "fax": null,
    "email": null,
    "website": "http://www.freefood.org/",
    "hours": "Monday and Thursday 1:00pm - 3:00pm\r\nFor more information, please call.",
    "description": null,
    "requirements": null,
    "scraped_at": "2025-10-31T20:51:52.295123",
    "latitude": 46.125731,
    "longitude": -112.945064,
    "geocoded_address": "401, Alder Street, Anaconda, Deer Lodge County, Montana, 59711, United States of America"
  },
  {
    "url": "https://www.foodpantries.org/li/st_labre_food_pantry_59003",
    "name": "St Labre Food Pantry",
    "address": "1000 Tongue River Rd.",
    "city": "Ashland",
    "state": "MT",
    "zip": "59003",
    "phone": null,
    "fax": null,
    "email": null,
    "website": "http://www.freefood.org/",
    "hours": null,
    "description": null,
    "requirements": null,
    "scraped_at": "2025-10-31T20:51:54.216453",
    "latitude": 45.6046098,
    "longitude": -106.2817781,
    "geocoded_address": "Tongue River Road, Ashland, Ashland District / Totoeman\u0227h\u00e9no, Rosebud County, Montana, 59003, United States of America"
  },
  {
    "url": "https://www.foodpantries.org/li/colstrip_food_bank_59323",
    "name": "Colstrip Food Bank",
    "address": "520 Poplar",
    "city": "Colstrip",
    "state": "MT",
    "zip": "59323",
    "phone": null,
    "fax": null,
    "email": null,
    "website": "http://www.freefood.org/",
    "hours": "8:30 to 10 am the third Thursday of the month\r\n                                    \r\n                                                                        \n* Important: Please call the food pantries to confirm that the hours have not changed. We do our best to provide full information and details, but food pantries often change their hours without notifying us. We do not want you to waste your time visiting a pantry that is not open.",
    "description": null,
    "requirements": null,
    "scraped_at": "2025-10-31T20:51:57.837551",
    "latitude": 45.8871511,
    "longitude": -106.630911,
    "geocoded_address": "520, Poplar Drive, Colstrip, Rosebud County, Montana, 59323, United States of America"
  },
  {
    "url": "https://www.foodpantries.org/li/bigfork-food-bank",
    "name": "Bigfork Food Bank",
    "address": "7545 MT Hwy 35",
    "city": "Bigfork",
    "state": "MT",
    "zip": "59911",
    "phone": "(406) 837-2297",
    "fax": null,
    "email": null,
    "website": "http://www.freefood.org/",
    "hours": "Tuesday of the month4:00pm - 6:00pmThe second and fourth Tuesday of each month9:00am - 1:00pmPlease call Ann Tucker at 250-4546 for more information",
    "description": null,
    "requirements": null,
    "scraped_at": "2025-10-31T20:52:00.112162",
    "latitude": 48.0679255,
    "longitude": -114.0966664,
    "geocoded_address": "Bigfork, Flathead County, Montana, United States of America",
    "note": "Geocoded to city center (exact address not found)"
  },
  {
    "url": "https://www.foodpantries.org/li/polson_senior_citizens_center_59860",
    "name": "Polson Senior Citizens Center Food Pantry",
    "address": "504 3rd Ave E.",
    "city": "Polson",
    "state": "MT",
    "zip": "59860",
    "phone": "(406) 883-4735",
    "fax": null,
    "email": null,
    "website": "http://www.freefood.org/",
    "hours": "Monday to Friday: 8:00 am to 4:00 pm Lunch Hours:11:45 am to 12:30 pm\r\n                                    \r\n                                    County or Counties Served: Lake",
    "description": null,
    "requirements": null,
    "scraped_at": "2025-10-31T20:52:04.097208",
    "latitude": 47.6932636,
    "longitude": -114.1560467,
    "geocoded_address": "504, 3rd Avenue East, Polson, Lake County, Montana, 59860, United States of America"
  },
  {
    "url": "https://www.foodpantries.org/li/polson_loaves_and_fish_pantry_59860",
    "name": "Polson Loaves and Fish Pantry",
    "address": "904 1st Street East",
    "city": "Polson",
    "state": "MT",
    "zip": "59860",
    "phone": "(406) 883-6864",
    "fax": null,
    "email": null,
    "website": "http://www.freefood.org/",
    "hours": "Monday to Friday: 8:00 am to 4:00 pm  Lunch Hours:  11:45 am to 12:30 pm\nGo To Details Page For More Information",
    "description": null,
    "requirements": null,
    "scraped_at": "2025-10-31T20:52:06.500174",
    "latitude": 47.6871307,
    "longitude": -114.1619582,
    "geocoded_address": "904, 1st Street East, Polson, Lake County, Montana, 59860, United States of America"
  },
  {
    "url": "https://www.foodpantries.org/li/west_shore_food_bank_59922",
    "name": "West Shore Food Bank",
    "address": "140  Bills Rd",
    "city": "Lakeside",
    "state": "MT",
    "zip": "59922",
    "phone": "(406) 844-2779",
    "fax": null,
    "email": null,
    "website": "http://www.freefood.org/",
    "hours": "Monday 4:00pm\u00a0 to 6:00pmTuesday 9:00am\u00a0 to 11:00amFor more information, please call.\nCounty or Counties Served: Flathead",
    "description": null,
    "requirements": null,
    "scraped_at": "2025-10-31T20:52:08.599553",
    "latitude": 48.0218151,
    "longitude": -114.2272341,
    "geocoded_address": "140, Bills Road, Lakeside, Flathead County, Montana, 59922, United States of America"
  },
  {
    "url": "https://www.foodpantries.org/li/lighthouse_christian_home_59901",
    "name": "Lighthouse Christian Home",
    "address": "384 N. Somers Rd.",
    "city": "Kalispell",
    "state": "MT",
    "zip": "59901",
    "phone": null,
    "fax": null,
    "email": null,
    "website": "http://www.freefood.org/",
    "hours": "24/7\r\n                                    \r\n                                                                        \n* Important: Please call the food pantries to confirm that the hours have not changed. We do our best to provide full information and details, but food pantries often change their hours without notifying us. We do not want you to waste your time visiting a pantry that is not open.",
    "description": null,
    "requirements": null,
    "scraped_at": "2025-10-31T20:52:10.904049",
    "latitude": 48.202158,
    "longitude": -114.315321,
    "geocoded_address": "Kalispell, Flathead County, Montana, United States of America",
    "note": "Geocoded to city center (exact address not found)"
  },
  {
    "url": "https://www.foodpantries.org/li/ronan_bread_basket_59864",
    "name": "Ronan Bread Basket",
    "address": "10 6th Ave SW",
    "city": "Ronan",
    "state": "MT",
    "zip": "59864",
    "phone": "(406) 676-4357",
    "fax": null,
    "email": null,
    "website": "http://www.freefood.org/",
    "hours": "Tuesday and Friday\r\n 10:00am\u00a0 to 2:00pm \n\r\nFor more information, please call. \nVolunteering Information:http://ronanbreadbasket.org/volunteer \nCounty or Counties Served: Lake",
    "description": null,
    "requirements": null,
    "scraped_at": "2025-10-31T20:52:13.880428",
    "latitude": 47.5291011,
    "longitude": -114.1061187,
    "geocoded_address": "10, 6th Avenue Southwest, Ronan, Lake County, Montana, 59864, United States of America"
  },
  {
    "url": "https://www.foodpantries.org/li/billings-food-bank",
    "name": "Billings Food Bank",
    "address": "2112 4th Ave. N",
    "city": "Billings",
    "state": "MT",
    "zip": "59101",
    "phone": "(406) 259-2856",
    "fax": null,
    "email": null,
    "website": "http://www.freefood.org/",
    "hours": "8 to 5 Mondays through Fridays\nGo To Details Page For More Information",
    "description": null,
    "requirements": null,
    "scraped_at": "2025-10-31T20:52:16.016848",
    "latitude": 45.7887303,
    "longitude": -108.4995708,
    "geocoded_address": "2112, 4th Avenue North, East Downtown, Billings, Yellowstone County, Montana, 59101, United States of America"
  },
  {
    "url": "https://www.foodpantries.org/li/family_service_59101",
    "name": "Family Service",
    "address": "1824 First Ave N.",
    "city": "Billings",
    "state": "MT",
    "zip": "59101",
    "phone": null,
    "fax": null,
    "email": null,
    "website": "http://www.freefood.org/",
    "hours": "8 to 5 Mondays through Fridays\r\n                                    \r\n                                                                        \n* Important: Please call the food pantries to confirm that the hours have not changed. We do our best to provide full information and details, but food pantries often change their hours without notifying us. We do not want you to waste your time visiting a pantry that is not open.",
    "description": null,
    "requirements": null,
    "scraped_at": "2025-10-31T20:52:18.631123",
    "latitude": 45.7874957,
    "longitude": -108.49607,
    "geocoded_address": "Billings, Yellowstone County, Montana, United States of America",
    "note": "Geocoded to city center (exact address not found)"
  },
  {
    "url": "https://www.foodpantries.org/li/mt_59102_peace-lutheran-church",
    "name": "Peace Lutheran Church",
    "address": "1301 Avenue D",
    "city": "Billings",
    "state": "MT",
    "zip": "59102",
    "phone": "(406) 252-5504",
    "fax": null,
    "email": null,
    "website": "http://www.freefood.org/",
    "hours": "8 to 5 Mondays through Fridays\nGo To Details Page For More Information",
    "description": null,
    "requirements": null,
    "scraped_at": "2025-10-31T20:52:21.888096",
    "latitude": 45.7874358,
    "longitude": -108.549119,
    "geocoded_address": "Peace Lutheran, 1301, Avenue D, North Elevation, Billings, Yellowstone County, Montana, 59102, United States of America"
  },
  {
    "url": "https://www.foodpantries.org/li/community_hope_of_laurel_59044",
    "name": "Community Hope of Laurel",
    "address": "204 Cedar Ave",
    "city": "Laurel",
    "state": "MT",
    "zip": "59044",
    "phone": "(406) 628-7281",
    "fax": null,
    "email": null,
    "website": "http://www.freefood.org/",
    "hours": "Monday through Friday9:30 to 3:30 For more information, please call.\nCounty or Counties Served: Yellowstone",
    "description": null,
    "requirements": null,
    "scraped_at": "2025-10-31T20:52:24.075391",
    "latitude": 45.6654848,
    "longitude": -108.7741867,
    "geocoded_address": "204, Cedar Avenue, Laurel, Yellowstone County, Montana, 59044, United States of America"
  },
  {
    "url": "https://www.foodpantries.org/li/boyd_andrew_community_services_elkhorn_treatment_center_59632",
    "name": "Boyd Andrew Community Services Elkhorn Treatment Center",
    "address": "#1 Riverside Road",
    "city": "Boulder",
    "state": "MT",
    "zip": "59632",
    "phone": null,
    "fax": null,
    "email": null,
    "website": "http://www.freefood.org/",
    "hours": "24/7\r\n                                    \r\n                                                                        \n* Important: Please call the food pantries to confirm that the hours have not changed. We do our best to provide full information and details, but food pantries often change their hours without notifying us. We do not want you to waste your time visiting a pantry that is not open.",
    "description": null,
    "requirements": null,
    "scraped_at": "2025-10-31T20:52:26.612206",
    "latitude": 46.236595,
    "longitude": -112.120834,
    "geocoded_address": "Boulder, Jefferson County, Montana, United States of America",
    "note": "Geocoded to city center (exact address not found)"
  },
  {
    "url": "https://www.foodpantries.org/li/sincerely-paul-ministries-food-pantry",
    "name": "Sincerely Paul Ministries Food Pantry",
    "address": "313 1st st E",
    "city": "Whitehall",
    "state": "MT",
    "zip": "59759",
    "phone": "(406) 792-5059",
    "fax": null,
    "email": null,
    "website": "http://www.freefood.org/",
    "hours": "24/7\nGo To Details Page For More Information",
    "description": null,
    "requirements": null,
    "scraped_at": "2025-10-31T20:52:30.529809",
    "latitude": 45.8703498,
    "longitude": -112.0923982,
    "geocoded_address": "313, East 1st Street, La Casa Trailer Park, Whitehall, Jefferson County, Montana, 59759, United States of America"
  },
  {
    "url": "https://www.foodpantries.org/li/mt_59759_sincerely-paul-feeding-his-sheep",
    "name": "Sincerely Paul Feeding His Sheep",
    "address": "9 Legion Street",
    "city": "whitehall",
    "state": "MT",
    "zip": "59759",
    "phone": "(406) 792-5059",
    "fax": null,
    "email": null,
    "website": "http://www.freefood.org/",
    "hours": "24/7\nGo To Details Page For More Information",
    "description": null,
    "requirements": null,
    "scraped_at": "2025-10-31T20:52:32.975286",
    "latitude": 45.87076,
    "longitude": -112.097494,
    "geocoded_address": "Whitehall, Jefferson County, Montana, United States of America",
    "note": "Geocoded to city center (exact address not found)"
  },
  {
    "url": "https://www.foodpantries.org/li/montana_youth_homes_59601",
    "name": "Montana Youth Homes",
    "address": "200 Miller St.",
    "city": "Helena",
    "state": "MT",
    "zip": "59601",
    "phone": null,
    "fax": null,
    "email": null,
    "website": "http://www.freefood.org/",
    "hours": "24 hours a day\r\n                                    \r\n                                                                        \n* Important: Please call the food pantries to confirm that the hours have not changed. We do our best to provide full information and details, but food pantries often change their hours without notifying us. We do not want you to waste your time visiting a pantry that is not open.",
    "description": null,
    "requirements": null,
    "scraped_at": "2025-10-31T20:52:36.395288",
    "latitude": 46.5835987,
    "longitude": -112.0381309,
    "geocoded_address": "Miller Street, Last Chance Gulch, Helena, Lewis and Clark County, Montana, 59601, United States of America"
  },
  {
    "url": "https://www.foodpantries.org/li/food-bank-bozeman",
    "name": "Food Bank - Bozeman",
    "address": "602 Bond Street",
    "city": "Bozeman",
    "state": "MT",
    "zip": "59715",
    "phone": "(406) 586-7600",
    "fax": "(406) 585-5597",
    "email": null,
    "website": "http://www.freefood.org/",
    "hours": "Monday-Friday 8:00am-5:00pmTuesday until 7:00pmBusiness HoursFor more information, please call. \nMission Statement\r\n               Gallatin Valley Food Bank\u2019s (GVFB) mission is to improve food security throughout Southwest Montana.\r\n            \nVolunteering Information:https://gallatinvalleyfoodbank.org/give-help/volunteer \nCounty or Counties Served: Gallatin",
    "description": null,
    "requirements": null,
    "scraped_at": "2025-10-31T20:52:38.827608",
    "latitude": 45.6947926,
    "longitude": -111.0284781,
    "geocoded_address": "602, Bond Street, Story Mill, Bozeman, Gallatin County, Montana, 59715, United States of America"
  },
  {
    "url": "https://www.foodpantries.org/li/FAST_Blackfeet _ Food Pantry",
    "name": null,
    "address": null,
    "city": null,
    "state": null,
    "zip": null,
    "phone": null,
    "fax": null,
    "email": null,
    "website": null,
    "hours": null,
    "description": null,
    "requirements": null,
    "scraped_at": "2025-10-31T20:52:40.841464"
  },
  {
    "url": "https://www.foodpantries.org/li/butte-food-bank",
    "name": "Butte Food Bank",
    "address": "1019  E 2nd Street",
    "city": "Butte",
    "state": "MT",
    "zip": "59701",
    "phone": "(406) 782-6230",
    "fax": null,
    "email": null,
    "website": "http://www.freefood.org/",
    "hours": "9:15am and 11:15am Monday through Friday, To arrange an appointment to pick-up food.  Pick-up Scheduled: 11:45am  Bread is made available at noon. \nGo To Details Page For More Information",
    "description": null,
    "requirements": null,
    "scraped_at": "2025-10-31T20:52:41.536473",
    "latitude": 46.0053782,
    "longitude": -112.5247382,
    "geocoded_address": "1019, East 2nd Street, South Butte, Butte, Silver Bow County, Montana, 59701, United States of America"
  },
  {
    "url": "https://www.foodpantries.org/li/butte_emergency_food_bank",
    "name": "Butte Emergency Food Bank",
    "address": "1019 E. Second Street",
    "city": "Butte",
    "state": "MT",
    "zip": "59701",
    "phone": "(406) 782-3814",
    "fax": null,
    "email": null,
    "website": "http://www.freefood.org/",
    "hours": "9:15am and 11:15amMonday through Friday, To arrange an appointment to pick-up food. Pick-up Scheduled:11:45amBread is made available at noon.\nMission Statement\r\n               The Butte Emergency Food Bank operates with the intention that no individual or family in the community experiences the fear and pain of hunger.\r\n            \nCounty or Counties Served: Silver Bow",
    "description": null,
    "requirements": null,
    "scraped_at": "2025-10-31T20:52:44.682319",
    "latitude": 46.0131505,
    "longitude": -112.536508,
    "geocoded_address": "Butte, Silver Bow County, Montana, United States of America",
    "note": "Geocoded to city center (exact address not found)"
  },
  {
    "url": "https://www.foodpantries.org/li/butte_emergency_food_bank_59701",
    "name": "Butte Emergency Food Bank",
    "address": "1019 E. 2nd St.",
    "city": "Butte",
    "state": "MT",
    "zip": "59701",
    "phone": null,
    "fax": null,
    "email": null,
    "website": "http://www.freefood.org/",
    "hours": "Mondays through Fridays 8:30 to 12\r\n                                    \r\n                                                                        \n* Important: Please call the food pantries to confirm that the hours have not changed. We do our best to provide full information and details, but food pantries often change their hours without notifying us. We do not want you to waste your time visiting a pantry that is not open.",
    "description": null,
    "requirements": null,
    "scraped_at": "2025-10-31T20:52:48.074009",
    "latitude": 46.0053782,
    "longitude": -112.5247382,
    "geocoded_address": "1019, East 2nd Street, South Butte, Butte, Silver Bow County, Montana, 59701, United States of America"
  },
  {
    "url": "https://www.foodpantries.org/li/chinook_food_pantry_59523",
    "name": "Chinook Food Pantry",
    "address": "112 6th St W.",
    "city": "Chinook",
    "state": "MT",
    "zip": "59523",
    "phone": "(406) 357-2579",
    "fax": null,
    "email": null,
    "website": "http://www.freefood.org/",
    "hours": "Tuesday 1:00pm to 3:30pmFor more information, please call. \nCounty or Counties Served: Blaine",
    "description": null,
    "requirements": null,
    "scraped_at": "2025-10-31T20:52:50.882935",
    "latitude": 48.5900271,
    "longitude": -109.2316407,
    "geocoded_address": "112, 6th Street West, Chinook, Blaine County, Montana, 59523, United States of America"
  },
  {
    "url": "https://www.foodpantries.org/li/teton_county_food_pantry_",
    "name": "Teton County Food Pantry",
    "address": "17 Main Avenue North",
    "city": "Choteau",
    "state": "MT",
    "zip": "59422",
    "phone": "(406) 466-2126",
    "fax": null,
    "email": null,
    "website": "http://www.freefood.org/",
    "hours": "Friday 9:00am to 11:00am  For more information, please call.  \nGo To Details Page For More Information",
    "description": null,
    "requirements": null,
    "scraped_at": "2025-10-31T20:52:53.419571",
    "latitude": 47.8117272,
    "longitude": -112.1825294,
    "geocoded_address": "Choteau Public Library, 17, Main Avenue North, Choteau, Teton County, Montana, United States of America"
  },
  {
    "url": "https://www.foodpantries.org/li/mccone_food_bank_59215",
    "name": "McCone Food Bank",
    "address": "Main Street",
    "city": "Circle",
    "state": "MT",
    "zip": "59215",
    "phone": null,
    "fax": null,
    "email": null,
    "website": "http://www.freefood.org/",
    "hours": "10 - 11:30 last Friday of every month\r\n                                    \r\n                                                                        \n* Important: Please call the food pantries to confirm that the hours have not changed. We do our best to provide full information and details, but food pantries often change their hours without notifying us. We do not want you to waste your time visiting a pantry that is not open.",
    "description": null,
    "requirements": null,
    "scraped_at": "2025-10-31T20:52:55.700655",
    "latitude": 47.4180977,
    "longitude": -105.590081,
    "geocoded_address": "Main Street, Stephensons Trailer Court, Circle, McCone County, Montana, 59215, United States of America"
  },
  {
    "url": "https://www.foodpantries.org/li/columbia-falls-food-bank",
    "name": "Columbia Falls Food Bank",
    "address": "82 Railroad St E",
    "city": "Columbia Falls",
    "state": "MT",
    "zip": "59912",
    "phone": "(406) 892-0241",
    "fax": null,
    "email": null,
    "website": "http://www.freefood.org/",
    "hours": "Monday 5:00pm to 6:30pm For more information, please call. \nGo To Details Page For More Information",
    "description": null,
    "requirements": null,
    "scraped_at": "2025-10-31T20:52:58.572253",
    "latitude": 48.3697168,
    "longitude": -114.191582,
    "geocoded_address": "Columbia Falls, Flathead County, Montana, United States of America",
    "note": "Geocoded to city center (exact address not found)"
  },
  {
    "url": "https://www.foodpantries.org/li/columbia_falls_food_bank_59912",
    "name": "Columbia Falls Food Bank",
    "address": "82 Railroad Street",
    "city": "Columbia Falls",
    "state": "MT",
    "zip": "59912",
    "phone": "(406) 892-0241",
    "fax": null,
    "email": null,
    "website": "http://www.freefood.org/",
    "hours": "Monday 5:00pm to 6:30pmFor more information, please call. \nCounty or Counties Served: Flathead",
    "description": null,
    "requirements": null,
    "scraped_at": "2025-10-31T20:53:04.270904",
    "latitude": 48.3782109,
    "longitude": -114.1852577,
    "geocoded_address": "Railroad Street, Columbia Falls, Flathead County, Montana, 59912, United States of America"
  },
  {
    "url": "https://www.foodpantries.org/li/north_west_montana_veterans_stand_down_59901",
    "name": "North West Montana Veterans Stand Down and Food Pantry",
    "address": "1349 Hwy 2 East",
    "city": "Kalispell",
    "state": "MT",
    "zip": "59901",
    "phone": "(406) 756-7304",
    "fax": null,
    "email": null,
    "website": "http://www.freefood.org/",
    "hours": "Monday - Friday10:00 am - 3:00 pmFor more information, please call.\nVolunteering Information:https://veteransfoodpantry.org/AboutUs/Volunteers/tabid/6281/Default.aspx \nCounty or Counties Served: Flathead",
    "description": null,
    "requirements": null,
    "scraped_at": "2025-10-31T20:53:07.285408",
    "latitude": 48.202158,
    "longitude": -114.315321,
    "geocoded_address": "Kalispell, Flathead County, Montana, United States of America",
    "note": "Geocoded to city center (exact address not found)"
  },
  {
    "url": "https://www.foodpantries.org/li/north-valley-food-bank",
    "name": "North Valley Food Bank",
    "address": "251 Flathead Avenue",
    "city": "Whitefish",
    "state": "MT",
    "zip": "59937",
    "phone": "(406) 862-5863",
    "fax": null,
    "email": null,
    "website": "http://www.freefood.org/",
    "hours": "9:00 to 11:00 MTWFS\nGo To Details Page For More Information",
    "description": null,
    "requirements": null,
    "scraped_at": "2025-10-31T20:53:10.736936",
    "latitude": 48.3986116,
    "longitude": -114.3400422,
    "geocoded_address": "Flathead Avenue, Whitefish, Flathead County, Montana, 59937, United States of America"
  },
  {
    "url": "https://www.foodpantries.org/li/north_valley_food_bank_59937",
    "name": "North Valley Food Bank",
    "address": "311 E 1st St.",
    "city": "Whitefish",
    "state": "MT",
    "zip": "59937",
    "phone": null,
    "fax": null,
    "email": null,
    "website": "http://www.freefood.org/",
    "hours": "9:00 to 11:00 MTWFS\r\n                                    \r\n                                                                        \n* Important: Please call the food pantries to confirm that the hours have not changed. We do our best to provide full information and details, but food pantries often change their hours without notifying us. We do not want you to waste your time visiting a pantry that is not open.",
    "description": null,
    "requirements": null,
    "scraped_at": "2025-10-31T20:53:13.252889",
    "latitude": 48.4114456,
    "longitude": -114.339047,
    "geocoded_address": "311, East 1st Street, Whitefish, Flathead County, Montana, 59937, United States of America"
  },
  {
    "url": "https://www.foodpantries.org/li/mt_59901_heart-market",
    "name": "HEART Market",
    "address": "514 E Washington Street",
    "city": "Kalispell",
    "state": "MT",
    "zip": "59901",
    "phone": "(406) 751-3630",
    "fax": null,
    "email": null,
    "website": "http://www.freefood.org/",
    "hours": "Monday & Tuesday8:00am - 10:00amWednesday3:00pm - 6:00pmOnly open to K-12 studentsFor more information, please call. \nCounty or Counties Served: Flathead",
    "description": null,
    "requirements": null,
    "scraped_at": "2025-10-31T20:53:15.607524",
    "latitude": 48.2042974,
    "longitude": -114.307681,
    "geocoded_address": "514, East Washington Street, Kalispell North, Kalispell, Flathead County, Montana, 59901, United States of America"
  },
  {
    "url": "https://www.foodpantries.org/li/flathead_food_bank_59901",
    "name": "Flathead Food Bank",
    "address": "1203 Highway 2 West",
    "city": "Kalispell",
    "state": "MT",
    "zip": "59901",
    "phone": "(406) 752-3663",
    "fax": "(406) 752-2572",
    "email": null,
    "website": "http://www.freefood.org/",
    "hours": "Monday and Wednesday\r\n 8:00am - 3:45pm\r\nTuesday and Thursday\r\n 10:00am - 5:45pm\n\r\nFor more information, please call Flathead Food Bank",
    "description": null,
    "requirements": null,
    "scraped_at": "2025-10-31T20:53:18.076923",
    "latitude": 48.202158,
    "longitude": -114.315321,
    "geocoded_address": "Kalispell, Flathead County, Montana, United States of America",
    "note": "Geocoded to city center (exact address not found)"
  },
  {
    "url": "https://www.foodpantries.org/li/samaritan_house_inc._59901",
    "name": "Samaritan House Inc.",
    "address": "124 9th Ave West",
    "city": "Kalispell",
    "state": "MT",
    "zip": "59901",
    "phone": "(406) 257-5801",
    "fax": "(406) 755-3731",
    "email": null,
    "website": "http://www.freefood.org/",
    "hours": "Monday - Friday 8:00am - 4:30pm For more information, please call. \nCounty or Counties Served: Flathead",
    "description": null,
    "requirements": null,
    "scraped_at": "2025-10-31T20:53:21.023769",
    "latitude": 48.1952908,
    "longitude": -114.3266665,
    "geocoded_address": "124, 9th Avenue West, Southwest, Kalispell, Flathead County, Montana, 59901, United States of America"
  },
  {
    "url": "https://www.foodpantries.org/li/church_29_food_pantry_59901",
    "name": "Church 29 Food Pantry",
    "address": "1896 Airport Rd.",
    "city": "Kalispell",
    "state": "MT",
    "zip": "59901",
    "phone": null,
    "fax": null,
    "email": null,
    "website": "http://www.freefood.org/",
    "hours": "5:30 to 8:00 Wednesdays (except holidays)\r\n                                    \r\n                                                                        \n* Important: Please call the food pantries to confirm that the hours have not changed. We do our best to provide full information and details, but food pantries often change their hours without notifying us. We do not want you to waste your time visiting a pantry that is not open.",
    "description": null,
    "requirements": null,
    "scraped_at": "2025-10-31T20:53:23.116078",
    "latitude": 48.1788746,
    "longitude": -114.3094496,
    "geocoded_address": "1896, Airport Road, Kalispell, Flathead County, Montana, 59901, United States of America"
  },
  {
    "url": "https://www.foodpantries.org/li/project_hope_59019",
    "name": "Project Hope",
    "address": "428 Pike Ave",
    "city": "Columbus",
    "state": "MT",
    "zip": "59019",
    "phone": null,
    "fax": null,
    "email": null,
    "website": "http://www.freefood.org/",
    "hours": "9 to 3 Monday, Wednesday and Friday. 12 to 3 on Saturday.\r\n                                    \r\n                                                                        \n* Important: Please call the food pantries to confirm that the hours have not changed. We do our best to provide full information and details, but food pantries often change their hours without notifying us. We do not want you to waste your time visiting a pantry that is not open.",
    "description": null,
    "requirements": null,
    "scraped_at": "2025-10-31T20:53:25.381494",
    "latitude": 45.6374406,
    "longitude": -109.2547683,
    "geocoded_address": "428, East Pike Avenue, H and H Trailer Court, Columbus, Stillwater County, Montana, 59019, United States of America"
  },
  {
    "url": "https://www.foodpantries.org/li/carbon_county_food_bankjoliet_pantry_59041",
    "name": "Carbon County Food Bank/Joliet Pantry",
    "address": "128 South Main Street",
    "city": "Joliet",
    "state": "MT",
    "zip": "59041",
    "phone": "(406) 962-3589",
    "fax": null,
    "email": null,
    "website": "http://www.freefood.org/",
    "hours": "Monday\r\n 9:00am to 1:00pm\n\r\nFor more information, please call. \nCounty or Counties Served: Carbon",
    "description": null,
    "requirements": null,
    "scraped_at": "2025-10-31T20:53:28.887408",
    "latitude": 45.4842221,
    "longitude": -108.9702048,
    "geocoded_address": "128, South Main Street, Joliet, Carbon County, Montana, 59041, United States of America"
  },
  {
    "url": "https://www.foodpantries.org/li/pondera_food_pantry_59425",
    "name": "Pondera Food Pantry",
    "address": "220 S. Front Street",
    "city": "Conrad",
    "state": "MT",
    "zip": "59425",
    "phone": "(406) 289-0092",
    "fax": null,
    "email": null,
    "website": "http://www.freefood.org/",
    "hours": "Friday 9:00am to 11:00amFor more information, please call. \nVolunteering Information:https://mfbn.org/about-us \nCounty or Counties Served: Pondera",
    "description": null,
    "requirements": null,
    "scraped_at": "2025-10-31T20:53:31.339499",
    "latitude": 48.1709016,
    "longitude": -111.9443737,
    "geocoded_address": "220, South Front Street, Sunrise Trailer Court, Conrad, Pondera County, Montana, 59425, United States of America"
  },
  {
    "url": "https://www.foodpantries.org/li/shelby-sagebrush-food-pantry",
    "name": "Sagebrush food pantry",
    "address": "669 Park Ave.",
    "city": "Shelby",
    "state": "MT",
    "zip": "59474",
    "phone": "(406) 460-1131",
    "fax": null,
    "email": null,
    "website": "http://www.freefood.org/",
    "hours": "Monday and Thursday 4:00pm - 6:00pmFor more information, please call. \nCounty or Counties Served: Toole",
    "description": null,
    "requirements": null,
    "scraped_at": "2025-10-31T20:53:33.701918",
    "latitude": 48.5100075,
    "longitude": -111.8505994,
    "geocoded_address": "669, Park Avenue, Shelby, Toole County, Montana, 59474, United States of America"
  },
  {
    "url": "https://www.foodpantries.org/li/culbertson_food_bank_59218",
    "name": "Culbertson Food Bank",
    "address": "212 Broadway",
    "city": "Culbertson",
    "state": "MT",
    "zip": "59218",
    "phone": null,
    "fax": null,
    "email": null,
    "website": "http://www.freefood.org/",
    "hours": "787-5883 or 787-7883 LeEtta, Tuesdays and Fridays 2-4 and on an as needed basis.\r\n                                    \r\n                                                                        \n* Important: Please call the food pantries to confirm that the hours have not changed. We do our best to provide full information and details, but food pantries often change their hours without notifying us. We do not want you to waste your time visiting a pantry that is not open.",
    "description": null,
    "requirements": null,
    "scraped_at": "2025-10-31T20:53:36.117974",
    "latitude": 48.1455341,
    "longitude": -104.5171965,
    "geocoded_address": "212, Broadway Avenue, Averill, Culbertson, Roosevelt County, Montana, 59218, United States of America"
  },
  {
    "url": "https://www.foodpantries.org/li/mt_59722_sw-montana-veterans-food-pantry-services",
    "name": "SW Montana Veterans Food Pantry & Services",
    "address": "505 Main St.",
    "city": "Deer Lodge",
    "state": "MT",
    "zip": "59722",
    "phone": "(406) 846-4777",
    "fax": null,
    "email": null,
    "website": "http://www.freefood.org/",
    "hours": "Monday \u2013 Thursday, 10:00 AM \u2013 5:00 PM",
    "description": null,
    "requirements": null,
    "scraped_at": "2025-10-31T20:53:38.248927",
    "latitude": 46.3977344,
    "longitude": -112.7351859,
    "geocoded_address": "505, Main Street, Deer Lodge, Powell County, Montana, 59722, United States of America"
  },
  {
    "url": "https://www.foodpantries.org/li/beaverhead_community_food_pantry_59725",
    "name": "Beaverhead Community Food Pantry",
    "address": "131 East Helena Street",
    "city": "Dillon",
    "state": "MT",
    "zip": "59725",
    "phone": "(406) 660-4500",
    "fax": null,
    "email": null,
    "website": "http://www.freefood.org/",
    "hours": "Every Tuesday 5:30pm - 7:30pmEvery Wednesday 12:00pm - 2:30pmFor more information, please call. \nMission Statement\r\n               To efficiently provide food security and essential information regarding additional services to Beaverhead County's residents in need.\r\n\"Hunger Knows No Season\"\r\n            \nVolunteering Information:https://www.beaverheadfoodpantry.org/home/volunteer \nCounty or Counties Served: Beaverhead",
    "description": null,
    "requirements": null,
    "scraped_at": "2025-10-31T20:53:40.603859",
    "latitude": 45.2183269,
    "longitude": -112.634744,
    "geocoded_address": "131, East Helena Street, Dillon, Beaverhead County, Montana, 59725, United States of America"
  },
  {
    "url": "https://www.foodpantries.org/li/mt_59754_twin-bridges-mt-helping-hand-food-pantry",
    "name": "Twin Bridges MT Helping Hand Food Pantry",
    "address": "206 South N Main St",
    "city": "Twin Bridges",
    "state": "MT",
    "zip": "59754",
    "phone": "(406) 596-1978",
    "fax": null,
    "email": null,
    "website": "http://www.freefood.org/",
    "hours": "Wednesday 11:00am to 2:00pm and by appointment any time. \r\nFor more information, please call. \nCounty or Counties Served: Madison",
    "description": null,
    "requirements": null,
    "scraped_at": "2025-10-31T20:53:42.743099",
    "latitude": 45.54437,
    "longitude": -112.331112,
    "geocoded_address": "Twin Bridges, Madison County, Montana, United States of America",
    "note": "Geocoded to city center (exact address not found)"
  },
  {
    "url": "https://www.foodpantries.org/li/carter_county_food_pantry_59324",
    "name": "Carter County Food Pantry",
    "address": "214 Park St.",
    "city": "Ekalaka",
    "state": "MT",
    "zip": "59324",
    "phone": null,
    "fax": null,
    "email": null,
    "website": "http://www.freefood.org/",
    "hours": "Monday 9 to 5, Tuesday/Thursday 12 to 5, Friday 9 to 2\r\n                                    \r\n                                                                        \n* Important: Please call the food pantries to confirm that the hours have not changed. We do our best to provide full information and details, but food pantries often change their hours without notifying us. We do not want you to waste your time visiting a pantry that is not open.",
    "description": null,
    "requirements": null,
    "scraped_at": "2025-10-31T20:53:47.376446",
    "latitude": 45.8888705,
    "longitude": -104.5484367,
    "geocoded_address": "214, East Park Street, Ekalaka, Carter County, Montana, 59324, United States of America"
  },
  {
    "url": "https://www.foodpantries.org/li/food-bank",
    "name": "Ennis Food Bank",
    "address": "217 william Street",
    "city": "Ennis",
    "state": "MT",
    "zip": "59729",
    "phone": "(406) 682-7844",
    "fax": null,
    "email": null,
    "website": "http://www.freefood.org/",
    "hours": "Tuesday 1:00pm - 6:00pmFor more information, please call.\nCounty or Counties Served: Madison",
    "description": null,
    "requirements": null,
    "scraped_at": "2025-10-31T20:53:49.736302",
    "latitude": 45.3496983,
    "longitude": -111.7284126,
    "geocoded_address": "217, William Street, Ennis, Madison County, Montana, 59729, United States of America"
  },
  {
    "url": "https://www.foodpantries.org/li/tobacco_valley_food_pantry_59917",
    "name": "Tobacco Valley Food Pantry",
    "address": "109 Dewey Ave",
    "city": "Eureka",
    "state": "MT",
    "zip": "59917",
    "phone": "(406) 297-2358",
    "fax": null,
    "email": null,
    "website": "http://www.freefood.org/",
    "hours": "Thursday \r\n1:00pm to 2:00pm\n\r\nFor more information, please call. \nCounty or Counties Served: Lincoln",
    "description": null,
    "requirements": null,
    "scraped_at": "2025-10-31T20:53:51.812797",
    "latitude": 48.879082,
    "longitude": -115.0528674,
    "geocoded_address": "109, Dewey Avenue, Eureka, Lincoln County, Montana, 59917, United States of America"
  },
  {
    "url": "https://www.foodpantries.org/li/tobacco_valley_community_center_(houses_the_senior_center)_59917",
    "name": "Tobacco Valley Community Center (houses the senior center)",
    "address": "310 First Ave E.",
    "city": "Eureka",
    "state": "MT",
    "zip": "59917",
    "phone": null,
    "fax": null,
    "email": null,
    "website": "http://www.freefood.org/",
    "hours": "9 to 6:30 Mondays and Thursdays, 9 to 1 Tuesdays and Wednesdays, meals on wheels Fridays\r\n                                    \r\n                                                                        \n* Important: Please call the food pantries to confirm that the hours have not changed. We do our best to provide full information and details, but food pantries often change their hours without notifying us. We do not want you to waste your time visiting a pantry that is not open.",
    "description": null,
    "requirements": null,
    "scraped_at": "2025-10-31T20:53:54.183174",
    "latitude": 48.8799647,
    "longitude": -115.0535,
    "geocoded_address": "Eureka, Lincoln County, Montana, United States of America",
    "note": "Geocoded to city center (exact address not found)"
  },
  {
    "url": "https://www.foodpantries.org/li/the_eureka_foursquare_church_59917",
    "name": "The Eureka Foursquare Church",
    "address": "406 2nd Ave E",
    "city": "Eureka",
    "state": "MT",
    "zip": "59917",
    "phone": null,
    "fax": null,
    "email": null,
    "website": "http://www.freefood.org/",
    "hours": "Open the first Wednesday of every month but will gladly open the pantry anytime you need food.\r\n                                    \r\n                                                                        \n* Important: Please call the food pantries to confirm that the hours have not changed. We do our best to provide full information and details, but food pantries often change their hours without notifying us. We do not want you to waste your time visiting a pantry that is not open.",
    "description": null,
    "requirements": null,
    "scraped_at": "2025-10-31T20:53:57.930890",
    "latitude": 48.8828035,
    "longitude": -115.0511403,
    "geocoded_address": "406, 2nd Avenue East, Eureka, Lincoln County, Montana, 59917, United States of America"
  },
  {
    "url": "https://www.foodpantries.org/li/chouteau_county_food_bank_59442",
    "name": "Chouteau County Food Bank",
    "address": "1020 13th St.",
    "city": "Fort Benton",
    "state": "MT",
    "zip": "59442",
    "phone": "(406) 622-5433",
    "fax": null,
    "email": null,
    "website": "http://www.freefood.org/",
    "hours": "8 to 5 Mondays through Fridays, usually closed from 12 to 1 for lunch\r\n                                    \r\n                                    County or Counties Served: Chouteau",
    "description": null,
    "requirements": null,
    "scraped_at": "2025-10-31T20:54:00.098596",
    "latitude": 47.8169628,
    "longitude": -110.6725609,
    "geocoded_address": "Chouteau County Public Health, 1020, 13th Street, Fort Benton Historic District, Fort Benton, Chouteau County, Montana, 59442, United States of America"
  },
  {
    "url": "https://www.foodpantries.org/li/gardiner_food_pantry",
    "name": "Gardiner Food Pantry",
    "address": "108 3rd Street",
    "city": "Gardiner",
    "state": "MT",
    "zip": "59030",
    "phone": "(307) 250-5853",
    "fax": null,
    "email": null,
    "website": "http://www.freefood.org/",
    "hours": "Tuesdays 1:00 PM to 6:00 PMAdditional Information:Food pantry also has a Seniors Commodity Program and a Backpack Program to provide food for the weekend to at-risk children.For more information, contact Linda Gray.\nMission Statement\r\n               The mission of the Gardiner Food Pantry is to provide the needy with one emergency box of food per week and to make extra food donations available.\r\n            \nCounty or Counties Served: Park",
    "description": null,
    "requirements": null,
    "scraped_at": "2025-10-31T20:54:02.705874",
    "latitude": 45.0298839,
    "longitude": -110.7074481,
    "geocoded_address": "108, South 3rd Street, Gardiner, Park County, Montana, 59030, United States of America"
  },
  {
    "url": "https://www.foodpantries.org/li/the_center_pole_59031",
    "name": "The Center Pole",
    "address": "916 E Wellknown Buffalo",
    "city": "Garryowen",
    "state": "MT",
    "zip": "59031",
    "phone": "(406) 638-2821",
    "fax": null,
    "email": null,
    "website": "http://www.freefood.org/",
    "hours": "10-2 Tues. and Thurs. for emergency food; 3-6 pm third Monday CSFP (senior) distribution\nGo To Details Page For More Information",
    "description": null,
    "requirements": null,
    "scraped_at": "2025-10-31T20:54:04.979878",
    "latitude": 45.5267935,
    "longitude": -107.4165963,
    "geocoded_address": "Garryowen, Big Horn County, Montana, 59031, United States of America",
    "note": "Geocoded to city center (exact address not found)"
  },
  {
    "url": "https://www.foodpantries.org/li/helping-hands-food-bank",
    "name": "Helping Hands Food Bank",
    "address": "825 3rd St W",
    "city": "Hardin",
    "state": "MT",
    "zip": "59034",
    "phone": "(406) 665-2997",
    "fax": null,
    "email": null,
    "website": "http://www.freefood.org/",
    "hours": null,
    "description": null,
    "requirements": null,
    "scraped_at": "2025-10-31T20:54:08.174374",
    "latitude": 45.7313614,
    "longitude": -107.620179,
    "geocoded_address": "825, 3rd Street West, Hardin, Big Horn County, Montana, 59034, United States of America"
  },
  {
    "url": "https://www.foodpantries.org/li/helping_hands_in_hardin_59034",
    "name": "Helping Hands in Hardin",
    "address": "825 West Third Street",
    "city": "Hardin",
    "state": "MT",
    "zip": "59034",
    "phone": null,
    "fax": null,
    "email": null,
    "website": "http://www.freefood.org/",
    "hours": "10-2 Tues. and Thurs. for emergency food; 3-6 pm third Monday CSFP (senior) distribution\r\n                                    \r\n                                                                        \n* Important: Please call the food pantries to confirm that the hours have not changed. We do our best to provide full information and details, but food pantries often change their hours without notifying us. We do not want you to waste your time visiting a pantry that is not open.",
    "description": null,
    "requirements": null,
    "scraped_at": "2025-10-31T20:54:10.609486",
    "latitude": 45.7324778,
    "longitude": -107.612031,
    "geocoded_address": "Hardin, Big Horn County, Montana, 59034, United States of America",
    "note": "Geocoded to city center (exact address not found)"
  },
  {
    "url": "https://www.foodpantries.org/li/valley_community_food_bank_59230",
    "name": "Valley Community Food Bank",
    "address": "1020 1st Ave N",
    "city": "Glasgow",
    "state": "MT",
    "zip": "59230",
    "phone": null,
    "fax": null,
    "email": null,
    "website": "http://www.freefood.org/",
    "hours": null,
    "description": null,
    "requirements": null,
    "scraped_at": "2025-10-31T20:54:17.318560",
    "latitude": 48.1991822,
    "longitude": -106.6426528,
    "geocoded_address": "1020, 1st Avenue North, Glasgow, Valley County, Montana, 59230, United States of America"
  },
  {
    "url": "https://www.foodpantries.org/li/valley_county_council_on_aging_59230",
    "name": "Valley County Council on Aging",
    "address": "328 4th Ave S.",
    "city": "Glasgow",
    "state": "MT",
    "zip": "59230",
    "phone": null,
    "fax": null,
    "email": null,
    "website": "http://www.freefood.org/",
    "hours": "7 am to 1:30 pm\r\n                                    \r\n                                                                        \n* Important: Please call the food pantries to confirm that the hours have not changed. We do our best to provide full information and details, but food pantries often change their hours without notifying us. We do not want you to waste your time visiting a pantry that is not open.",
    "description": null,
    "requirements": null,
    "scraped_at": "2025-10-31T20:54:19.846184",
    "latitude": 48.1915091,
    "longitude": -106.6357082,
    "geocoded_address": "328, 4th Avenue South, South Side, Glasgow, Valley County, Montana, 59230, United States of America"
  },
  {
    "url": "https://www.foodpantries.org/li/dawson_county_food_bank_59330",
    "name": "Dawson County Food Bank",
    "address": "112 W Benham Street",
    "city": "Glendive",
    "state": "MT",
    "zip": "59330",
    "phone": "(406) 941-0202",
    "fax": null,
    "email": null,
    "website": "http://www.freefood.org/",
    "hours": "Monday - Friday 10:00am - 1:00pmFor more information, please call. \nCounty or Counties Served: Dawson",
    "description": null,
    "requirements": null,
    "scraped_at": "2025-10-31T20:54:22.589000",
    "latitude": 47.1065772,
    "longitude": -104.712598,
    "geocoded_address": "112, West Benham Street, Glendive, Dawson County, Montana, 59330, United States of America"
  },
  {
    "url": "https://www.foodpantries.org/li/salvation_army_family_services_great_falls_mt",
    "name": "Salvation Army Family Services - Great Falls, MT",
    "address": "527 9th Ave South",
    "city": "Great Falls",
    "state": "MT",
    "zip": "59405",
    "phone": "(406) 761-5660",
    "fax": null,
    "email": null,
    "website": "http://www.freefood.org/",
    "hours": "Monday, Tuesday, Thursday and Friday 9:00am - 11:30am and 1:00pm to 4:00pm Wednesday 9:00am - 1:00pm. NO REFERRALS REQUIRED. Must have picture ID only for first visit. For more information, please call.\nCounty or Counties Served: Cascade",
    "description": null,
    "requirements": null,
    "scraped_at": "2025-10-31T20:54:24.808548",
    "latitude": 47.4954824,
    "longitude": -111.2986053,
    "geocoded_address": "527, 9th Avenue South, Great Falls, Cascade County, Montana, 59405, United States of America"
  },
  {
    "url": "https://www.foodpantries.org/li/the_salvation_army_family_services_59401",
    "name": "The Salvation Army Family Services",
    "address": "527 Ninth Ave S.",
    "city": "Great Falls",
    "state": "MT",
    "zip": "59401",
    "phone": "(406) 761-5660",
    "fax": null,
    "email": null,
    "website": "http://www.freefood.org/",
    "hours": "Monday, Tuesday, Thursday and Friday\r\n 1:00pm to 4:00pm\n\r\nFor more information, please call. \nCounty or Counties Served: Cascade",
    "description": null,
    "requirements": null,
    "scraped_at": "2025-10-31T20:54:27.434629",
    "latitude": 47.5048851,
    "longitude": -111.29189,
    "geocoded_address": "Great Falls, Cascade County, Montana, United States of America",
    "note": "Geocoded to city center (exact address not found)"
  },
  {
    "url": "https://www.foodpantries.org/li/fish_59401",
    "name": "FISH",
    "address": "1620 12th Ave North",
    "city": "Great Falls",
    "state": "MT",
    "zip": "59401",
    "phone": null,
    "fax": null,
    "email": null,
    "website": "http://www.freefood.org/",
    "hours": "9 to 11 Mondays through Fridays.\r\n                                    \r\n                                                                        \n* Important: Please call the food pantries to confirm that the hours have not changed. We do our best to provide full information and details, but food pantries often change their hours without notifying us. We do not want you to waste your time visiting a pantry that is not open.",
    "description": null,
    "requirements": null,
    "scraped_at": "2025-10-31T20:54:30.574371",
    "latitude": 47.5178877,
    "longitude": -111.2794561,
    "geocoded_address": "1620, 12th Avenue North, Great Falls, Cascade County, Montana, 59401, United States of America"
  },
  {
    "url": "https://www.foodpantries.org/li/great_falls_community_food_bank_59401",
    "name": "Great Falls Community Food Bank",
    "address": "1620 12th Avenue N",
    "city": "Great Falls",
    "state": "MT",
    "zip": "59401",
    "phone": null,
    "fax": null,
    "email": null,
    "website": "http://www.freefood.org/",
    "hours": "Monday, Tuesday, Thursday and Friday 9:00am - 11:30am and 1:00pm to 4:00pm Wednesday 9:00am - 1:00pm.  NO REFERRALS REQUIRED. Must have picture ID only for first visit. For more information, please call. \nGo To Details Page For More Information",
    "description": null,
    "requirements": null,
    "scraped_at": "2025-10-31T20:54:32.725754",
    "latitude": 47.5178877,
    "longitude": -111.2794561,
    "geocoded_address": "1620, 12th Avenue North, Great Falls, Cascade County, Montana, 59401, United States of America"
  },
  {
    "url": "https://www.foodpantries.org/li/union-bethel-amc",
    "name": "Union Bethel, AME",
    "address": "916 5th Ave S",
    "city": "Great Falls",
    "state": "MT",
    "zip": "59405",
    "phone": "(406) 727-7998",
    "fax": null,
    "email": null,
    "website": "http://www.freefood.org/",
    "hours": "Monday, Tuesday, Thursday and Friday 9:00am - 11:30am and 1:00pm to 4:00pm Wednesday 9:00am - 1:00pm.  NO REFERRALS REQUIRED. Must have picture ID only for first visit. For more information, please call. \nGo To Details Page For More Information",
    "description": null,
    "requirements": null,
    "scraped_at": "2025-10-31T20:54:35.022906",
    "latitude": 47.499504,
    "longitude": -111.291076,
    "geocoded_address": "Union Bethel African Methodist Episcopal Church, 916, 5th Avenue South, Central, Great Falls, Cascade County, Montana, 59405, United States of America"
  },
  {
    "url": "https://www.foodpantries.org/li/st_vincent_de_paul_59404",
    "name": "St Vincent de Paul",
    "address": "426 Central Ave W.",
    "city": "Great Falls",
    "state": "MT",
    "zip": "59404",
    "phone": "(406) 761-0870",
    "fax": null,
    "email": null,
    "website": "https://svdpncmt.org",
    "hours": "Monday through Friday\r\n 9:00am - 11:00am\u00a0 and 1:00pm - 3:00pm\n\r\nFor more information, please call.",
    "description": null,
    "requirements": null,
    "scraped_at": "2025-10-31T20:54:37.427630",
    "latitude": 47.5076644,
    "longitude": -111.3189823,
    "geocoded_address": "426, Central Avenue West, Westside, Great Falls, Cascade County, Montana, 59404, United States of America"
  },
  {
    "url": "https://www.foodpantries.org/li/haven_house_food_bank_59840",
    "name": "Haven House Food Bank",
    "address": "316 N. Third Street #162",
    "city": "Hamilton",
    "state": "MT",
    "zip": "59840",
    "phone": null,
    "fax": null,
    "email": null,
    "website": "http://www.freefood.org/",
    "hours": "10 to 2 Mondays, Wednesdays and Fridays\r\n                                    \r\n                                    County or Counties Served: Ravalli",
    "description": null,
    "requirements": null,
    "scraped_at": "2025-10-31T20:54:42.014679",
    "latitude": 46.2472045,
    "longitude": -114.1555462,
    "geocoded_address": "Hamilton, Ravalli County, Montana, United States of America",
    "note": "Geocoded to city center (exact address not found)"
  },
  {
    "url": "https://www.foodpantries.org/li/calvary_chapel_bitterroot_valley_59840",
    "name": "Calvary Chapel Bitterroot Valley",
    "address": "700 North 4th St.",
    "city": "Hamilton",
    "state": "MT",
    "zip": "59840",
    "phone": null,
    "fax": null,
    "email": null,
    "website": "http://www.freefood.org/",
    "hours": "9 am to 12 Mondays and Thursdays\r\n                                    \r\n                                                                        \n* Important: Please call the food pantries to confirm that the hours have not changed. We do our best to provide full information and details, but food pantries often change their hours without notifying us. We do not want you to waste your time visiting a pantry that is not open.",
    "description": null,
    "requirements": null,
    "scraped_at": "2025-10-31T20:54:45.907285",
    "latitude": 46.253242,
    "longitude": -114.160842,
    "geocoded_address": "700, North 4th Street, Leisure Village, Hamilton, Ravalli County, Montana, 59840, United States of America"
  },
  {
    "url": "https://www.foodpantries.org/li/house_of_praise_food_pantry_59875",
    "name": "House of Praise Food Pantry",
    "address": "2406 N. Highway 93",
    "city": "Victor",
    "state": "MT",
    "zip": "59875",
    "phone": null,
    "fax": null,
    "email": null,
    "website": "http://www.freefood.org/",
    "hours": "Monday 11:00 AM to 2:30 PM Wednesday 11:00 AM-5:30 PM.  Food Donations Hours:  Monday, Wednesday and Friday 10:00am to 2:00pm, at the eastern end of our building.  Mailing Address:  Pantry Partners PO Box 806 Stevensville, MT 59870",
    "description": null,
    "requirements": null,
    "scraped_at": "2025-10-31T20:54:48.124376",
    "latitude": 46.4165889,
    "longitude": -114.1501,
    "geocoded_address": "Victor, Ravalli County, Montana, United States of America",
    "note": "Geocoded to city center (exact address not found)"
  },
  {
    "url": "https://www.foodpantries.org/li/pantry_partners_food_bank_59870",
    "name": "Pantry Partners Food Bank",
    "address": "3614 ALC Way",
    "city": "Stevensville",
    "state": "MT",
    "zip": "59870",
    "phone": "(406) 777-0351",
    "fax": null,
    "email": null,
    "website": "http://www.freefood.org/",
    "hours": "Monday 11:00 AM to 2:30 PMWednesday 11:00 AM-5:30 PM.Food Donations Hours:Monday, Wednesday and Friday 10:00am to 2:00pm, at the eastern end of our building.Mailing Address:Pantry PartnersPO Box 806Stevensville, MT 59870\nVolunteering Information:http://pantrypartnersfoodbank.org/blog1/volunteers/ \nCounty or Counties Served: Ravalli",
    "description": null,
    "requirements": null,
    "scraped_at": "2025-10-31T20:54:51.635205",
    "latitude": 46.5015379,
    "longitude": -114.0771062,
    "geocoded_address": "3614, Alc Way, Stevensville, Ravalli County, Montana, 59870, United States of America"
  },
  {
    "url": "https://www.foodpantries.org/li/the_havre_community_food_bank_59501",
    "name": "The Havre Community Food Bank",
    "address": "453 Fifth St N.",
    "city": "Havre",
    "state": "MT",
    "zip": "59501",
    "phone": "(406) 265-2007",
    "fax": null,
    "email": null,
    "website": "http://www.freefood.org/",
    "hours": "Monday - Saturday \r\n12:00pm to 12:45pm \r\n \r\nFor more information, please call.",
    "description": null,
    "requirements": null,
    "scraped_at": "2025-10-31T20:54:53.851768",
    "latitude": 48.5536972,
    "longitude": -109.677802,
    "geocoded_address": "Havre, Hill County, Montana, United States of America",
    "note": "Geocoded to city center (exact address not found)"
  },
  {
    "url": "https://www.foodpantries.org/li/feed_my_sheep_59501",
    "name": "Feed My Sheep Community Soup Kitchen",
    "address": "611 Second Street",
    "city": "Havre",
    "state": "MT",
    "zip": "59501",
    "phone": "(406) 265-1629",
    "fax": null,
    "email": null,
    "website": "http://www.freefood.org/",
    "hours": "Monday - Saturday\r\n12:00pm to 12:45pm\n\r\nFor more information, please call. \nCounty or Counties Served: Hill",
    "description": null,
    "requirements": null,
    "scraped_at": "2025-10-31T20:54:58.100930",
    "latitude": 48.5536972,
    "longitude": -109.677802,
    "geocoded_address": "Havre, Hill County, Montana, United States of America",
    "note": "Geocoded to city center (exact address not found)"
  },
  {
    "url": "https://www.foodpantries.org/li/the_salvation_army_of_helena_59624",
    "name": "The Salvation Army of Helena",
    "address": "1905 Henderson",
    "city": "Helena",
    "state": "MT",
    "zip": "59624",
    "phone": null,
    "fax": null,
    "email": null,
    "website": "http://www.freefood.org/",
    "hours": "Social Services open 9:30 to 3:00Please, call\r\n                                    \r\n                                                                        \n* Important: Please call the food pantries to confirm that the hours have not changed. We do our best to provide full information and details, but food pantries often change their hours without notifying us. We do not want you to waste your time visiting a pantry that is not open.",
    "description": null,
    "requirements": null,
    "scraped_at": "2025-10-31T20:55:03.037996",
    "latitude": 46.6076889,
    "longitude": -112.0515194,
    "geocoded_address": "1905, Henderson Street, Helena, Lewis and Clark County, Montana, 59601, United States of America"
  },
  {
    "url": "https://www.foodpantries.org/li/helena_food_share_59601",
    "name": "Helena Food Share",
    "address": "1616 Lewis St.",
    "city": "Helena",
    "state": "MT",
    "zip": "59601",
    "phone": null,
    "fax": null,
    "email": null,
    "website": "http://www.freefood.org/",
    "hours": "Monday12:30pm - 6:00pm Tuesday - Friday12:30pm - 3:30pm\r\n                                    \r\n                                    County or Counties Served: Lewis and Clark",
    "description": null,
    "requirements": null,
    "scraped_at": "2025-10-31T20:55:05.323262",
    "latitude": 46.5988521,
    "longitude": -112.0125903,
    "geocoded_address": "1616, Lewis Street, Helena, Lewis and Clark County, Montana, 59601, United States of America"
  },
  {
    "url": "https://www.foodpantries.org/li/helena_prerelease_center_59601",
    "name": "Helena Prerelease Center",
    "address": "805 Colleen",
    "city": "Helena",
    "state": "MT",
    "zip": "59601",
    "phone": null,
    "fax": null,
    "email": null,
    "website": "http://www.freefood.org/",
    "hours": "24/7\r\n                                    \r\n                                                                        \n* Important: Please call the food pantries to confirm that the hours have not changed. We do our best to provide full information and details, but food pantries often change their hours without notifying us. We do not want you to waste your time visiting a pantry that is not open.",
    "description": null,
    "requirements": null,
    "scraped_at": "2025-10-31T20:55:07.955635",
    "latitude": 46.5934999,
    "longitude": -111.9741765,
    "geocoded_address": "805, Colleen Street, Helena, Lewis and Clark County, Montana, 59601, United States of America"
  },
  {
    "url": "https://www.foodpantries.org/li/heron_senior_citizens_59844",
    "name": "Heron Senior Citizens",
    "address": "27 Railroad Ave",
    "city": "Heron",
    "state": "MT",
    "zip": "59844",
    "phone": null,
    "fax": null,
    "email": null,
    "website": "http://www.freefood.org/",
    "hours": "Serve meals from 5:30 to 6:30 (or whenever there's no more food) every Wednesday.\r\n                                    \r\n                                                                        \n* Important: Please call the food pantries to confirm that the hours have not changed. We do our best to provide full information and details, but food pantries often change their hours without notifying us. We do not want you to waste your time visiting a pantry that is not open.",
    "description": null,
    "requirements": null,
    "scraped_at": "2025-10-31T20:55:10.038091",
    "latitude": 48.0565197,
    "longitude": -115.9523454,
    "geocoded_address": "27, Railroad Avenue, Heron, Sanders County, Montana, 59844, United States of America"
  },
  {
    "url": "https://www.foodpantries.org/li/community_services_fellowship_59853",
    "name": "Community Services Fellowship",
    "address": "1419 Highway 200",
    "city": "Noxon",
    "state": "MT",
    "zip": "59853",
    "phone": null,
    "fax": null,
    "email": null,
    "website": "http://www.freefood.org/",
    "hours": "406-847-4000 (CSF), Tuesday 12 to 8 pm, Friday 10 to 3 pm\r\n                                    \r\n                                                                        \n* Important: Please call the food pantries to confirm that the hours have not changed. We do our best to provide full information and details, but food pantries often change their hours without notifying us. We do not want you to waste your time visiting a pantry that is not open.",
    "description": null,
    "requirements": null,
    "scraped_at": "2025-10-31T20:55:12.621531",
    "latitude": 47.9951247,
    "longitude": -115.780307,
    "geocoded_address": "Noxon, Sanders County, Montana, United States of America",
    "note": "Geocoded to city center (exact address not found)"
  },
  {
    "url": "https://www.foodpantries.org/li/noxon_senior_center_59853",
    "name": "Noxon Senior Center",
    "address": "207 Second Street",
    "city": "Noxon",
    "state": "MT",
    "zip": "59853",
    "phone": null,
    "fax": null,
    "email": null,
    "website": "http://www.freefood.org/",
    "hours": "Serve meals every Thursday at 12:30 and the second and fourth Mondays of the month at 6 pm\r\n                                    \r\n                                                                        \n* Important: Please call the food pantries to confirm that the hours have not changed. We do our best to provide full information and details, but food pantries often change their hours without notifying us. We do not want you to waste your time visiting a pantry that is not open.",
    "description": null,
    "requirements": null,
    "scraped_at": "2025-10-31T20:55:15.596748",
    "latitude": 47.9951247,
    "longitude": -115.780307,
    "geocoded_address": "Noxon, Sanders County, Montana, United States of America",
    "note": "Geocoded to city center (exact address not found)"
  },
  {
    "url": "https://www.foodpantries.org/li/trout_creek_senior_citizens_59874",
    "name": "Trout Creek Senior Citizens",
    "address": "#10 Larch St.",
    "city": "Trout Creek",
    "state": "MT",
    "zip": "59874",
    "phone": null,
    "fax": null,
    "email": null,
    "website": "http://www.freefood.org/",
    "hours": "Pantry: 11 to 6 Tuesdays and Fridays; Meal Program: 6 pm Tuesdays and Fridays\r\n                                    \r\n                                                                        \n* Important: Please call the food pantries to confirm that the hours have not changed. We do our best to provide full information and details, but food pantries often change their hours without notifying us. We do not want you to waste your time visiting a pantry that is not open.",
    "description": null,
    "requirements": null,
    "scraped_at": "2025-10-31T20:55:18.585829",
    "latitude": 47.837879,
    "longitude": -115.5965589,
    "geocoded_address": "10, Larch Street, Trout Creek, Sanders County, Montana, 59874, United States of America"
  },
  {
    "url": "https://www.foodpantries.org/li/libby_food_pantry_inc._59923",
    "name": "Libby Food Pantry at Pioneer Park",
    "address": "409 W Balsam St",
    "city": "Libby",
    "state": "MT",
    "zip": "59923",
    "phone": "(406) 293-3332",
    "fax": null,
    "email": null,
    "website": "http://www.freefood.org/",
    "hours": "Tuesday 10:00am to 2:00pm",
    "description": null,
    "requirements": null,
    "scraped_at": "2025-10-31T20:55:20.629086",
    "latitude": 48.3828821,
    "longitude": -115.5609419,
    "geocoded_address": "409, West Balsam Street, Libby, Lincoln County, Montana, 59923, United States of America"
  },
  {
    "url": "https://www.foodpantries.org/li/hot_springs_food_pantry_59845",
    "name": "Hot Springs Food Pantry",
    "address": "100 Main Street",
    "city": "Hot Springs",
    "state": "MT",
    "zip": "59845",
    "phone": null,
    "fax": null,
    "email": null,
    "website": "http://www.freefood.org/",
    "hours": "9 am to 2 pm on Tuesday\r\n                                    \r\n                                                                        \n* Important: Please call the food pantries to confirm that the hours have not changed. We do our best to provide full information and details, but food pantries often change their hours without notifying us. We do not want you to waste your time visiting a pantry that is not open.",
    "description": null,
    "requirements": null,
    "scraped_at": "2025-10-31T20:55:23.401418",
    "latitude": 47.6087122,
    "longitude": -114.6691347,
    "geocoded_address": "Valley Bank of Hot Springs, 100, Main Street, Central Avenue Trailer Court, Hot Springs, Sanders County, Montana, 59845, United States of America"
  },
  {
    "url": "https://www.foodpantries.org/li/plains_community_food_bank_59859",
    "name": "Plains Community Food Bank - Soup Kitchen and Food Pantry",
    "address": "300 Clayton Street",
    "city": "Plains",
    "state": "MT",
    "zip": "59859",
    "phone": "(406) 826-3800",
    "fax": null,
    "email": null,
    "website": "http://www.freefood.org/",
    "hours": "Every Tuesday from 10:00am to 1:00pmSoup Kitchen hours:Every Tuesday from 11:00am to 1:00pm\nCounty or Counties Served: Sanders",
    "description": null,
    "requirements": null,
    "scraped_at": "2025-10-31T20:55:26.282386",
    "latitude": 47.462323,
    "longitude": -114.88303,
    "geocoded_address": "300, Clayton Street, Plains, Sanders County, Montana, 59859, United States of America"
  },
  {
    "url": "https://www.foodpantries.org/li/plains_paradise_senior_center_59859",
    "name": "Plains Paradise Senior Center",
    "address": "205 W. Meany",
    "city": "Plains",
    "state": "MT",
    "zip": "59859",
    "phone": null,
    "fax": null,
    "email": null,
    "website": "http://www.freefood.org/",
    "hours": null,
    "description": null,
    "requirements": null,
    "scraped_at": "2025-10-31T20:55:28.875537",
    "latitude": 47.4576256,
    "longitude": -114.8837091,
    "geocoded_address": "Meany Street, Plains, Sanders County, Montana, United States of America"
  },
  {
    "url": "https://www.foodpantries.org/li/central_montana_community_cupboard_59457",
    "name": "Central Montana Community Cupboard",
    "address": "318 W Broadway",
    "city": "Lewistown",
    "state": "MT",
    "zip": "59457",
    "phone": "(406) 535-2015",
    "fax": null,
    "email": null,
    "website": "http://www.freefood.org/",
    "hours": "Monday - Friday 9:00am to 12:00pmThursday5:30pm - 8:00pm\nCounty or Counties Served: Fergus",
    "description": null,
    "requirements": null,
    "scraped_at": "2025-10-31T20:55:31.073896",
    "latitude": 47.0659435,
    "longitude": -109.4269971,
    "geocoded_address": "318, West Broadway Street, Mountain Acres Mobile Home Park, Lewistown, Fergus County, Montana, 59457, United States of America"
  },
  {
    "url": "https://www.foodpantries.org/li/fergus_county_council_on_aging_59457",
    "name": "Fergus County Council on Aging",
    "address": "307 W. Watson",
    "city": "Lewistown",
    "state": "MT",
    "zip": "59457",
    "phone": null,
    "fax": null,
    "email": null,
    "website": "http://www.freefood.org/",
    "hours": "8 to 5 Mondays through Fridays\r\n                                    \r\n                                                                        \n* Important: Please call the food pantries to confirm that the hours have not changed. We do our best to provide full information and details, but food pantries often change their hours without notifying us. We do not want you to waste your time visiting a pantry that is not open.",
    "description": null,
    "requirements": null,
    "scraped_at": "2025-10-31T20:55:33.878297",
    "latitude": 47.0642055,
    "longitude": -109.4245736,
    "geocoded_address": "307, West Watson Street, Lewistown, Fergus County, Montana, 59457, United States of America"
  },
  {
    "url": "https://www.foodpantries.org/li/the_senior_citizens_of_lincoln_county_(libby_senior_ce_59923",
    "name": "The Senior Citizens of Lincoln County (Libby Senior Ce",
    "address": "206 E. 2nd St.",
    "city": "Libby",
    "state": "MT",
    "zip": "59923",
    "phone": null,
    "fax": null,
    "email": null,
    "website": "http://www.freefood.org/",
    "hours": "8 to 5 Mondays through Fridays\r\n                                    \r\n                                                                        \n* Important: Please call the food pantries to confirm that the hours have not changed. We do our best to provide full information and details, but food pantries often change their hours without notifying us. We do not want you to waste your time visiting a pantry that is not open.",
    "description": null,
    "requirements": null,
    "scraped_at": "2025-10-31T20:55:36.214221",
    "latitude": 48.3934285,
    "longitude": -115.5488018,
    "geocoded_address": "206, East 2nd Street, Libby, Lincoln County, Montana, 59923, United States of America"
  },
  {
    "url": "https://www.foodpantries.org/li/libby_christian_church_food_pantry_59923",
    "name": "Libby Christian Church Food Pantry",
    "address": "100 Kootenai River Rd.",
    "city": "Libby",
    "state": "MT",
    "zip": "59923",
    "phone": null,
    "fax": null,
    "email": null,
    "website": "http://www.freefood.org/",
    "hours": "10 to 1 Thursdays, 1st and 3rd Monday\r\n                                    \r\n                                                                        \n* Important: Please call the food pantries to confirm that the hours have not changed. We do our best to provide full information and details, but food pantries often change their hours without notifying us. We do not want you to waste your time visiting a pantry that is not open.",
    "description": null,
    "requirements": null,
    "scraped_at": "2025-10-31T20:55:39.053289",
    "latitude": 48.413431,
    "longitude": -115.580692,
    "geocoded_address": "100, Kootenai River Road, Libby, Lincoln County, Montana, 59923, United States of America"
  },
  {
    "url": "https://www.foodpantries.org/li/troy_food_pantry_59935",
    "name": "Troy Food Pantry",
    "address": "301 East Kootenai Ave",
    "city": "Troy",
    "state": "MT",
    "zip": "59935",
    "phone": null,
    "fax": null,
    "email": null,
    "website": "http://www.freefood.org/",
    "hours": "Mondays 10:30 to 12. As needed on-call.\r\n                                    \r\n                                                                        \n* Important: Please call the food pantries to confirm that the hours have not changed. We do our best to provide full information and details, but food pantries often change their hours without notifying us. We do not want you to waste your time visiting a pantry that is not open.",
    "description": null,
    "requirements": null,
    "scraped_at": "2025-10-31T20:55:41.059738",
    "latitude": 48.4629429,
    "longitude": -115.8912877,
    "geocoded_address": "301, East Kootenai Avenue, Troy, Lincoln County, Montana, 59935, United States of America"
  },
  {
    "url": "https://www.foodpantries.org/li/the-headwaters-area-food-bank-livingston",
    "name": "The Headwaters Area Food Bank - Livingston",
    "address": "12 Cedar Ln",
    "city": "Livingston",
    "state": "MT",
    "zip": "59047",
    "phone": "(406) 285-3559",
    "fax": null,
    "email": null,
    "website": "http://www.freefood.org/",
    "hours": "Tuesday 1:00pm - 3:00pm Thursday 3:00pm - 5:00pm  In Pantry Shopping (by appointment only):  Wednesday 10:00am - 4:00pm \nGo To Details Page For More Information",
    "description": null,
    "requirements": null,
    "scraped_at": "2025-10-31T20:55:43.596932",
    "latitude": 45.6623873,
    "longitude": -110.5615899,
    "geocoded_address": "Livingston, Park County, Montana, 59047, United States of America",
    "note": "Geocoded to city center (exact address not found)"
  },
  {
    "url": "https://www.foodpantries.org/li/mt_livingston_livingston-food-pantry",
    "name": "Livingston Food Pantry",
    "address": "202 S 2nd Street",
    "city": "Livingston",
    "state": "MT",
    "zip": "59047",
    "phone": "(406) 222-5335",
    "fax": null,
    "email": null,
    "website": "http://www.freefood.org/",
    "hours": "Tuesday 1:00pm - 3:00pmThursday 3:00pm - 5:00pmIn Pantry Shopping (by appointment only):Wednesday 10:00am - 4:00pm",
    "description": null,
    "requirements": null,
    "scraped_at": "2025-10-31T20:55:47.501799",
    "latitude": 45.6596152,
    "longitude": -110.5600189,
    "geocoded_address": "202, South 2nd Street, Livingston, Park County, Montana, 59047, United States of America"
  },
  {
    "url": "https://www.foodpantries.org/li/mt_livingston_loaves-fishes-of-livingston-food-pantry",
    "name": "Loaves & Fishes of Livingston Food Pantry/ Soup Kitchen",
    "address": "301A S Main Street",
    "city": "Livingston",
    "state": "MT",
    "zip": "59047",
    "phone": "(406) 222-4824",
    "fax": null,
    "email": null,
    "website": "http://www.freefood.org/",
    "hours": "Tuesday 1:00pm - 3:00pm Thursday 3:00pm - 5:00pm  In Pantry Shopping (by appointment only):  Wednesday 10:00am - 4:00pm \nGo To Details Page For More Information",
    "description": null,
    "requirements": null,
    "scraped_at": "2025-10-31T20:55:50.458853",
    "latitude": 45.6595452,
    "longitude": -110.5579765,
    "geocoded_address": "South Main Street, Livingston, Park County, Montana, 59047, United States of America"
  },
  {
    "url": "https://www.foodpantries.org/li/food-bank-of-philllips-county",
    "name": "Food Bank of Philllips County",
    "address": "133 N 1st Ave E",
    "city": "Malta",
    "state": "MT",
    "zip": "59538",
    "phone": "(406) 654-1235",
    "fax": null,
    "email": null,
    "website": "http://www.freefood.org/",
    "hours": "9 to 12 Tuesdays and Thursdays. Will open other hours and days if needed. Just call.\nGo To Details Page For More Information",
    "description": null,
    "requirements": null,
    "scraped_at": "2025-10-31T20:55:53.519847",
    "latitude": 48.3612361,
    "longitude": -107.8719122,
    "geocoded_address": "133, North 1st Avenue East, Malta, Phillips County, Montana, 59538, United States of America"
  },
  {
    "url": "https://www.foodpantries.org/li/malta_food_bank_59538",
    "name": "Malta Food Bank",
    "address": "110 South 1st W.",
    "city": "Malta",
    "state": "MT",
    "zip": "59538",
    "phone": "(406) 654-1235",
    "fax": null,
    "email": null,
    "website": "http://www.freefood.org/",
    "hours": "9 to 12 Tuesdays and Thursdays. Will open other hours and days if needed. Just call.\r\n                                    \r\n                                    County or Counties Served: Phillips",
    "description": null,
    "requirements": null,
    "scraped_at": "2025-10-31T20:55:55.881481",
    "latitude": 48.3600115,
    "longitude": -107.8760887,
    "geocoded_address": "110, South 1st Street West, Malta, Phillips County, Montana, 59538, United States of America"
  },
  {
    "url": "https://www.foodpantries.org/li/malta_opportunities_59538",
    "name": "Malta Opportunities",
    "address": "506 S. 6th St W.",
    "city": "Malta",
    "state": "MT",
    "zip": "59538",
    "phone": null,
    "fax": null,
    "email": null,
    "website": "http://www.freefood.org/",
    "hours": "24/7, Best to call after 1 pm\r\n                                    \r\n                                                                        \n* Important: Please call the food pantries to confirm that the hours have not changed. We do our best to provide full information and details, but food pantries often change their hours without notifying us. We do not want you to waste your time visiting a pantry that is not open.",
    "description": null,
    "requirements": null,
    "scraped_at": "2025-10-31T20:55:58.609387",
    "latitude": 48.3544031,
    "longitude": -107.8761005,
    "geocoded_address": "506, South 6th Street West, Malta, Phillips County, Montana, 59538, United States of America"
  },
  {
    "url": "https://www.foodpantries.org/li/custer_county_food_bank_59808",
    "name": "Custer County Food Bank",
    "address": "210 S. Winchester",
    "city": "Miles City",
    "state": "MT",
    "zip": "59808",
    "phone": null,
    "fax": null,
    "email": null,
    "website": "http://www.freefood.org/",
    "hours": "Tuesdays, Wednesdays, Thursdays from 9am - 1:30pm. \r\n                                    \r\n                                                                        \n* Important: Please call the food pantries to confirm that the hours have not changed. We do our best to provide full information and details, but food pantries often change their hours without notifying us. We do not want you to waste your time visiting a pantry that is not open.",
    "description": null,
    "requirements": null,
    "scraped_at": "2025-10-31T20:56:01.210409",
    "latitude": 46.4062,
    "longitude": -105.8286969,
    "geocoded_address": "Miles City VA Community Living Center, 210, South Winchester Avenue, Westwood Estates, Miles City, Custer County, Montana, 59301, United States of America"
  },
  {
    "url": "https://www.foodpantries.org/li/montana-food-bank-network",
    "name": "Montana Food Bank Network",
    "address": "5625 Expressway",
    "city": "Missoula",
    "state": "MT",
    "zip": "59808",
    "phone": "(406) 721-3825",
    "fax": null,
    "email": null,
    "website": "https://mfbn.org",
    "hours": "10 to 12 Saturdays\nGo To Details Page For More Information",
    "description": null,
    "requirements": null,
    "scraped_at": "2025-10-31T20:56:04.277888",
    "latitude": 46.9218193,
    "longitude": -114.0748257,
    "geocoded_address": "5625, Expressway Road, Missoula, Missoula County, Montana, 59808, United States of America"
  },
  {
    "url": "https://www.foodpantries.org/li/youth_homes_59807",
    "name": "Youth Homes",
    "address": "P.O. Box 7616",
    "city": "Missoula",
    "state": "MT",
    "zip": "59807",
    "phone": null,
    "fax": null,
    "email": null,
    "website": "http://www.freefood.org/",
    "hours": "Mondays 5-6. The pantry is not open on church holidays.\nGo To Details Page For More Information",
    "description": null,
    "requirements": null,
    "scraped_at": "2025-10-31T20:56:07.960986",
    "latitude": 46.8701049,
    "longitude": -113.995267,
    "geocoded_address": "Missoula, Missoula County, Montana, United States of America",
    "note": "Geocoded to city center (exact address not found)"
  },
  {
    "url": "https://www.foodpantries.org/li/the_salvation_army_of_missoula_59802",
    "name": "The Salvation Army of Missoula",
    "address": "339 W. Broadway",
    "city": "Missoula",
    "state": "MT",
    "zip": "59802",
    "phone": null,
    "fax": null,
    "email": null,
    "website": "http://www.freefood.org/",
    "hours": "9 to 4 Monday - Wednesday and 9 to 2 Thursday and Friday\r\n                                    \r\n                                                                        \n* Important: Please call the food pantries to confirm that the hours have not changed. We do our best to provide full information and details, but food pantries often change their hours without notifying us. We do not want you to waste your time visiting a pantry that is not open.",
    "description": null,
    "requirements": null,
    "scraped_at": "2025-10-31T20:56:11.321110",
    "latitude": 46.873074,
    "longitude": -113.9975759,
    "geocoded_address": "339, West Broadway Street, Heart of Missoula, Missoula, Missoula County, Montana, 59802, United States of America"
  },
  {
    "url": "https://www.foodpantries.org/li/poverello_center_59807",
    "name": "Poverello Center",
    "address": "535 Ryman St.",
    "city": "Missoula",
    "state": "MT",
    "zip": "59807",
    "phone": null,
    "fax": null,
    "email": null,
    "website": "http://www.freefood.org/",
    "hours": "9 to 4 Monday - Wednesday and 9 to 2 Thursday and Friday\nGo To Details Page For More Information",
    "description": null,
    "requirements": null,
    "scraped_at": "2025-10-31T20:56:15.349851",
    "latitude": 46.8752444,
    "longitude": -113.9943884,
    "geocoded_address": "Royal Apartments, 535, Ryman Street, Heart of Missoula, Missoula, Missoula County, Montana, 59802, United States of America"
  },
  {
    "url": "https://www.foodpantries.org/li/missoula_correctional_svc_59808",
    "name": "Missoula Correctional SVC",
    "address": "2350 Mullan Rd.",
    "city": "Missoula",
    "state": "MT",
    "zip": "59808",
    "phone": "(406) 541-9200",
    "fax": null,
    "email": null,
    "website": "http://www.freefood.org/",
    "hours": "24/7\r\n                                    \r\n                                    County or Counties Served: Missoula",
    "description": null,
    "requirements": null,
    "scraped_at": "2025-10-31T20:56:17.357066",
    "latitude": 46.8840774,
    "longitude": -114.0348457,
    "geocoded_address": "2350, Mullan Road, Westside, Missoula, Missoula County, Montana, 59808, United States of America"
  },
  {
    "url": "https://www.foodpantries.org/li/missoula_3:16_rescue_mission_59802",
    "name": "Missoula 3:16 Rescue Mission",
    "address": "506 B Toole Ave",
    "city": "Missoula",
    "state": "MT",
    "zip": "59802",
    "phone": null,
    "fax": null,
    "email": null,
    "website": "http://www.freefood.org/",
    "hours": "Monday - Saturday1:00pm to 2:00 pm \r\n                                    \r\n                                    County or Counties Served: Missoula",
    "description": null,
    "requirements": null,
    "scraped_at": "2025-10-31T20:56:19.683116",
    "latitude": 46.8780294,
    "longitude": -114.001427,
    "geocoded_address": "Toole Avenue, Heart of Missoula, Missoula, Missoula County, Montana, 59807, United States of America"
  },
  {
    "url": "https://www.foodpantries.org/li/city_food_59808",
    "name": "City Food",
    "address": "2811 Latimer",
    "city": "Missoula",
    "state": "MT",
    "zip": "59808",
    "phone": null,
    "fax": null,
    "email": null,
    "website": "http://www.freefood.org/",
    "hours": "10 to 12 Saturdays\r\n                                    \r\n                                                                        \n* Important: Please call the food pantries to confirm that the hours have not changed. We do our best to provide full information and details, but food pantries often change their hours without notifying us. We do not want you to waste your time visiting a pantry that is not open.",
    "description": null,
    "requirements": null,
    "scraped_at": "2025-10-31T20:56:21.970246",
    "latitude": 46.8888285,
    "longitude": -114.0328178,
    "geocoded_address": "Latimer Street, North Reserve, Missoula, Missoula County, Montana, 59808, United States of America"
  },
  {
    "url": "https://www.foodpantries.org/li/clc_food_pantry_59806",
    "name": "Christian Life Center Food Pantry",
    "address": "3801 Russell St.",
    "city": "Missoula",
    "state": "MT",
    "zip": "59801",
    "phone": null,
    "fax": null,
    "email": null,
    "website": "http://www.freefood.org/",
    "hours": "Mondays 5-6. The pantry is not open on church holidays.\r\n                                    \r\n                                    County or Counties Served: Missoula",
    "description": null,
    "requirements": null,
    "scraped_at": "2025-10-31T20:56:24.302569",
    "latitude": 46.8357377,
    "longitude": -114.0200298,
    "geocoded_address": "Christian Life Center, 3801, South Russell Street, Southgate Triangle, Missoula, Missoula County, Montana, 59801, United States of America"
  },
  {
    "url": "https://www.foodpantries.org/li/open_gate_ranch_59874",
    "name": "Open Gate Ranch",
    "address": "21 Alger Rd.",
    "city": "Trout Creek",
    "state": "MT",
    "zip": "59874",
    "phone": null,
    "fax": null,
    "email": null,
    "website": "http://www.freefood.org/",
    "hours": "24/7\r\n                                    \r\n                                                                        \n* Important: Please call the food pantries to confirm that the hours have not changed. We do our best to provide full information and details, but food pantries often change their hours without notifying us. We do not want you to waste your time visiting a pantry that is not open.",
    "description": null,
    "requirements": null,
    "scraped_at": "2025-10-31T20:56:26.549079",
    "latitude": 47.8370305,
    "longitude": -115.598067,
    "geocoded_address": "Trout Creek, Sanders County, Montana, 59874, United States of America",
    "note": "Geocoded to city center (exact address not found)"
  },
  {
    "url": "https://www.foodpantries.org/li/thompson_falls_senior_citizens_center_59873",
    "name": "Thompson Falls Senior Citizens Center",
    "address": "1191 Mount Silcox Dr.",
    "city": "Thompson Falls",
    "state": "MT",
    "zip": "59873",
    "phone": null,
    "fax": null,
    "email": null,
    "website": "http://www.freefood.org/",
    "hours": "406-827-4723 for rentals, 12 to 1 Tuesdays, 5 to whenever food runs out on Thursdays.\r\n                                    \r\n                                                                        \n* Important: Please call the food pantries to confirm that the hours have not changed. We do our best to provide full information and details, but food pantries often change their hours without notifying us. We do not want you to waste your time visiting a pantry that is not open.",
    "description": null,
    "requirements": null,
    "scraped_at": "2025-10-31T20:56:29.921492",
    "latitude": 47.5928067,
    "longitude": -115.3178828,
    "geocoded_address": "1191, Mount Silcox Drive, Thompson Falls, Sanders County, Montana, 59873, United States of America"
  },
  {
    "url": "https://www.foodpantries.org/li/community-harvest-food-bank",
    "name": "Community Harvest Food Bank",
    "address": "704 Preston Ave W",
    "city": "Thompson Falls",
    "state": "MT",
    "zip": "59873",
    "phone": "(406) 827-6333",
    "fax": null,
    "email": null,
    "website": "http://www.freefood.org/",
    "hours": "10 to 2 on Wednesdays.\nGo To Details Page For More Information",
    "description": null,
    "requirements": null,
    "scraped_at": "2025-10-31T20:56:32.164273",
    "latitude": 47.5971287,
    "longitude": -115.344309,
    "geocoded_address": "Thompson Falls, Sanders County, Montana, United States of America",
    "note": "Geocoded to city center (exact address not found)"
  },
  {
    "url": "https://www.foodpantries.org/li/mt_59254_harvest-feeds-food-pantry",
    "name": "Harvest Feeds Food Pantry",
    "address": "110 Grant Street",
    "city": "Plentywood",
    "state": "MT",
    "zip": "59254",
    "phone": "(406) 478-1016",
    "fax": null,
    "email": null,
    "website": "http://www.freefood.org/",
    "hours": "Wednesday 5:00pm - 7:00pm Saturday9:00pm - 11:00amRequirements: Please have a photo ID when you come in.  Clients are allowed to visit the pantry once per calendar month.For more information, please call. \nCounty or Counties Served: Sheridan",
    "description": null,
    "requirements": "Please have a photo ID when you come in.  Clients are allowed to visit the pantry once per calendar month.For more information, please call. \nCounty or Counties Served: Sheridan",
    "scraped_at": "2025-10-31T20:56:35.952888",
    "latitude": 48.7761556,
    "longitude": -104.5661557,
    "geocoded_address": "110, Grant Street, Plentywood, Sheridan County, Montana, 59254, United States of America"
  },
  {
    "url": "https://www.foodpantries.org/li/mission_valley_food_pantry_59865",
    "name": "Mission Valley Food Pantry",
    "address": "308 Crystal",
    "city": "St Ignatius",
    "state": "MT",
    "zip": "59865",
    "phone": null,
    "fax": null,
    "email": null,
    "website": "http://www.freefood.org/",
    "hours": "10 to 2 Tuesdays and Fridays\r\n                                    \r\n                                                                        \n* Important: Please call the food pantries to confirm that the hours have not changed. We do our best to provide full information and details, but food pantries often change their hours without notifying us. We do not want you to waste your time visiting a pantry that is not open.",
    "description": null,
    "requirements": "ID, residence Frenchtown to Fish Creek, income restrictions.",
    "scraped_at": "2025-10-31T20:56:37.867645",
    "latitude": 47.3197492,
    "longitude": -114.0941828,
    "geocoded_address": "Crystal Street, Saint Ignatius, Lake County, Montana, 59865, United States of America"
  },
  {
    "url": "https://www.foodpantries.org/li/new_life_mission_59255",
    "name": "New Life Mission",
    "address": "509 2nd Ave W.",
    "city": "Poplar",
    "state": "MT",
    "zip": "59255",
    "phone": null,
    "fax": null,
    "email": null,
    "website": "http://www.freefood.org/",
    "hours": "8 to 10 Mondays through Fridays\r\n                                    \r\n                                                                        \n* Important: Please call the food pantries to confirm that the hours have not changed. We do our best to provide full information and details, but food pantries often change their hours without notifying us. We do not want you to waste your time visiting a pantry that is not open.",
    "description": null,
    "requirements": null,
    "scraped_at": "2025-10-31T20:56:40.436122",
    "latitude": 48.1120533,
    "longitude": -105.1968916,
    "geocoded_address": "509, 2nd Avenue West, Poplar, Poplar District / wa\u021fn\u00e9ca wakp\u00e1 / waxch\u012f\u0301ca wakp\u00e1, Roosevelt County, Montana, 59255, United States of America"
  },
  {
    "url": "https://www.foodpantries.org/li/musselshell-company-food-bank-golden-thimble",
    "name": "Musselshell Company Food Bank Golden Thimble",
    "address": "101 2nd St E",
    "city": "Roundup",
    "state": "MT",
    "zip": "59072",
    "phone": "(406) 323-2810",
    "fax": null,
    "email": null,
    "website": "http://www.freefood.org/",
    "hours": "406-323-2810 or cell: 406-855-6000 (Audrey Beck), 9 am to 1:00 pm Thursday and Friday\nGo To Details Page For More Information",
    "description": null,
    "requirements": null,
    "scraped_at": "2025-10-31T20:56:42.907561",
    "latitude": 46.441948,
    "longitude": -108.53908,
    "geocoded_address": "101, 2nd Street East, Roundup, Musselshell County, Montana, 59072, United States of America"
  },
  {
    "url": "https://www.foodpantries.org/li/musselshell_county_food_bank_59072",
    "name": "Musselshell County Food Bank",
    "address": "101 2nd St W.",
    "city": "Roundup",
    "state": "MT",
    "zip": "59072",
    "phone": null,
    "fax": null,
    "email": null,
    "website": "http://www.freefood.org/",
    "hours": "406-323-2810 or cell: 406-855-6000 (Audrey Beck), 9 am to 1:00 pm Thursday and Friday\r\n                                    \r\n                                                                        \n* Important: Please call the food pantries to confirm that the hours have not changed. We do our best to provide full information and details, but food pantries often change their hours without notifying us. We do not want you to waste your time visiting a pantry that is not open.",
    "description": null,
    "requirements": null,
    "scraped_at": "2025-10-31T20:56:45.626061",
    "latitude": 46.442379,
    "longitude": -108.545033,
    "geocoded_address": "101, 2nd Street West, Roundup, Musselshell County, Montana, 59072, United States of America"
  },
  {
    "url": "https://www.foodpantries.org/li/the_seeley_swan_community_food_bank_59868",
    "name": "The Seeley Swan Community Food Bank",
    "address": "200 School Ln",
    "city": "Seeley Lake",
    "state": "MT",
    "zip": "59868",
    "phone": null,
    "fax": null,
    "email": null,
    "website": "http://www.freefood.org/",
    "hours": "12 to 4 every Tuesday\r\n                                    \r\n                                                                        \n* Important: Please call the food pantries to confirm that the hours have not changed. We do our best to provide full information and details, but food pantries often change their hours without notifying us. We do not want you to waste your time visiting a pantry that is not open.",
    "description": null,
    "requirements": null,
    "scraped_at": "2025-10-31T20:56:47.697834",
    "latitude": 47.175568,
    "longitude": -113.474971,
    "geocoded_address": "200, School Lane, Seeley Lake, Missoula County, Montana, 59868, United States of America"
  },
  {
    "url": "https://www.foodpantries.org/li/mt_sidney_richland-county-food-bank",
    "name": "Richland County Food Bank",
    "address": "123 West Main St.",
    "city": "Sidney",
    "state": "MT",
    "zip": "59270",
    "phone": "(406) 433-8142",
    "fax": null,
    "email": null,
    "website": "http://www.freefood.org/",
    "hours": "Mondays and Thursdays by appointment\nCounty or Counties Served: Richland",
    "description": null,
    "requirements": null,
    "scraped_at": "2025-10-31T20:56:50.000907",
    "latitude": 47.7155271,
    "longitude": -104.1583355,
    "geocoded_address": "123, West Main Street, Four Seasons Trailer Court, Sidney, Richland County, Montana, 59270, United States of America"
  },
  {
    "url": "https://www.foodpantries.org/li/thompson_falls_community_harvest_food_bank_59873",
    "name": "Thompson Falls Community Harvest Food Bank",
    "address": "704 1/2 Preston",
    "city": "Thompson Falls",
    "state": "MT",
    "zip": "59873",
    "phone": "(406) 827-9897",
    "fax": null,
    "email": null,
    "website": "http://www.freefood.org/",
    "hours": "Tuesday and Thursday10:00 am to 3:00 pmFor more information, please call. \nCounty or Counties Served: Sanders",
    "description": null,
    "requirements": null,
    "scraped_at": "2025-10-31T20:56:52.297733",
    "latitude": 47.5956688,
    "longitude": -115.3481199,
    "geocoded_address": "Preston Avenue, Thompson Falls, Sanders County, Montana, 59873, United States of America"
  },
  {
    "url": "https://www.foodpantries.org/li/gospel_mountain_assembly_of_god_food_bank_59873",
    "name": "Gospel Mountain Assembly of God Food Bank",
    "address": "1120 Preston Ave",
    "city": "Thompson Falls",
    "state": "MT",
    "zip": "59873",
    "phone": null,
    "fax": null,
    "email": null,
    "website": "http://www.freefood.org/",
    "hours": "10 to 2 on Wednesdays.\r\n                                    \r\n                                                                        \n* Important: Please call the food pantries to confirm that the hours have not changed. We do our best to provide full information and details, but food pantries often change their hours without notifying us. We do not want you to waste your time visiting a pantry that is not open.",
    "description": null,
    "requirements": null,
    "scraped_at": "2025-10-31T20:56:55.003616",
    "latitude": 47.5956688,
    "longitude": -115.3481199,
    "geocoded_address": "Preston Avenue, Thompson Falls, Sanders County, Montana, 59873, United States of America"
  },
  {
    "url": "https://www.foodpantries.org/li/the-headwaters-area-food-bank",
    "name": "The Headwaters Area Food Bank",
    "address": "PO Box 27",
    "city": "Three Forks",
    "state": "MT",
    "zip": "59752",
    "phone": "(406) 285-3559",
    "fax": null,
    "email": null,
    "website": "http://www.freefood.org/",
    "hours": "Mondays 9 to 4, Wednesdays 9 to 1, Thursdays 10 to 7\nGo To Details Page For More Information",
    "description": null,
    "requirements": null,
    "scraped_at": "2025-10-31T20:56:57.568479",
    "latitude": 45.892606,
    "longitude": -111.551448,
    "geocoded_address": "Three Forks, Gallatin County, Montana, United States of America",
    "note": "Geocoded to city center (exact address not found)"
  },
  {
    "url": "https://www.foodpantries.org/li/headwaters_area_food_bank_59752",
    "name": "Headwaters Area Food Bank",
    "address": "12 E Cedar",
    "city": "Three Forks",
    "state": "MT",
    "zip": "59752",
    "phone": null,
    "fax": null,
    "email": null,
    "website": "http://www.freefood.org/",
    "hours": "Mondays 9 to 4, Wednesdays 9 to 1, Thursdays 10 to 7\r\n                                    \r\n                                                                        \n* Important: Please call the food pantries to confirm that the hours have not changed. We do our best to provide full information and details, but food pantries often change their hours without notifying us. We do not want you to waste your time visiting a pantry that is not open.",
    "description": null,
    "requirements": null,
    "scraped_at": "2025-10-31T20:57:01.556688",
    "latitude": 45.893152,
    "longitude": -111.5518103,
    "geocoded_address": "12, East Cedar Street, Murphys Trailer Court, Three Forks, Gallatin County, Montana, 59752, United States of America"
  },
  {
    "url": "https://www.foodpantries.org/li/the_yaak_food_cupboard_59935",
    "name": "The Yaak Food Cupboard",
    "address": "60 Riverview Dr.",
    "city": "Troy",
    "state": "MT",
    "zip": "59935",
    "phone": null,
    "fax": null,
    "email": null,
    "website": "http://www.freefood.org/",
    "hours": "Twice a month on 2nd and 4th Tuesdays from 2 to 4\r\n                                    \r\n                                                                        \n* Important: Please call the food pantries to confirm that the hours have not changed. We do our best to provide full information and details, but food pantries often change their hours without notifying us. We do not want you to waste your time visiting a pantry that is not open.",
    "description": null,
    "requirements": null,
    "scraped_at": "2025-10-31T20:57:04.865040",
    "latitude": 48.4615199,
    "longitude": -115.8949854,
    "geocoded_address": "Troy, Lincoln County, Montana, United States of America",
    "note": "Geocoded to city center (exact address not found)"
  },
  {
    "url": "https://www.foodpantries.org/li/the_west_yellowstone_food_bank_59758",
    "name": "The West Yellowstone Food Bank",
    "address": "200 Yellowstone Ave",
    "city": "West Yellowstone",
    "state": "MT",
    "zip": "59758",
    "phone": null,
    "fax": null,
    "email": null,
    "website": "http://www.freefood.org/",
    "hours": "1 to 3 Mondays through Fridays\r\n                                    \r\n                                                                        \n* Important: Please call the food pantries to confirm that the hours have not changed. We do our best to provide full information and details, but food pantries often change their hours without notifying us. We do not want you to waste your time visiting a pantry that is not open.",
    "description": null,
    "requirements": null,
    "scraped_at": "2025-10-31T20:57:08.949212",
    "latitude": 44.658625,
    "longitude": -111.10212,
    "geocoded_address": "200, Yellowstone Avenue, West Yellowstone, Gallatin County, Montana, 59758, United States of America"
  },
  {
    "url": "https://www.foodpantries.org/li/meagher_county_nutrition_coalition_59645",
    "name": "Meagher County Nutrition Coalition",
    "address": "Folson and Central",
    "city": "White Sulphur Springs",
    "state": "MT",
    "zip": "59645",
    "phone": null,
    "fax": null,
    "email": null,
    "website": "http://www.freefood.org/",
    "hours": "4 to 6 every Wednesday\r\n                                    \r\n                                                                        \n* Important: Please call the food pantries to confirm that the hours have not changed. We do our best to provide full information and details, but food pantries often change their hours without notifying us. We do not want you to waste your time visiting a pantry that is not open.",
    "description": null,
    "requirements": null,
    "scraped_at": "2025-10-31T20:57:10.919233",
    "latitude": 46.5480749,
    "longitude": -110.9034718,
    "geocoded_address": "White Sulphur Springs, Meagher County, Montana, 59645, United States of America",
    "note": "Geocoded to city center (exact address not found)"
  },
  {
    "url": "https://www.foodpantries.org/li/wibaux_food_bank_59353",
    "name": "Wibaux Food Bank",
    "address": "201 First Ave SW",
    "city": "Wibaux",
    "state": "MT",
    "zip": "59353",
    "phone": null,
    "fax": null,
    "email": null,
    "website": "http://www.freefood.org/",
    "hours": "2 to 4 the second Thursday of every month. Also available for emergency boxes at any time.\r\n                                    \r\n                                                                        \n* Important: Please call the food pantries to confirm that the hours have not changed. We do our best to provide full information and details, but food pantries often change their hours without notifying us. We do not want you to waste your time visiting a pantry that is not open.",
    "description": null,
    "requirements": null,
    "scraped_at": "2025-10-31T20:57:14.201311",
    "latitude": 46.910018,
    "longitude": -104.2215171,
    "geocoded_address": "Wibaux County, Montana, 59353, United States of America",
    "note": "Geocoded to city center (exact address not found)"
  },
  {
    "url": "https://www.foodpantries.org/li/wolf_point_thrift_store_and_food_bank_59201",
    "name": "Wolf Point Thrift Store and Food Bank",
    "address": "300 Highway 25 East",
    "city": "Wolf Point",
    "state": "MT",
    "zip": "59201",
    "phone": null,
    "fax": null,
    "email": null,
    "website": "http://www.freefood.org/",
    "hours": "Mondays through Fridays 10 am to 3:30 pm\r\n                                    \r\n                                                                        \n* Important: Please call the food pantries to confirm that the hours have not changed. We do our best to provide full information and details, but food pantries often change their hours without notifying us. We do not want you to waste your time visiting a pantry that is not open.",
    "description": null,
    "requirements": null,
    "scraped_at": "2025-10-31T20:57:18.081963",
    "latitude": 48.090574,
    "longitude": -105.640557,
    "geocoded_address": "Wolf Point, Wolf Point District / \u0161\u0173kt\u00f3geja o\u02be\u00edpa, Roosevelt County, Montana, United States of America",
    "note": "Geocoded to city center (exact address not found)"
  },
  {
    "url": "https://www.foodpantries.org/li/basket_of_hope_59201",
    "name": "Basket of Hope",
    "address": "230 Main St.",
    "city": "Wolf Point",
    "state": "MT",
    "zip": "59201",
    "phone": null,
    "fax": null,
    "email": null,
    "website": "http://www.freefood.org/",
    "hours": "12 to 4:30 Monday - Thursday\r\n                                    \r\n                                                                        \n* Important: Please call the food pantries to confirm that the hours have not changed. We do our best to provide full information and details, but food pantries often change their hours without notifying us. We do not want you to waste your time visiting a pantry that is not open.",
    "description": null,
    "requirements": null,
    "scraped_at": "2025-10-31T20:57:21.683115",
    "latitude": 48.0897332,
    "longitude": -105.6438126,
    "geocoded_address": "Main Street, Wolf Point, Wolf Point District / \u0161\u0173kt\u00f3geja o\u02be\u00edpa, Roosevelt County, Montana, 59201, United States of America"
  }
]