[
  {
    "url": "https://www.foodpantries.org/li/ne_68003_ashland-food-pantry",
    "name": "Ashland Food Pantry",
    "address": "1941 Silver St",
    "city": "Ashland",
    "state": "NE",
    "zip": "68003",
    "phone": "(402) 525-7472",
    "fax": null,
    "email": null,
    "website": "http://www.freefood.org/",
    "hours": "4:30pm - 6:00pm2nd and 4th Wednesday in April 2025Every Wednesday Starting May 2025.\u00a0Food Pantry Location:Basement of the American Lutheran Church, come through the white door located in the middle of the building on the west side (19th Street).     \nVolunteering Information:If you would like to volunteer please contact us at ashlandpantry@yahoo.com.  \nCounty or Counties Served: Saunders",
    "description": null,
    "requirements": null,
    "scraped_at": "2025-10-31T21:02:13.285831",
    "latitude": 41.0388838,
    "longitude": -96.3753508,
    "geocoded_address": "American Lutheran Church, 1941, Silver Street, Ashland, Saunders County, Nebraska, 68003, United States of America"
  },
  {
    "url": "https://www.foodpantries.org/li/ne_68059_springfield-food-pantry",
    "name": "Springfield Food Pantry",
    "address": "480 Main Street",
    "city": "Springfield",
    "state": "NE",
    "zip": "68059",
    "phone": "(402) 253-2270",
    "fax": null,
    "email": null,
    "website": "http://www.sprfumc.org",
    "hours": "The 3rd Wednesday of the Month 5:00 pm to 7:00 pm The 4th Saturday of the Month 10:00 am to 12\nGo To Details Page For More Information",
    "description": null,
    "requirements": "Must be at least 18 years of age Register in person for the first\nGo To Details Page For More Information",
    "scraped_at": "2025-10-31T21:02:16.169175",
    "latitude": 41.0821277,
    "longitude": -96.1298586,
    "geocoded_address": "First United Methodist Church, 480, Main Street, Springfield, Sarpy County, Nebraska, 68059, United States of America"
  },
  {
    "url": "https://www.foodpantries.org/li/heartland-hope-mission-west-omaha",
    "name": "Heartland Hope Mission - West Omaha",
    "address": "15555 Industrial Rd.",
    "city": "Omaha",
    "state": "NE",
    "zip": "68144",
    "phone": "(402) 733-1904",
    "fax": null,
    "email": null,
    "website": "http://www.freefood.org/",
    "hours": "Fridays from 1:00pm to 2:30pmFor more information, please call.\nCounty or Counties Served: Douglas",
    "description": null,
    "requirements": null,
    "scraped_at": "2025-10-31T21:02:18.793361",
    "latitude": 41.221588,
    "longitude": -96.134188,
    "geocoded_address": "Industrial Road, Industrial Road Industries, Millard, Omaha, Douglas County, Nebraska, 68137, United States of America"
  },
  {
    "url": "https://www.foodpantries.org/li/ne_68137_marshall-drive-pantry",
    "name": "Marshall Drive Pantry",
    "address": "4845 Marshall Drive",
    "city": "Omaha",
    "state": "NE",
    "zip": "68137",
    "phone": "(402) 895-4227",
    "fax": null,
    "email": null,
    "website": "http://www.freefood.org/",
    "hours": "The last Saturday of every month \r\n10:00 am- 11:30 am \r\n There are no special requirements or restrictions. Everyone is welcomed to come and receive a food box. For more information, please call.",
    "description": null,
    "requirements": null,
    "scraped_at": "2025-10-31T21:02:21.526935",
    "latitude": 41.2116239,
    "longitude": -96.1348702,
    "geocoded_address": "Marshall Drive Baptist Church, 4845, Marshall Drive, Millard, Omaha, Douglas County, Nebraska, 68137, United States of America"
  },
  {
    "url": "https://www.foodpantries.org/li/millard-food-pantry",
    "name": "Millard Food Pantry",
    "address": "14633 Industrial Road",
    "city": "Omaha",
    "state": "NE",
    "zip": "68144",
    "phone": "(402) 763-6050",
    "fax": null,
    "email": null,
    "website": "http://www.freefood.org/",
    "hours": "The last Saturday of every month\r\n10:00 am- 11:30 am\r\n There are no special requirements or restrictions. Everyone is welcomed to come and receive a food box. For more information, please call. \nCounty or Counties Served: Douglas",
    "description": null,
    "requirements": null,
    "scraped_at": "2025-10-31T21:02:23.660543",
    "latitude": 41.2273438,
    "longitude": -96.1421047,
    "geocoded_address": "14633, Industrial Road, Millard, Omaha, Douglas County, Nebraska, 68144, United States of America"
  },
  {
    "url": "https://www.foodpantries.org/li/food-bank-of-lincoln-inc",
    "name": "Food Bank of Lincoln Inc",
    "address": "4840 Doris Bair Circle",
    "city": "Lincoln",
    "state": "NE",
    "zip": "68504",
    "phone": "(402) 466-8170",
    "fax": null,
    "email": null,
    "website": "http://www.freefood.org/",
    "hours": "Monday - Friday8:00am - 4:30pmFor more information, please call.\nVolunteering Information:https://www.lincolnfoodbank.org/give-help/volunteer \nCounty or Counties Served: Lancaster",
    "description": null,
    "requirements": null,
    "scraped_at": "2025-10-31T21:02:26.297134",
    "latitude": 40.8625988,
    "longitude": -96.6516093,
    "geocoded_address": "Doris Bair Park Condominium, 4840, Doris Bair Circle, Doris Bair Park, Lincoln, Lancaster County, Nebraska, 68504, United States of America"
  },
  {
    "url": "https://www.foodpantries.org/li/havelock_umc_68507",
    "name": "Havelock UMC",
    "address": "4140 North 60th Street",
    "city": "Lincoln",
    "state": "NE",
    "zip": "68507",
    "phone": "(402) 466-6736",
    "fax": null,
    "email": null,
    "website": "http://www.freefood.org/",
    "hours": "Tuesday5:00pmFor more information, please call.\nCounty or Counties Served: Lancaster",
    "description": null,
    "requirements": null,
    "scraped_at": "2025-10-31T21:02:28.707748",
    "latitude": 40.8545624,
    "longitude": -96.6381256,
    "geocoded_address": "Havelock United Methodist Church, 4140, North 60th Street, Havelock, Lincoln, Lancaster County, Nebraska, 68507, United States of America"
  },
  {
    "url": "https://www.foodpantries.org/li/carol_yoakum_fam_center_68504",
    "name": "Carol Yoakum Fam Center",
    "address": "4621 N 48th Street",
    "city": "Lincoln",
    "state": "NE",
    "zip": "68504",
    "phone": "(402) 434-2621",
    "fax": null,
    "email": null,
    "website": "http://www.freefood.org/",
    "hours": "Monday\r\n 5:00pm - 6:00pm\n\r\nFor more information, please call the pantry.\nCounty or Counties Served: Lancaster",
    "description": null,
    "requirements": null,
    "scraped_at": "2025-10-31T21:02:31.140371",
    "latitude": 40.8606898,
    "longitude": -96.6535854,
    "geocoded_address": "4621, North 48th Street, H.J.B. Industrial Park, Lincoln, Lancaster County, Nebraska, 68504, United States of America"
  },
  {
    "url": "https://www.foodpantries.org/li/ne_omaha_st-john-neumann-food-pantry",
    "name": "St. John Neumann Catholic Church Food Pantry",
    "address": "2575 W El Campo Grande Avenue",
    "city": "Omaha",
    "state": "NE",
    "zip": "68154",
    "phone": "(702) 657-0200",
    "fax": null,
    "email": null,
    "website": "https://www.sjnc.org/",
    "hours": "Every 1st and 3rd Wednesday of each month, 9:00 am-12:00 pm.\nVolunteering Information:Always need volunteers on Tuesdays to organize the pantry and/or Wednesdays to help distribute the food. \nCounty or Counties Served: Douglas",
    "description": null,
    "requirements": null,
    "scraped_at": "2025-10-31T21:02:33.311453",
    "latitude": 41.2587459,
    "longitude": -95.9383758,
    "geocoded_address": "Omaha, Douglas County, Nebraska, United States of America",
    "note": "Geocoded to city center (exact address not found)"
  },
  {
    "url": "https://www.foodpantries.org/li/faithworks-pantry-place",
    "name": "FaithWorks Pantry Place",
    "address": "4814 Oaks Lane",
    "city": "Omaha",
    "state": "NE",
    "zip": "68137",
    "phone": "(402) 895-3394",
    "fax": null,
    "email": null,
    "website": "http://www.freefood.org/",
    "hours": "The 3rd Wednesday of the Month5:00 pm to 7:00 pmThe 4th Saturday of the Month10:00 am to 12:00 pm For more information, please call.\nCounty or Counties Served: Douglas",
    "description": null,
    "requirements": null,
    "scraped_at": "2025-10-31T21:02:36.620472",
    "latitude": 41.211413,
    "longitude": -96.1116585,
    "geocoded_address": "Faith Westwood United Methodist Church, 4814, Oaks Lane, Millard, Omaha, Douglas County, Nebraska, 68137, United States of America"
  },
  {
    "url": "https://www.foodpantries.org/li/ne_68713_west-holt-health-ministries-atkinsonstuart-food-pantry",
    "name": "West Holt Health Ministries - AtkinsonStuart Food Pantry",
    "address": "108 W State Street",
    "city": "Atkinson",
    "state": "NE",
    "zip": "68713",
    "phone": "(402) 340-2273",
    "fax": null,
    "email": null,
    "website": "http://www.freefood.org/",
    "hours": "The 1st Monday of the month \r\n1:00pm - 4:00pm \r\nDuring this time we are also doing an extended one\r\nThe 3rd Wednesday of the month\n\r\nFor more information, please call. \nVolunteering Information:https://www.westholthealthministries.com/get_involved \nCounty or Counties Served: Holt",
    "description": null,
    "requirements": null,
    "scraped_at": "2025-10-31T21:02:39.013088",
    "latitude": 42.531362,
    "longitude": -98.9784936,
    "geocoded_address": "108, West State Street, Atkinson, Holt County, Nebraska, 68713, United States of America"
  },
  {
    "url": "https://www.foodpantries.org/li/hamilton-county-food-pantry",
    "name": "Hamilton County Food Pantry",
    "address": "1118 N Street",
    "city": "Aurora",
    "state": "NE",
    "zip": "68818",
    "phone": "(402) 694-6979",
    "fax": null,
    "email": null,
    "website": "http://www.freefood.org/",
    "hours": "Tuesday 11:30am-12:30pm Thursday 5:30pm-6:30pm Saturday 9:00am - 10:00amFor more information, please call. \nCounty or Counties Served: Hamilton",
    "description": null,
    "requirements": "Picture ID, Dates of b\nGo To Details Page For More Information",
    "scraped_at": "2025-10-31T21:02:42.865529",
    "latitude": 40.8693178,
    "longitude": -98.0042155,
    "geocoded_address": "1118, N Street, Aurora, Hamilton County, Nebraska, 68818, United States of America"
  },
  {
    "url": "https://www.foodpantries.org/li/st-marys-church",
    "name": "St Mary's Church - Mary's Table - Camille's Cupboard",
    "address": "112 S Cedar Street",
    "city": "Grand island",
    "state": "NE",
    "zip": "68801",
    "phone": null,
    "fax": null,
    "email": null,
    "website": "http://www.freefood.org/",
    "hours": "You can come once every two months, call them for information on days and time as they vary. Drop off Donations: The second Sunday of each month  \nGo To Details Page For More Information",
    "description": null,
    "requirements": "Picture ID, Dates of b\nGo To Details Page For More Information",
    "scraped_at": "2025-10-31T21:02:45.552858",
    "latitude": 40.9220687,
    "longitude": -98.3430801,
    "geocoded_address": "112, South Cedar Street, Grand Island, Hall County, Nebraska, 68801, United States of America"
  },
  {
    "url": "https://www.foodpantries.org/li/salvation-army-grand-island",
    "name": "Salvation Army - Grand Island Food Pantry",
    "address": "818 West 3rd Street",
    "city": "Grand Island",
    "state": "NE",
    "zip": "68801",
    "phone": "(308) 385-4855",
    "fax": "(308) 395-8369",
    "email": null,
    "website": "http://www.freefood.org/",
    "hours": "You can come once every two months, call them for information on days and time as they vary. Drop off Donations: The second Sunday of each month  \nGo To Details Page For More Information",
    "description": null,
    "requirements": "Picture ID, Dates of birth of household members & Proof of address.",
    "scraped_at": "2025-10-31T21:02:48.603998",
    "latitude": 40.922787,
    "longitude": -98.3482453,
    "geocoded_address": "Salvation Army Worship Center & Grimminger Service Center, 818, West 3rd Street, Grand Island, Hall County, Nebraska, 68801, United States of America"
  },
  {
    "url": "https://www.foodpantries.org/li/ne_68801_blessed-sacrament-catholic-church-food-pantry",
    "name": "Blessed Sacrament Catholic Church Food Pantry",
    "address": "518 State Street",
    "city": "Grand Island",
    "state": "NE",
    "zip": "68801",
    "phone": "(308) 384-0532",
    "fax": null,
    "email": null,
    "website": "http://www.freefood.org/",
    "hours": "You can come once every two months, call them for information on days and time as they vary.Drop off Donations:The second Sunday of each month\nCounty or Counties Served: Hall",
    "description": null,
    "requirements": "Picture ID, Dates of b\nGo To Details Page For More Information",
    "scraped_at": "2025-10-31T21:02:51.416310",
    "latitude": 40.938437,
    "longitude": -98.3535805,
    "geocoded_address": "State Street, Grand Island, Hall County, Nebraska, 68802, United States of America"
  },
  {
    "url": "https://www.foodpantries.org/li/ne_68826_merrick-county-food-pantry",
    "name": "Merrick County Food Pantry",
    "address": "715 16th Street",
    "city": "Central City",
    "state": "NE",
    "zip": "68826",
    "phone": null,
    "fax": null,
    "email": null,
    "website": "http://www.freefood.org/",
    "hours": "Tuesday 11:30am-12:30pm Thursday 5:30pm-6:30pm Saturday 9:00am - 10:00am  For more information, please call.  \nGo To Details Page For More Information",
    "description": null,
    "requirements": "Picture ID, Dates of b\nGo To Details Page For More Information",
    "scraped_at": "2025-10-31T21:02:53.961929",
    "latitude": 41.1159969,
    "longitude": -97.9934688,
    "geocoded_address": "16th Street, Central City, Merrick County, Nebraska, 68826, United States of America"
  },
  {
    "url": "https://www.foodpantries.org/li/catholic-social-services-hastings",
    "name": "Catholic Social Services - St. John Vianney Center",
    "address": "333 West 2nd Street",
    "city": "Hastings",
    "state": "NE",
    "zip": "68901",
    "phone": "(402) 463-2112",
    "fax": null,
    "email": null,
    "website": "https://www.cssisus.org",
    "hours": "Monday, Tuesday, Wednesday and Friday9:00am - 12:00pm1:00pm - 5:00pmThursday 10:30am- 12:00pm1:00pm - 5:00pmFor more information, please call. \nVolunteering Information:https://www.cssisus.org/what_you_can_do/volunteer.html \nCounty or Counties Served: Adams",
    "description": null,
    "requirements": "Picture ID, Dates of b\nGo To Details Page For More Information",
    "scraped_at": "2025-10-31T21:02:56.566142",
    "latitude": 40.5850576,
    "longitude": -98.3853679,
    "geocoded_address": "333, West 2nd Street, Bonnavilla and Eastgate Mobile Home Park, Hastings, Adams County, Nebraska, 68901, United States of America"
  },
  {
    "url": "https://www.foodpantries.org/li/community-action-partnership-of-mid-nebraska",
    "name": "Community Action Partnership of Mid-Nebraska",
    "address": "422 North Hastings, #203",
    "city": "Hastings",
    "state": "NE",
    "zip": "68901",
    "phone": "(402) 463-7679",
    "fax": null,
    "email": null,
    "website": "http://www.freefood.org/",
    "hours": "Mon-Fri 8 am-4:30 pm",
    "description": null,
    "requirements": "Picture ID, Dates of b\nGo To Details Page For More Information",
    "scraped_at": "2025-10-31T21:02:58.792026",
    "latitude": 40.5861322,
    "longitude": -98.3898883,
    "geocoded_address": "Hastings, Adams County, Nebraska, United States of America",
    "note": "Geocoded to city center (exact address not found)"
  },
  {
    "url": "https://www.foodpantries.org/li/the-Beatrice-community-food-pantry-emergency-services",
    "name": "The Beatrice Community Food Pantry",
    "address": "205 Ella St. Suite 1B",
    "city": "Beatrice",
    "state": "NE",
    "zip": "68310",
    "phone": "(402) 239-5936",
    "fax": "(402) 223-5260",
    "email": null,
    "website": "http://www.freefood.org/",
    "hours": "Monday & Thursday 9:00am-12:00pm, 1:00pm-4:00pm Last Tuesday of the month 1:00pm - 4:00pmLocation:4TH & ELLA - SW ENTRANCENew clients may come once a month for food for three months; they review clients and may restrict them from coming too often.Each case is tried on its own merits.\nCounty or Counties Served: Gage",
    "description": null,
    "requirements": null,
    "scraped_at": "2025-10-31T21:03:04.615385",
    "latitude": 40.266429,
    "longitude": -96.747369,
    "geocoded_address": "Beatrice, Gage County, Nebraska, United States of America",
    "note": "Geocoded to city center (exact address not found)"
  },
  {
    "url": "https://www.foodpantries.org/li/blue-valley-community-action-partnership",
    "name": "Blue Valley Community Action Partnership",
    "address": "5109 West Scott Road",
    "city": "Beatrice",
    "state": "NE",
    "zip": "68310",
    "phone": "(402) 223-6034",
    "fax": "(402) 223-6043",
    "email": null,
    "website": "http://www.bvca.net",
    "hours": "Monday - Friday\r\n9:00am - 4:00pm\r\nFor more information, please call.",
    "description": null,
    "requirements": null,
    "scraped_at": "2025-10-31T21:03:07.896912",
    "latitude": 40.2629471,
    "longitude": -96.787856,
    "geocoded_address": "5109, West Scott Road, Beatrice, Gage County, Nebraska, 68310, United States of America"
  },
  {
    "url": "https://www.foodpantries.org/li/ne_68310_blue-valley-community-action-partnership",
    "name": "Blue Valley Community Action Partnership",
    "address": "2015 N. 6th Street",
    "city": "Beatrice",
    "state": "NE",
    "zip": "68310",
    "phone": "(402) 223-6034",
    "fax": null,
    "email": null,
    "website": "http://www.bvca.net",
    "hours": "Monday - Friday 8:00 am - 4:00 pmClosed holidays and weekends.For more information, please call.\nVolunteering Information:http://www.bvca.net/Get_Involved/volunteer.aspx \nCounty or Counties Served: Gage",
    "description": null,
    "requirements": null,
    "scraped_at": "2025-10-31T21:03:10.158137",
    "latitude": 40.2849878,
    "longitude": -96.746671,
    "geocoded_address": "2015, North 6th Street, Beatrice, Gage County, Nebraska, 68310, United States of America"
  },
  {
    "url": "https://www.foodpantries.org/li/wymore-food-pantry",
    "name": "Wymore Food Pantry",
    "address": "101 S 7th Street",
    "city": "Wymore",
    "state": "NE",
    "zip": "68466",
    "phone": null,
    "fax": null,
    "email": null,
    "website": "http://www.freefood.org/",
    "hours": "Monday & Thursday 9:00am-12:00pm, 1:00pm-4:00pm Last Tuesday of the month 1:00pm - 4:00pm  Location:  4TH & ELLA - SW ENTRANCE New clien\nGo To Details Page For More Information",
    "description": null,
    "requirements": null,
    "scraped_at": "2025-10-31T21:03:12.433667",
    "latitude": 40.122208,
    "longitude": -96.66213,
    "geocoded_address": "101, South 7th Street, Wymore, Gage County, Nebraska, 68466, United States of America"
  },
  {
    "url": "https://www.foodpantries.org/li/foodnet-waneks_community_center_68333",
    "name": "Wanek's Community Center",
    "address": "1410 Main Ave",
    "city": "Crete",
    "state": "NE",
    "zip": "68333",
    "phone": "(402) 416-6197",
    "fax": null,
    "email": null,
    "website": "http://www.freefood.org/",
    "hours": "Saturday\r\n1:00pm \n\r\nFor more information, please call. \nCounty or Counties Served: Saline",
    "description": null,
    "requirements": null,
    "scraped_at": "2025-10-31T21:03:14.841497",
    "latitude": 40.6263443,
    "longitude": -96.9614038,
    "geocoded_address": "1410, Main Avenue, Crete, Saline County, Nebraska, 68333, United States of America"
  },
  {
    "url": "https://www.foodpantries.org/li/bellevue-ministerial-association-food-pantryeastern-nebraska-community-action-partnership-sarpy-offi",
    "name": "Bellevue Food Pantry",
    "address": "1908 Hancock Street",
    "city": "Bellevue",
    "state": "NE",
    "zip": "68005",
    "phone": "(402) 292-2961",
    "fax": null,
    "email": null,
    "website": "http://www.freefood.org/",
    "hours": "Tuesday and Thursday\r\n9:00am - 4:00pm\n\r\nFor more information, please call.",
    "description": null,
    "requirements": "Must be at least 18 years of age Register in person for the first\nGo To Details Page For More Information",
    "scraped_at": "2025-10-31T21:03:16.968827",
    "latitude": 41.1404345,
    "longitude": -95.8924,
    "geocoded_address": "1908, Hancock Street, Olde Towne Bellevue, Olde Towne, Bellevue, Sarpy County, Nebraska, 68005, United States of America"
  },
  {
    "url": "https://www.foodpantries.org/li/ne_68107_heartland-hope-mission-pantry",
    "name": "Heartland Hope Mission Pantry - South Omaha",
    "address": "2021 U Street",
    "city": "Omaha",
    "state": "NE",
    "zip": "68107",
    "phone": "(402) 733-2077",
    "fax": null,
    "email": null,
    "website": "http://www.freefood.org/",
    "hours": "Tuesday 6:30pm - 7:30pmThursday 1:30pm - 4:00pmSaturday 9:30am - 12:00pmFor more information, please call.\nCounty or Counties Served: Douglas",
    "description": null,
    "requirements": "Must be at least 18 years of age Register in person for the first\nGo To Details Page For More Information",
    "scraped_at": "2025-10-31T21:03:19.363327",
    "latitude": 41.201942,
    "longitude": -95.9421372,
    "geocoded_address": "2021, U Street, South Omaha, Omaha, Douglas County, Nebraska, 68107, United States of America"
  },
  {
    "url": "https://www.foodpantries.org/li/ne_68107_juan-diego-center-catholic-charities",
    "name": "Juan Diego Center Food Pantry - Catholic Charities",
    "address": "5211 South 31st Street",
    "city": "Omaha",
    "state": "NE",
    "zip": "68107",
    "phone": "(402) 731-5413",
    "fax": null,
    "email": null,
    "website": "https://www.ccomaha.org",
    "hours": "Monday: 9:30 a.m. \u2013 11:30 a.m.Tuesday: 9:30 a.m. \u2013 11:30 a.m.Wednesday: 4:00 p.m. \u2013 6:00 p.m.Thursday: 9:30 a.m. \u2013 11:30 a.m.Friday: 9:30 a.m. \u2013 11:30 a.m.Eligibility and Requirements:Must be at least 18 years of ageRegister in person for the first timeCommunity Member Card is required to access food \nVolunteering Information:https://www.ccomaha.org/get-involved/volunteer-form \nCounty or Counties Served: Douglas",
    "description": null,
    "requirements": "Must be at least 18 years of ageRegister in person for the first timeCommunity Member Card is required to access food \nVolunteering Information:https://www.ccomaha.org/get-involved/volunteer-form \nCounty or Counties Served: Douglas",
    "scraped_at": "2025-10-31T21:03:21.435129",
    "latitude": 41.2052908,
    "longitude": -95.9599175,
    "geocoded_address": "5211, South 31st Street, South Omaha, Omaha, Douglas County, Nebraska, 68107, United States of America"
  },
  {
    "url": "https://www.foodpantries.org/li/ne_68107_lutheran-south-pantry",
    "name": "South Lutheran Food Pantry",
    "address": "4401 S 23th St",
    "city": "Omaha",
    "state": "NE",
    "zip": "68107",
    "phone": "(402) 502-7070",
    "fax": null,
    "email": null,
    "website": "http://www.freefood.org/",
    "hours": "Tuesday, Thursday and Friday 9:00am to 2:30pm",
    "description": null,
    "requirements": "Need an ID.\nCounty or Counties Served: Douglas",
    "scraped_at": "2025-10-31T21:03:23.799529",
    "latitude": 41.2587459,
    "longitude": -95.9383758,
    "geocoded_address": "Omaha, Douglas County, Nebraska, United States of America",
    "note": "Geocoded to city center (exact address not found)"
  },
  {
    "url": "https://www.foodpantries.org/li/loaves-fishes-westminster-presbyterian-church",
    "name": "Loaves & Fishes - Grace Lutheran Church",
    "address": "1326 South 26th Street",
    "city": "Omaha",
    "state": "NE",
    "zip": "68105",
    "phone": "(402) 341-7730",
    "fax": "(402) 341-7731",
    "email": null,
    "website": "http://www.freefood.org/",
    "hours": "Tuesday \r\n1:00pm - 4:00pm",
    "description": null,
    "requirements": "Photo ID or Consulate Card, SSN, and proof of address required. \r\nOne pantry per 30 days. \r\n \r\nClothing Closet Available: same hours as the pantry. \r\n \r\nFor more information, please call.",
    "scraped_at": "2025-10-31T21:03:26.939791",
    "latitude": 41.2466681,
    "longitude": -95.9507049,
    "geocoded_address": "1326, South 26th Street, Omaha, Douglas County, Nebraska, 68105, United States of America"
  },
  {
    "url": "https://www.foodpantries.org/li/ne-together-inc",
    "name": "Together, Inc",
    "address": "812 S 24th Street",
    "city": "Omaha",
    "state": "NE",
    "zip": "68108",
    "phone": "(402) 345-8047",
    "fax": null,
    "email": null,
    "website": "http://www.freefood.org/",
    "hours": null,
    "description": null,
    "requirements": "Photo ID or Consulate Card, SSN, and proof of address required. \r\nOne pantry per 30 days. \r\n \r\nClothing Closet Available: same hours as the pantry. \r\n \r\nFor more information, please call.",
    "scraped_at": "2025-10-31T21:03:29.087336",
    "latitude": 41.2518601,
    "longitude": -95.9477343,
    "geocoded_address": "Together, 812, South 24th Street, Omaha, Douglas County, Nebraska, 68108, United States of America"
  },
  {
    "url": "https://www.foodpantries.org/li/first-lutheran-churchs-food-pantry",
    "name": "First Lutheran Church's Food Pantry",
    "address": "542 S. 31st Street",
    "city": "Omaha",
    "state": "NE",
    "zip": "68105",
    "phone": "(402) 345-7506",
    "fax": null,
    "email": null,
    "website": "http://www.flcomaha.org",
    "hours": "Tuesday\r\n1:00pm - 4:00pm",
    "description": null,
    "requirements": "Photo ID or Consulate Card, SSN, and proof of address required. \r\nOne pantry per 30 days.\n\r\nClothing Closet Available: same hours as the pantry. \n\r\nFor more information, please call.",
    "scraped_at": "2025-10-31T21:03:31.616837",
    "latitude": 41.2545528,
    "longitude": -95.9584019,
    "geocoded_address": "542, South 31st Street, Omaha, Douglas County, Nebraska, 68105, United States of America"
  },
  {
    "url": "https://www.foodpantries.org/li/kountze_memorial_church_pantry_68131",
    "name": "Kountze Memorial Church Pantry",
    "address": "2650 Farnam Street",
    "city": "Omaha",
    "state": "NE",
    "zip": "68131",
    "phone": "(402) 341-7761",
    "fax": "(402) 341-4841",
    "email": null,
    "website": "http://www.freefood.org/",
    "hours": "Monday-Thursday 10:00am - 3:30pm Friday 10:00am - 2:00pm Together Inc is a Local and Independent Community Food Bank. We work with community based organizations to find solutions for their food needs.  As a USDA Food Bank in Nebraska, we receive Government Commodity food that we redis\nGo To Details Page For More Information",
    "description": null,
    "requirements": "Photo ID or Consulate Card, SSN, and proof of address required. \r\nOne pantry per 30 days. \r\n \r\nClothing Closet Available: same hours as the pantry. \r\n \r\nFor more information, please call.",
    "scraped_at": "2025-10-31T21:03:34.059398",
    "latitude": 41.257756,
    "longitude": -95.951293,
    "geocoded_address": "2650, Farnam Street, Omaha, Douglas County, Nebraska, 68131, United States of America"
  },
  {
    "url": "https://www.foodpantries.org/li/kountz-memorial-church",
    "name": "Kountz Memorial Church",
    "address": "2650 Farnam St",
    "city": "Omaha",
    "state": "NE",
    "zip": "68105",
    "phone": "(402) 341-1612",
    "fax": null,
    "email": null,
    "website": "http://www.freefood.org/",
    "hours": "Tuesday \r\n1:00pm - 4:00pm",
    "description": null,
    "requirements": "Photo ID or Consulate Card, SSN, and proof of address required. \r\nOne pantry per 30 days. \r\n \r\nClothing Closet Available: same hours as the pantry. \r\n \r\nFor more information, please call.",
    "scraped_at": "2025-10-31T21:03:36.385915",
    "latitude": 41.257756,
    "longitude": -95.951293,
    "geocoded_address": "2650, Farnam Street, Omaha, Douglas County, Nebraska, 68131, United States of America"
  },
  {
    "url": "https://www.foodpantries.org/li/a-hand-up-food-pantry",
    "name": "A Hand Up Food Pantry - First Presbyterina",
    "address": "216 South 34th Street",
    "city": "Omaha",
    "state": "NE",
    "zip": "68131",
    "phone": "(402) 345-5383",
    "fax": "(402) 345-5380",
    "email": null,
    "website": "http://www.freefood.org/",
    "hours": "Thursday\r\n3:30 pm - 5:15 pm\n\r\nFor more information, please call.\nCounty or Counties Served: Douglas",
    "description": null,
    "requirements": "Photo ID or Consulate Card, SSN, and proof of address required. \r\nOne pantry per 30 days. \r\n \r\nClothing Closet Available: same hours as the pantry. \r\n \r\nFor more information, please call.",
    "scraped_at": "2025-10-31T21:03:38.378198",
    "latitude": 41.2580698,
    "longitude": -95.9631964,
    "geocoded_address": "First Presbyterian Church of Omaha, 216, South 34th Street, Omaha, Douglas County, Nebraska, 68131, United States of America"
  },
  {
    "url": "https://www.foodpantries.org/li/ne_blair_washington-county-food-pantry",
    "name": "Washington County Food Pantry at Joseph's Coat",
    "address": "1737 Washington Street",
    "city": "Blair",
    "state": "NE",
    "zip": "68008",
    "phone": "(402) 426-0440",
    "fax": null,
    "email": null,
    "website": "http://www.freefood.org/",
    "hours": "Monday, Tuesday, Thursday, Friday 10:00am  12:30pm and 1:30pm  3:00pmSaturday 9:00am  12:00pmThrift Store Hours:Monday, Tuesday, Thursday, Friday 10:00am  5:00pmSaturday 9:00am  1:00pmRequirements:Current bill showing your current addressCurrent IDBirth-dates and social security numbers of all members living in your household. Notes:Clients are limited to the food pantry one time per month.One person or family per address.",
    "description": null,
    "requirements": "Current bill showing your current addressCurrent IDBirth-dates and social security numbers of all members living in your household. Notes:Clients are limited to the food pantry one time per month.One person or family per address.\nMission Statement\r\n               The mission of Joseph's Coat, Inc. is to share the love of Jesus Christ by providing food to families in need across Washington County.\r\n            \nCounty or Counties Served: Washington",
    "scraped_at": "2025-10-31T21:03:40.709356",
    "latitude": 41.5436617,
    "longitude": -96.1384495,
    "geocoded_address": "1737, Washington Street, Country Estates Mobile Home Park, Blair, Washington County, Nebraska, 68008, United States of America"
  },
  {
    "url": "https://www.foodpantries.org/li/harrison_county_food_pantry_missouri_valley",
    "name": "Harrison County Food Pantry Missouri Valley",
    "address": "2102 Liberty Ave",
    "city": "Missouri Valley",
    "state": "IA",
    "zip": "51555",
    "phone": "(712) 642-2598",
    "fax": null,
    "email": null,
    "website": "http://www.freefood.org/",
    "hours": "Monday, Tuesday, Thursday, Friday 10:00am 12:30pm and 1:30pm 3:00pm Saturday 9:00am 12:00pm  Thrift Store Hours:  Monday, Tuesday, Thursday, Friday 10:00am 5:00pm Saturday 9:00am 1:00pm  Requirements:  Current bill showing your current address Current ID Birth-dates and social \nGo To Details Page For More Information",
    "description": null,
    "requirements": "Current bill showing your current address Current ID Birth-dates and social \nGo To Details Page For More Information",
    "scraped_at": "2025-10-31T21:03:42.862704",
    "latitude": 41.5692085,
    "longitude": -95.8931519,
    "geocoded_address": "2102, Liberty Avenue, Missouri Valley, Harrison County, Iowa, 51555, United States of America"
  },
  {
    "url": "https://www.foodpantries.org/li/ne_68112_notre-dame-housing",
    "name": "Notre Dame Housing Food Pantry",
    "address": "3439 State Street",
    "city": "Omaha",
    "state": "NE",
    "zip": "68112",
    "phone": "(402) 451-4477",
    "fax": null,
    "email": null,
    "website": "http://www.freefood.org/",
    "hours": "Every Friday from 12:00pm-2:00pm (Food from Saving Grace).\r\nThird Wednesday of each month from 10:00AM - 2:00PM. (Food from Food Bank of the Heartland).\nVolunteering Information:Email our life enrichment coordinator at cpoulin@ndhinc.org \nCounty or Counties Served: Douglas",
    "description": null,
    "requirements": null,
    "scraped_at": "2025-10-31T21:03:45.254860",
    "latitude": 41.3350107,
    "longitude": -95.9675871,
    "geocoded_address": "3439, State Street, Florence, Omaha, Douglas County, Nebraska, 68112, United States of America"
  },
  {
    "url": "https://www.foodpantries.org/li/living-hope-food-pantry",
    "name": "Living Hope UMC -  Pearl Food Pantry",
    "address": "2919 State Street",
    "city": "Omaha",
    "state": "NE",
    "zip": "68112",
    "phone": "(402) 614-7452",
    "fax": null,
    "email": null,
    "website": "http://www.freefood.org/",
    "hours": "Monday - Friday 10:00am - 4:00pm Unless it is a major holiday and then we are closed. For more information, please call. \nCounty or Counties Served: Douglas",
    "description": null,
    "requirements": null,
    "scraped_at": "2025-10-31T21:03:48.702210",
    "latitude": 41.3363174,
    "longitude": -95.9593692,
    "geocoded_address": "2919, State Street, Florence, Omaha, Douglas County, Nebraska, 68112, United States of America"
  },
  {
    "url": "https://www.foodpantries.org/li/project-hope-inc",
    "name": "Project Hope Food Pantry",
    "address": "6201 N. 60th Street",
    "city": "Omaha",
    "state": "NE",
    "zip": "68104",
    "phone": "(402) 453-7649",
    "fax": null,
    "email": null,
    "website": "http://www.freefood.org/",
    "hours": "Mondays, Wednesdays and Fridays 11:00am - 2:45pm",
    "description": null,
    "requirements": null,
    "scraped_at": "2025-10-31T21:03:52.163331",
    "latitude": 41.31547,
    "longitude": -96.00451,
    "geocoded_address": "6201, North 60th Street, Omaha, Douglas County, Nebraska, 68104, United States of America"
  },
  {
    "url": "https://www.foodpantries.org/li/ne_68164_divine-mercy-center-and-pantry",
    "name": "Divine Mercy Center and Pantry",
    "address": "14330 Eagle Run Drive",
    "city": "Omaha",
    "state": "NE",
    "zip": "68164",
    "phone": "(402) 496-7988",
    "fax": null,
    "email": null,
    "website": "http://www.freefood.org/",
    "hours": "The 2nd and 4th Monday of each month 9:00 am - 12:00 pm5:30 pm - 7:30pmFor more information, please call. \nCounty or Counties Served: Douglas",
    "description": null,
    "requirements": null,
    "scraped_at": "2025-10-31T21:03:54.454114",
    "latitude": 41.2876298,
    "longitude": -96.1372754,
    "geocoded_address": "14330, Eagle Run Drive, Omaha, Douglas County, Nebraska, 68164, United States of America"
  },
  {
    "url": "https://www.foodpantries.org/li/ne_68111_trinity-lutheran-church-trinity-feeds-food-pantry",
    "name": "Trinity Lutheran Church - Trinity Feeds Food Pantry",
    "address": "6340 North 30th Street",
    "city": "Omaha",
    "state": "NE",
    "zip": "68111",
    "phone": "(402) 453-4080",
    "fax": null,
    "email": null,
    "website": "http://www.freefood.org/",
    "hours": "Third Saturday of each month from 11:00 AM to 1:00 PMNotes:NO ID is required.Shelf-stable food and hygiene items availableSome baby items available as well.\nVolunteering Information:Contact us at 402-453-4080 if you would like to volunteer. \nCounty or Counties Served: Douglas",
    "description": null,
    "requirements": null,
    "scraped_at": "2025-10-31T21:03:56.896808",
    "latitude": 41.3161974,
    "longitude": -95.9566602,
    "geocoded_address": "6340, North 30th Street, Omaha, Douglas County, Nebraska, 68111, United States of America"
  },
  {
    "url": "https://www.foodpantries.org/li/ne_68104_clair-cares-food-pantry",
    "name": "Clair Cares Food Pantry",
    "address": "5544 Ames Avenue",
    "city": "Omaha",
    "state": "NE",
    "zip": "68104",
    "phone": "(402) 451-8322",
    "fax": null,
    "email": null,
    "website": "http://www.cmumc.net",
    "hours": "The 3rd Saturday of the month10:00 am - 2:00 pmCome early as we may run out.For more information, please call.\u00a0 \nVolunteering Information:Please call the Church Office and ask to speak with Pastor P to volunteer. Help is needed carrying boxes to cars. \nCounty or Counties Served: Douglas",
    "description": null,
    "requirements": null,
    "scraped_at": "2025-10-31T21:03:59.203387",
    "latitude": 41.2994617,
    "longitude": -95.9990825,
    "geocoded_address": "5544, Ames Avenue, Omaha, Douglas County, Nebraska, 68104, United States of America"
  },
  {
    "url": "https://www.foodpantries.org/li/ne_68134_the-pantry-on-blondo",
    "name": "The Pantry on Blondo",
    "address": "9302 Blondo Street",
    "city": "Omaha",
    "state": "NE",
    "zip": "68134",
    "phone": "(402) 393-8612",
    "fax": null,
    "email": null,
    "website": "http://www.freefood.org/",
    "hours": "Monday10:00 am to 12:00pmFor more information, please call. \nCounty or Counties Served: Douglas",
    "description": null,
    "requirements": null,
    "scraped_at": "2025-10-31T21:04:01.509852",
    "latitude": 41.2778839,
    "longitude": -96.0579949,
    "geocoded_address": "9302, Blondo Street, Omaha, Douglas County, Nebraska, 68134, United States of America"
  },
  {
    "url": "https://www.foodpantries.org/li/ne_69337_extra-helpings-food-pantry-chadron",
    "name": "NCAP - Chadron Extra Helpings Food Pantry",
    "address": "127 W 2nd Street",
    "city": "Chadron",
    "state": "NE",
    "zip": "69337",
    "phone": "(308) 747-2200",
    "fax": null,
    "email": null,
    "website": "http://www.freefood.org/",
    "hours": "Wednesdays 10:30 am to 12:00 pm, 1:00 pm to 4:00 pm\r\nTuesdays 10:30 am to 12:00 pm, 1:00 pm to 4:00 pm",
    "description": null,
    "requirements": null,
    "scraped_at": "2025-10-31T21:04:03.523908",
    "latitude": 42.8309244,
    "longitude": -103.0005779,
    "geocoded_address": "127, West 2nd Street, Chadron, Precinct 01, Dawes County, Nebraska, 69337, United States of America"
  },
  {
    "url": "https://www.foodpantries.org/li/Platte_County_Food_Pantry",
    "name": "Platte County Food Pantry",
    "address": "3020 18th Street",
    "city": "Columbus",
    "state": "NE",
    "zip": "68601",
    "phone": "(402) 563-4544",
    "fax": null,
    "email": null,
    "website": "http://www.freefood.org/",
    "hours": null,
    "description": null,
    "requirements": null,
    "scraped_at": "2025-10-31T21:04:06.164285",
    "latitude": 41.4348875,
    "longitude": -97.365631,
    "geocoded_address": "Columbus Family Resource Center, 3020, 18th Street, Evan's Addition, Columbus, Platte County, Nebraska, 68602, United States of America"
  },
  {
    "url": "https://www.foodpantries.org/li/the-salvation-army-columbus-ne",
    "name": "The Salvation Army - Columbus, NE",
    "address": "1711 23rd St",
    "city": "Columbus",
    "state": "NE",
    "zip": "68601",
    "phone": null,
    "fax": null,
    "email": null,
    "website": "http://www.freefood.org/",
    "hours": null,
    "description": null,
    "requirements": null,
    "scraped_at": "2025-10-31T21:04:08.384969",
    "latitude": 41.4386431,
    "longitude": -97.3481872,
    "geocoded_address": "1711, 23rd Street, Carriage House Estates, Columbus, Platte County, Nebraska, 68601, United States of America"
  },
  {
    "url": "https://www.foodpantries.org/li/foodnet-denton_community_center_68339",
    "name": "Foodnet-Denton Community Center",
    "address": "7115 Lancaster Ave",
    "city": "Denton",
    "state": "NE",
    "zip": "68339",
    "phone": null,
    "fax": null,
    "email": null,
    "website": "http://www.freefood.org/",
    "hours": "Mondays at 5pm\r\n                                    \r\n                                                                        \n* Important: Please call the food pantries to confirm that the hours have not changed. We do our best to provide full information and details, but food pantries often change their hours without notifying us. We do not want you to waste your time visiting a pantry that is not open.",
    "description": null,
    "requirements": "Name and how many people live in your house.",
    "scraped_at": "2025-10-31T21:04:11.632977",
    "latitude": 40.7393026,
    "longitude": -96.8456735,
    "geocoded_address": "7115, Lancaster Avenue, Denton, Lancaster County, Nebraska, 68339, United States of America"
  },
  {
    "url": "https://www.foodpantries.org/li/denton_community_center_68339",
    "name": "Denton Community Center",
    "address": "7115 Lancaster Ave",
    "city": "Denton",
    "state": "NE",
    "zip": "68339",
    "phone": null,
    "fax": null,
    "email": null,
    "website": "http://www.freefood.org/",
    "hours": "Mondays at 5pm\r\n                                    \r\n                                                                        \n* Important: Please call the food pantries to confirm that the hours have not changed. We do our best to provide full information and details, but food pantries often change their hours without notifying us. We do not want you to waste your time visiting a pantry that is not open.",
    "description": null,
    "requirements": "Name and how many people live in your house.",
    "scraped_at": "2025-10-31T21:04:13.792077",
    "latitude": 40.7393026,
    "longitude": -96.8456735,
    "geocoded_address": "7115, Lancaster Avenue, Denton, Lancaster County, Nebraska, 68339, United States of America"
  },
  {
    "url": "https://www.foodpantries.org/li/foodnet-milford_fire_hall_68405",
    "name": "Foodnet-Milford Fire Hall",
    "address": "612 1st St",
    "city": "Milford",
    "state": "NE",
    "zip": "68405",
    "phone": "(402) 416-6197",
    "fax": null,
    "email": null,
    "website": "http://www.freefood.org/",
    "hours": "Friday5:30 pmFor more information, please call. \nCounty or Counties Served: Seward",
    "description": null,
    "requirements": null,
    "scraped_at": "2025-10-31T21:04:16.209880",
    "latitude": 40.7743189,
    "longitude": -97.0520154,
    "geocoded_address": "612, 1st Street, Milford, Seward County, Nebraska, 68405, United States of America"
  },
  {
    "url": "https://www.foodpantries.org/li/foodnet_lakeview_united_methodist_church_68528",
    "name": "Foodnet - Lakeview United Methodist Church",
    "address": "230 Capitol Beach Blvd",
    "city": "Lincoln",
    "state": "NE",
    "zip": "68528",
    "phone": null,
    "fax": null,
    "email": null,
    "website": "http://www.freefood.org/",
    "hours": "Thursday: 5pm\r\n                                    \r\n                                                                        \n* Important: Please call the food pantries to confirm that the hours have not changed. We do our best to provide full information and details, but food pantries often change their hours without notifying us. We do not want you to waste your time visiting a pantry that is not open.",
    "description": null,
    "requirements": "Name and how many people live in your house.   Food Pantry Hours:  Saturday 11:30am  For more information, please call.  \nGo To Details Page For More Information",
    "scraped_at": "2025-10-31T21:04:18.965429",
    "latitude": 40.815065,
    "longitude": -96.7392424,
    "geocoded_address": "Lakeview United Methodist Church, 230, Capitol Beach Boulevard, Marina Bay, Cormack, Lincoln, Lancaster County, Nebraska, 68528, United States of America"
  },
  {
    "url": "https://www.foodpantries.org/li/foodnet_zion_church_68502",
    "name": "Foodnet - Zion Church",
    "address": "110 West F Street",
    "city": "Lincoln",
    "state": "NE",
    "zip": "68502",
    "phone": null,
    "fax": null,
    "email": null,
    "website": "http://www.freefood.org/",
    "hours": "Saturday: 10:30am\r\n                                    \r\n                                                                        \n* Important: Please call the food pantries to confirm that the hours have not changed. We do our best to provide full information and details, but food pantries often change their hours without notifying us. We do not want you to waste your time visiting a pantry that is not open.",
    "description": null,
    "requirements": "Name and how many people live in your house.   Food Pantry Hours:  Saturday 11:30am  For more information, please call.  \nGo To Details Page For More Information",
    "scraped_at": "2025-10-31T21:04:21.642502",
    "latitude": 40.8048883,
    "longitude": -96.7205645,
    "geocoded_address": "110, West F Street, South Salt Creek, Lincoln, Lancaster County, Nebraska, 68508, United States of America"
  },
  {
    "url": "https://www.foodpantries.org/li/foodnet_calvary_united_methodist_church_68502",
    "name": "Foodnet - Calvary United Methodist Church",
    "address": "1610 S 11th St",
    "city": "Lincoln",
    "state": "NE",
    "zip": "68502",
    "phone": null,
    "fax": null,
    "email": null,
    "website": "http://www.freefood.org/",
    "hours": "Thursday: 6:30pm\r\n                                    \r\n                                                                        \n* Important: Please call the food pantries to confirm that the hours have not changed. We do our best to provide full information and details, but food pantries often change their hours without notifying us. We do not want you to waste your time visiting a pantry that is not open.",
    "description": null,
    "requirements": "Name and how many people live in your house.   Food Pantry Hours:  Saturday 11:30am  For more information, please call.  \nGo To Details Page For More Information",
    "scraped_at": "2025-10-31T21:04:23.863653",
    "latitude": 40.796673,
    "longitude": -96.705031,
    "geocoded_address": "New Visions Community United Methodist Church-Calvary Site, 1610, South 11th Street, Everett, Lincoln, Lancaster County, Nebraska, 68502, United States of America"
  },
  {
    "url": "https://www.foodpantries.org/li/lincoln_regional_food_cupboard_04457",
    "name": "Lincoln Regional Food Cupboard",
    "address": "32 Park Ave.",
    "city": "Lincoln",
    "state": "ME",
    "zip": "04457",
    "phone": "(207) 290-3400",
    "fax": null,
    "email": null,
    "website": "http://www.freefood.org/",
    "hours": "Every Wednesday 9:00 am - 11:00 am",
    "description": null,
    "requirements": "Name and how many people live in your house.",
    "scraped_at": "2025-10-31T21:04:26.949138",
    "latitude": 45.365411,
    "longitude": -68.5270224,
    "geocoded_address": "32, Park Avenue, Lincoln, Penobscot County, Maine, 04457, United States of America"
  },
  {
    "url": "https://www.foodpantries.org/li/ne_lincoln_southview-christian-church-food-pantry",
    "name": "Southview Christian Church Food Pantry",
    "address": "2040 S 22nd Street",
    "city": "Lincoln",
    "state": "NE",
    "zip": "68502",
    "phone": "(402) 475-6756",
    "fax": null,
    "email": null,
    "website": "http://www.freefood.org/",
    "hours": "Monday: 5:00 pm",
    "description": null,
    "requirements": "Name and how many people live in your house.",
    "scraped_at": "2025-10-31T21:04:32.377745",
    "latitude": 40.7919539,
    "longitude": -96.6892374,
    "geocoded_address": "Southview Christian Church, 2040, South 22nd Street, Near South, Lincoln, Lancaster County, Nebraska, 68502, United States of America"
  },
  {
    "url": "https://www.foodpantries.org/li/foodnet_lincoln_christian_fellowship_68524",
    "name": "Foodnet - Lincoln Christian Fellowship",
    "address": "4111 NW 44th Street",
    "city": "Lincoln",
    "state": "NE",
    "zip": "68524",
    "phone": "(402) 416-6197",
    "fax": null,
    "email": null,
    "website": "http://www.freefood.org/",
    "hours": "Monday12:00pmFor more information, please call.\nCounty or Counties Served: Lancaster",
    "description": null,
    "requirements": "Name and how many people live in your house.   Food Pantry Hours:  Saturday 11:30am  For more information, please call.  \nGo To Details Page For More Information",
    "scraped_at": "2025-10-31T21:04:36.163237",
    "latitude": 40.8663768,
    "longitude": -96.782137,
    "geocoded_address": "Northwest 44th Street, Lincoln Air Park, Lincoln, Lancaster County, Nebraska, 68524, United States of America"
  },
  {
    "url": "https://www.foodpantries.org/li/foodnet-capitol_view_seventh-day_adventist_church_68502",
    "name": "Foodnet-Capitol View Seventh-Day Adventist Church",
    "address": "1640 A St",
    "city": "Lincoln",
    "state": "NE",
    "zip": "68502",
    "phone": null,
    "fax": null,
    "email": null,
    "website": "http://www.freefood.org/",
    "hours": "Sundays at 2 pm.\r\n                                    \r\n                                                                        \n* Important: Please call the food pantries to confirm that the hours have not changed. We do our best to provide full information and details, but food pantries often change their hours without notifying us. We do not want you to waste your time visiting a pantry that is not open.",
    "description": null,
    "requirements": "Name and how many people live in your house.",
    "scraped_at": "2025-10-31T21:04:38.766943",
    "latitude": 40.7992638,
    "longitude": -96.697637,
    "geocoded_address": "1640, A Street, Near South, Lincoln, Lancaster County, Nebraska, 68502, United States of America"
  },
  {
    "url": "https://www.foodpantries.org/li/neighborhood_food_f_street_community_center_68508",
    "name": "F Street Community Center - Neighborhood FOOD",
    "address": "1225 F Street",
    "city": "Lincoln",
    "state": "NE",
    "zip": "68508",
    "phone": "(402) 441-7951",
    "fax": null,
    "email": null,
    "website": "http://www.freefood.org/",
    "hours": "Tuesday\r\n1:00pm - 2:00pm\n\r\nCall ahead to confirm and verify what information you should bring along.",
    "description": null,
    "requirements": "Name and how many people live in your house.   Food Pantry Hours:  Saturday 11:30am  For more information, please call.  \nGo To Details Page For More Information",
    "scraped_at": "2025-10-31T21:04:41.387532",
    "latitude": 40.8046653,
    "longitude": -96.7036754,
    "geocoded_address": "1225, F Street, Everett, Lincoln, Lancaster County, Nebraska, 68508, United States of America"
  },
  {
    "url": "https://www.foodpantries.org/li/first_presbyterian_church_mobile_food_pantry_68508",
    "name": "First Presbyterian Church Mobile Food Pantry",
    "address": "840 S. 17th St",
    "city": "Lincoln",
    "state": "NE",
    "zip": "68508",
    "phone": null,
    "fax": null,
    "email": null,
    "website": "http://www.freefood.org/",
    "hours": "1st and 3rd Saturday: 10-11:30am\r\n                                    \r\n                                                                        \n* Important: Please call the food pantries to confirm that the hours have not changed. We do our best to provide full information and details, but food pantries often change their hours without notifying us. We do not want you to waste your time visiting a pantry that is not open.",
    "description": null,
    "requirements": "Name and how many people live in your house.   Food Pantry Hours:  Saturday 11:30am  For more information, please call.  \nGo To Details Page For More Information",
    "scraped_at": "2025-10-31T21:04:43.817937",
    "latitude": 40.8051969,
    "longitude": -96.6962728,
    "geocoded_address": "First Presbyterian Church, 840, South 17th Street, Near South, Lincoln, Lancaster County, Nebraska, 68508, United States of America"
  },
  {
    "url": "https://www.foodpantries.org/li/ne_falls-city_senca-richardson-county-food-pantry",
    "name": "SENCA Richardson County Food Pantry",
    "address": "1700 Stone Street",
    "city": "Falls City",
    "state": "NE",
    "zip": "68355",
    "phone": "(402) 245-5284",
    "fax": null,
    "email": null,
    "website": "https://www.senca.org/",
    "hours": "Monday to Friday: 8:00 am to 4:30 pm\nCounty or Counties Served: Richardson",
    "description": null,
    "requirements": null,
    "scraped_at": "2025-10-31T21:04:47.140156",
    "latitude": 40.061834,
    "longitude": -95.60279,
    "geocoded_address": "1700, Stone Street, Falls City, Richardson County, Nebraska, 68355, United States of America"
  },
  {
    "url": "https://www.foodpantries.org/li/ks_66434_north-brown-co-food-pantry",
    "name": "North Brown County Food Pantry",
    "address": "210 Lodge Rd",
    "city": "Hiawatha",
    "state": "KS",
    "zip": "66434",
    "phone": "(785) 742-3423",
    "fax": null,
    "email": null,
    "website": "http://www.freefood.org/",
    "hours": "Tuesday\r\n 9:00am - 12:30pm\r\nThursday\r\n 6:00pm - 7:30pm\n\r\nFor more information, please call. \nCounty or Counties Served: Brown",
    "description": null,
    "requirements": null,
    "scraped_at": "2025-10-31T21:04:49.390075",
    "latitude": 39.841595,
    "longitude": -95.530062,
    "geocoded_address": "210, Lodge Road, Hiawatha, Brown County, Kansas, 66434, United States of America"
  },
  {
    "url": "https://www.foodpantries.org/li/rock-port-food-pantry",
    "name": "Rock Port Food Pantry",
    "address": "211 W. Opp St",
    "city": "Rock Port",
    "state": "MO",
    "zip": "64482",
    "phone": null,
    "fax": null,
    "email": null,
    "website": "http://www.freefood.org/",
    "hours": "Mon - Friday \r\n8:00am - 4:30pm \r\n \r\nAmount of Food Provided: 1-3 days \r\nVisits permitted: Four times a year, unless in an emergency. \r\nDocumentation Required: Proof of Residence, Social Security Number. \r\n \r\nFor more information, please call.",
    "description": null,
    "requirements": null,
    "scraped_at": "2025-10-31T21:04:51.831892",
    "latitude": 40.412605,
    "longitude": -95.5162049,
    "geocoded_address": "211, West Opp Street, Rock Port, Atchison County, Missouri, 64482, United States of America"
  },
  {
    "url": "https://www.foodpantries.org/li/ne-living-word-pantry",
    "name": "Living Word - Food Pantry",
    "address": "1110 N Lincoln Ave.",
    "city": "Fremont",
    "state": "NE",
    "zip": "68025",
    "phone": "(402) 721-2068",
    "fax": null,
    "email": null,
    "website": "http://www.freefood.org/",
    "hours": "3rd Thursday of the month\r\n4:00pm\n\r\nFor more information, please call.",
    "description": null,
    "requirements": "Need ID. \r\nThe Food Pantry can also be accessed outside normal pantry hours by bringing a voucher into the office during regular office hours. \r\n \r\nLifeHouse's Food Pantry provides access to the basic need of\nGo To Details Page For More Information",
    "scraped_at": "2025-10-31T21:04:54.468785",
    "latitude": 41.439694,
    "longitude": -96.477946,
    "geocoded_address": "1110, North Lincoln Avenue, Fremont, Dodge County, Nebraska, 68025, United States of America"
  },
  {
    "url": "https://www.foodpantries.org/li/ne_68025_lifehouse-food-pantry",
    "name": "Lifehouse Food Pantry",
    "address": "723 N Broad Street",
    "city": "Fremont",
    "state": "NE",
    "zip": "68025",
    "phone": "(402) 721-3125",
    "fax": "(402) 721-6246",
    "email": null,
    "website": "https://lifehousene.org",
    "hours": "Tuesday\r\n 10:00am - 2:00pm\r\nThursday \r\n5:00pm - 7:00pm",
    "description": null,
    "requirements": null,
    "scraped_at": "2025-10-31T21:04:57.026390",
    "latitude": 41.4361554,
    "longitude": -96.4986281,
    "geocoded_address": "723, North Broad Street, Fremont, Dodge County, Nebraska, 68025, United States of America"
  },
  {
    "url": "https://www.foodpantries.org/li/ne_68154_westside-church",
    "name": "Westside Church",
    "address": "15050 West Dodge Rd",
    "city": "Omaha",
    "state": "NE",
    "zip": "68154",
    "phone": "(402) 496-7833",
    "fax": "(402) 496-7430",
    "email": null,
    "website": "http://www.wchurch.tv",
    "hours": "The 2nd and 4th Monday of each month 9:00 am - 12:00 pm 5:30 pm - 7:30pm  For more information, please call.  \nGo To Details Page For More Information",
    "description": null,
    "requirements": null,
    "scraped_at": "2025-10-31T21:04:59.807156",
    "latitude": 41.2629758,
    "longitude": -96.1493123,
    "geocoded_address": "15050, West Dodge Road, Omaha, Douglas County, Nebraska, 68154, United States of America"
  },
  {
    "url": "https://www.foodpantries.org/li/hope-west",
    "name": "Hope West Food Pantry",
    "address": "2556 South 138th Street",
    "city": "Omaha",
    "state": "NE",
    "zip": "68144",
    "phone": "(402) 932-0084",
    "fax": null,
    "email": null,
    "website": "http://www.freefood.org/",
    "hours": "Tuesday \r\n12:00pm - 3:00pm\r\nLast Saturday of the month\r\n10:00am - 12:00pm\n\r\nFor more information, please call.",
    "description": null,
    "requirements": null,
    "scraped_at": "2025-10-31T21:05:02.169831",
    "latitude": 41.2347803,
    "longitude": -96.1282572,
    "geocoded_address": "Rejoice Lutheran Church, 2556, South 138th Street, Millard, Omaha, Douglas County, Nebraska, 68144, United States of America"
  },
  {
    "url": "https://www.foodpantries.org/li/ne-community-cupboard",
    "name": "Community Cupboard Church - Country Church Food Pantry",
    "address": "13130 Faith Plaza",
    "city": "Omaha",
    "state": "NE",
    "zip": "68114",
    "phone": "(402) 391-0350",
    "fax": null,
    "email": null,
    "website": "http://www.freefood.org/",
    "hours": null,
    "description": null,
    "requirements": null,
    "scraped_at": "2025-10-31T21:05:04.284912",
    "latitude": 41.2420043,
    "longitude": -96.11736,
    "geocoded_address": "Countryside Community Church, 13130, Faith Plaza, Millard, Omaha, Douglas County, Nebraska, 68144, United States of America"
  },
  {
    "url": "https://www.foodpantries.org/li/ne_69341_community-action-partnership-of-western-nebraska",
    "name": "Community Action Partnership of Western Nebraska",
    "address": "3350 10th Street",
    "city": "Gering",
    "state": "NE",
    "zip": "69341",
    "phone": "(308) 635-3089",
    "fax": "(308) 635-0264",
    "email": null,
    "website": "https://www.capwn.org",
    "hours": "Monday through Friday\r\nBy appointment \n\r\nFor more information, please call. \nVolunteering Information:Call 308-635-3089 and ask to speak to volunteer coordinator. \nCounty or Counties Served: Scotts Bluff",
    "description": null,
    "requirements": null,
    "scraped_at": "2025-10-31T21:05:07.001297",
    "latitude": 41.8438532,
    "longitude": -103.6604286,
    "geocoded_address": "3350, 10th Street, Gering, Scotts Bluff County, Nebraska, 69341, United States of America"
  },
  {
    "url": "https://www.foodpantries.org/li/gibbonshelton-community-center",
    "name": "Gibbon/Shelton Community Center",
    "address": "817 Front Street",
    "city": "Gibbon",
    "state": "NE",
    "zip": "68840",
    "phone": "(308) 468-5469",
    "fax": null,
    "email": null,
    "website": "http://www.freefood.org/",
    "hours": "Mon-Fri 8 am-12 noon\r\n                                    \r\n                                                                        \n* Important: Please call the food pantries to confirm that the hours have not changed. We do our best to provide full information and details, but food pantries often change their hours without notifying us. We do not want you to waste your time visiting a pantry that is not open.",
    "description": null,
    "requirements": null,
    "scraped_at": "2025-10-31T21:05:09.033247",
    "latitude": 40.7488754,
    "longitude": -98.8453336,
    "geocoded_address": "817, Front Street, Sun Valley Trailer Court, Gibbon, Buffalo County, Nebraska, 68840, United States of America"
  },
  {
    "url": "https://www.foodpantries.org/li/ne_68873_howard-greeley-county-food-pantry",
    "name": "Howard Greeley County Food Pantry",
    "address": "1104 4th Street",
    "city": "St. Paul",
    "state": "NE",
    "zip": "68873",
    "phone": "(308) 750-6439",
    "fax": null,
    "email": null,
    "website": "http://www.freefood.org/",
    "hours": "Tuesday\r\n4:00pm - 6:00pm\r\n Saturday\r\n9:00am - 11:00am\n\r\nFor more information, please call. \nVolunteering Information:Email the food pantry for volunteer opportunities \nCounty or Counties Served: Howard",
    "description": null,
    "requirements": "Picture ID, Dates of b\nGo To Details Page For More Information",
    "scraped_at": "2025-10-31T21:05:11.168129",
    "latitude": 41.2163972,
    "longitude": -98.4539789,
    "geocoded_address": "1104, 4th Street, Saint Paul, Howard County, Nebraska, 68873, United States of America"
  },
  {
    "url": "https://www.foodpantries.org/li/ne_69145_kimball-helping-hands-food-ministry",
    "name": "Kimball Helping Hands Food Ministry / Food Pantry",
    "address": "507 S. Oak St.",
    "city": "Kimball",
    "state": "NE",
    "zip": "69145",
    "phone": "(308) 235-2204",
    "fax": null,
    "email": null,
    "website": "http://www.freefood.org/",
    "hours": "Third Saturday every month 9:00 am to 11:00 am\r\n                                    Volunteering Information:Contact Betty Elliott:  308-235-2204",
    "description": null,
    "requirements": null,
    "scraped_at": "2025-10-31T21:05:13.751894",
    "latitude": 41.2328398,
    "longitude": -103.6601393,
    "geocoded_address": "507, South Oak Street, Kimball, Kimball County, Nebraska, 69145, United States of America"
  },
  {
    "url": "https://www.foodpantries.org/li/ne_68503_free-stuff-fridge-and-pantry",
    "name": "Free Stuff Fridge and Pantry 24/7",
    "address": "4611 Holdrege",
    "city": "Lincoln",
    "state": "NE",
    "zip": "68503",
    "phone": "(402) 570-6377",
    "fax": null,
    "email": null,
    "website": "http://www.freefood.org/",
    "hours": "Monday \r\n 1:00pm - 4:00pm; 5:00pm - 8:00pm \r\n Tuesday, Wednesday, Thursday, Friday \r\n1:00pm - 4:00pm \r\n Perishables: \r\n Friday \r\n 10:15 am and 11:15 am \r\n \r\nCall ahead to confirm and verify what information you should bring along.",
    "description": null,
    "requirements": null,
    "scraped_at": "2025-10-31T21:05:16.483695",
    "latitude": 40.8278255,
    "longitude": -96.6558088,
    "geocoded_address": "4611, Holdrege Street, East Campus, Lincoln, Lancaster County, Nebraska, 68503, United States of America"
  },
  {
    "url": "https://www.foodpantries.org/li/neighborhood_food_oak_lake_church_68521",
    "name": "Neighborhood FOOD - Oak Lake Church",
    "address": "3300 N 1st Street",
    "city": "Lincoln",
    "state": "NE",
    "zip": "68521",
    "phone": "(402) 474-3344",
    "fax": null,
    "email": null,
    "website": "http://www.oaklake.org",
    "hours": "Thursday 3:00pm - 4:00pmFor more information, please call. \nCounty or Counties Served: Lancaster",
    "description": null,
    "requirements": "Name and how many people live in your house.   Food Pantry Hours:  Saturday 11:30am  For more information, please call.  \nGo To Details Page For More Information",
    "scraped_at": "2025-10-31T21:05:18.894713",
    "latitude": 40.8458626,
    "longitude": -96.7194443,
    "geocoded_address": "Oak Lake Evangelical Free Church, 3300, North 1st Street, Northwest Territory, West Lincoln, Lincoln, Lancaster County, Nebraska, 68521, United States of America"
  },
  {
    "url": "https://www.foodpantries.org/li/salvation_army_ccc_68503",
    "name": "Salvation Army CCC",
    "address": "2625 Potter Street",
    "city": "Lincoln",
    "state": "NE",
    "zip": "68503",
    "phone": "(402) 474-6263",
    "fax": null,
    "email": null,
    "website": "http://www.freefood.org/",
    "hours": "Monday\r\n 1:00pm - 4:00pm; 5:00pm - 8:00pm\r\n Tuesday, Wednesday, Thursday, Friday\r\n1:00pm - 4:00pm\r\n Perishables:\r\n Friday\r\n 10:15 am and 11:15 am\n\r\nCall ahead to confirm and verify what information you should bring along.",
    "description": null,
    "requirements": "Name and how many people live in your house.   Food Pantry Hours:  Saturday 11:30am  For more information, please call.  \nGo To Details Page For More Information",
    "scraped_at": "2025-10-31T21:05:21.711613",
    "latitude": 40.8293459,
    "longitude": -96.6826744,
    "geocoded_address": "The Salvation Army of Lincoln, 2625, Potter Street, WJ Marshalls, Clinton, Lincoln, Lancaster County, Nebraska, 68503, United States of America"
  },
  {
    "url": "https://www.foodpantries.org/li/neighborhood_food_malone_community_center_68503",
    "name": "Neighborhood FOOD - Malone Community Center",
    "address": "2032 U Street",
    "city": "Lincoln",
    "state": "NE",
    "zip": "68503",
    "phone": "(402) 474-1110",
    "fax": null,
    "email": null,
    "website": "http://www.freefood.org/",
    "hours": "Thursday 1:00pm - 2:00pmFor more information, please call. \nCounty or Counties Served: Lancaster",
    "description": null,
    "requirements": "Name and how many people live in your house.   Food Pantry Hours:  Saturday 11:30am  For more information, please call.  \nGo To Details Page For More Information",
    "scraped_at": "2025-10-31T21:05:23.827274",
    "latitude": 40.8198377,
    "longitude": -96.6906309,
    "geocoded_address": "2032, U Street, Malone, Lincoln, Lancaster County, Nebraska, 68503, United States of America"
  },
  {
    "url": "https://www.foodpantries.org/li/foodnet-grace_chapel_pca_68506",
    "name": "Foodnet-Grace Chapel PCA",
    "address": "4000 Sheridan Blvd",
    "city": "Lincoln",
    "state": "NE",
    "zip": "68506",
    "phone": null,
    "fax": null,
    "email": null,
    "website": "http://www.freefood.org/",
    "hours": "Fridays at 12:15pm\r\n                                    \r\n                                                                        \n* Important: Please call the food pantries to confirm that the hours have not changed. We do our best to provide full information and details, but food pantries often change their hours without notifying us. We do not want you to waste your time visiting a pantry that is not open.",
    "description": null,
    "requirements": "Name and how many people live in your house.",
    "scraped_at": "2025-10-31T21:05:26.097833",
    "latitude": 40.778846,
    "longitude": -96.663193,
    "geocoded_address": "4000, Sheridan Boulevard, Sheridan Court, Calvert Place, Lincoln, Lancaster County, Nebraska, 68506, United States of America"
  },
  {
    "url": "https://www.foodpantries.org/li/foodnet_heartland_bible_church_68506",
    "name": "Foodnet - Heartland Bible Church",
    "address": "2611 S 56 St.",
    "city": "Lincoln",
    "state": "NE",
    "zip": "68506",
    "phone": null,
    "fax": null,
    "email": null,
    "website": "http://www.freefood.org/",
    "hours": "Thursdaysand Friday: 11am\r\n                                    \r\n                                                                        \n* Important: Please call the food pantries to confirm that the hours have not changed. We do our best to provide full information and details, but food pantries often change their hours without notifying us. We do not want you to waste your time visiting a pantry that is not open.",
    "description": null,
    "requirements": "Name and how many people live in your house.",
    "scraped_at": "2025-10-31T21:05:28.330570",
    "latitude": 40.8274206,
    "longitude": -96.6437821,
    "geocoded_address": "1430/1440 N 56 Street Condominium, Bethany, Lincoln, Lancaster County, Nebraska, United States of America"
  },
  {
    "url": "https://www.foodpantries.org/li/foodnet_one_80_68510",
    "name": "Foodnet - One 80",
    "address": "2820 O St",
    "city": "Lincoln",
    "state": "NE",
    "zip": "68510",
    "phone": null,
    "fax": null,
    "email": null,
    "website": "http://www.freefood.org/",
    "hours": "Thursday: 5pm\nGo To Details Page For More Information",
    "description": null,
    "requirements": "Name and how many people live in your house.   Food Pantry Hours:  Saturday 11:30am  For more information, please call.  \nGo To Details Page For More Information",
    "scraped_at": "2025-10-31T21:05:31.161993",
    "latitude": 40.8133417,
    "longitude": -96.6806389,
    "geocoded_address": "2820, O Street, East Lincoln, Lincoln, Lancaster County, Nebraska, 68510, United States of America"
  },
  {
    "url": "https://www.foodpantries.org/li/foodnet_pentecostal_church_68521",
    "name": "Foodnet - Pentecostal Church",
    "address": "2441 N 9th St",
    "city": "Lincoln",
    "state": "NE",
    "zip": "68521",
    "phone": null,
    "fax": null,
    "email": null,
    "website": "http://www.freefood.org/",
    "hours": "Tuesdays 5pm\r\n                                    \r\n                                                                        \n* Important: Please call the food pantries to confirm that the hours have not changed. We do our best to provide full information and details, but food pantries often change their hours without notifying us. We do not want you to waste your time visiting a pantry that is not open.",
    "description": null,
    "requirements": null,
    "scraped_at": "2025-10-31T21:05:33.492880",
    "latitude": 40.8381424,
    "longitude": -96.7091348,
    "geocoded_address": "2441, North 9th Street, Lincoln Heights, Belmont, Lincoln, Lancaster County, Nebraska, 68588, United States of America"
  },
  {
    "url": "https://www.foodpantries.org/li/foodnet_st_marys_catholic_church_68508",
    "name": "Foodnet - St Mary's Catholic Church",
    "address": "1420 K St",
    "city": "Lincoln",
    "state": "NE",
    "zip": "68508",
    "phone": "(402) 416-6197",
    "fax": null,
    "email": null,
    "website": "http://www.freefood.org/",
    "hours": "Saturday 11:30amFor more information, please call. \nCounty or Counties Served: Lancaster",
    "description": null,
    "requirements": "Name and how many people live in your house.Food Pantry Hours: Saturday 11:30amFor more information, please call. \nCounty or Counties Served: Lancaster",
    "scraped_at": "2025-10-31T21:05:39.751520",
    "latitude": 40.809275,
    "longitude": -96.700792,
    "geocoded_address": "1420, K Street, Capitol View, Lincoln, Lancaster County, Nebraska, 68508, United States of America"
  },
  {
    "url": "https://www.foodpantries.org/li/foodnet_grace_united_methodist_church_68503",
    "name": "Foodnet - Grace United Methodist Church",
    "address": "2640 R Street",
    "city": "Lincoln",
    "state": "NE",
    "zip": "68503",
    "phone": null,
    "fax": null,
    "email": null,
    "website": "http://www.freefood.org/",
    "hours": "Thursday: 5pm\r\n                                    \r\n                                                                        \n* Important: Please call the food pantries to confirm that the hours have not changed. We do our best to provide full information and details, but food pantries often change their hours without notifying us. We do not want you to waste your time visiting a pantry that is not open.",
    "description": null,
    "requirements": "Name and how many people live in your house.   Food Pantry Hours:  Saturday 11:30am  For more information, please call.  \nGo To Details Page For More Information",
    "scraped_at": "2025-10-31T21:05:42.076006",
    "latitude": 40.817159,
    "longitude": -96.6828949,
    "geocoded_address": "Sower Church, 2640, R Street, Malone, Lincoln, Lancaster County, Nebraska, 68503, United States of America"
  },
  {
    "url": "https://www.foodpantries.org/li/foodnet_christo_rey_catholic_church_68510",
    "name": "Foodnet - Christo Rey Catholic Church",
    "address": "4221 J St",
    "city": "Lincoln",
    "state": "NE",
    "zip": "68510",
    "phone": null,
    "fax": null,
    "email": null,
    "website": "http://www.freefood.org/",
    "hours": "Wednesdays 6pm\r\n                                    \r\n                                                                        \n* Important: Please call the food pantries to confirm that the hours have not changed. We do our best to provide full information and details, but food pantries often change their hours without notifying us. We do not want you to waste your time visiting a pantry that is not open.",
    "description": null,
    "requirements": "Name and how many people live in your house.",
    "scraped_at": "2025-10-31T21:05:44.503979",
    "latitude": 40.8076634,
    "longitude": -96.6601856,
    "geocoded_address": "Cristo Rey Catholic Church, 4221, J Street, Witherbee Addition, Witherbee, Lincoln, Lancaster County, Nebraska, 68510, United States of America"
  },
  {
    "url": "https://www.foodpantries.org/li/foodnet_church_of_christ_68521",
    "name": "Foodnet - Church of Christ",
    "address": "3110 N 1st St",
    "city": "Lincoln",
    "state": "NE",
    "zip": "68521",
    "phone": null,
    "fax": null,
    "email": null,
    "website": "http://www.freefood.org/",
    "hours": "Tuesdays 5pm\r\n                                    \r\n                                                                        \n* Important: Please call the food pantries to confirm that the hours have not changed. We do our best to provide full information and details, but food pantries often change their hours without notifying us. We do not want you to waste your time visiting a pantry that is not open.",
    "description": null,
    "requirements": "Name and how many people live in your house.   Food Pantry Hours:  Saturday 11:30am  For more information, please call.  \nGo To Details Page For More Information",
    "scraped_at": "2025-10-31T21:05:46.851087",
    "latitude": 40.8439018,
    "longitude": -96.7195631,
    "geocoded_address": "Northwest Church of Christ, 3110, North 1st Street, Northwest Territory, West Lincoln, Lincoln, Lancaster County, Nebraska, 68521, United States of America"
  },
  {
    "url": "https://www.foodpantries.org/li/foodnet_good_neighbor_community_center_68503",
    "name": "Good Neighbor Community Center",
    "address": "2617 Y Street",
    "city": "Lincoln",
    "state": "NE",
    "zip": "68503",
    "phone": "(402) 477-4173",
    "fax": null,
    "email": null,
    "website": "http://gncclincoln.org",
    "hours": "By appointment Monday through Thursday 10:00am - 2:00pmFriday10:00am - 12:00pmPerishables on Monday and Wednesday10:00am - 12:00pmFor more information, please call. \nCounty or Counties Served: Lancaster",
    "description": null,
    "requirements": "Name and how many people live in your house.   Food Pantry Hours:  Saturday 11:30am  For more information, please call.  \nGo To Details Page For More Information",
    "scraped_at": "2025-10-31T21:05:49.314235",
    "latitude": 40.8241631,
    "longitude": -96.6830871,
    "geocoded_address": "Bluestem Health, 2617, Y Street, Hawley, Lincoln, Lancaster County, Nebraska, 68503, United States of America"
  },
  {
    "url": "https://www.foodpantries.org/li/foodnet_68510",
    "name": "Foodnet",
    "address": "7921 Sandalwood Dr",
    "city": "Lincoln",
    "state": "NE",
    "zip": "68510",
    "phone": null,
    "fax": null,
    "email": null,
    "website": "http://www.freefood.org/",
    "hours": "Wednesdays from 4:00pm - 6:00 pm Sundays from 1:00pm - 3:00 pm.  Additional Information:  Appointments are necessary for in-person shopping, call and leave a message to schedule an appointment at 531-254-5405. Al",
    "description": null,
    "requirements": null,
    "scraped_at": "2025-10-31T21:05:51.240214",
    "latitude": 40.8064984,
    "longitude": -96.6120157,
    "geocoded_address": "7921, Sandalwood Drive, Wedgewood Manor First Addition, Lincoln, Lancaster County, Nebraska, 68510, United States of America"
  },
  {
    "url": "https://www.foodpantries.org/li/calvert_recreation_center_68506",
    "name": "Calvert Recreation Center",
    "address": "4500 Stockwell St",
    "city": "Lincoln",
    "state": "NE",
    "zip": "68506",
    "phone": "(402) 416-6197",
    "fax": null,
    "email": null,
    "website": "http://www.freefood.org/",
    "hours": "Monday11:00amFor more information, please call. \nCounty or Counties Served: Lancaster",
    "description": null,
    "requirements": "Name and how many people live in your house.",
    "scraped_at": "2025-10-31T21:05:53.429520",
    "latitude": 40.7750683,
    "longitude": -96.6583229,
    "geocoded_address": "Calvert Recreation Center, 4500, Stockwell Street, College View, Lincoln, Lancaster County, Nebraska, 68506, United States of America"
  },
  {
    "url": "https://www.foodpantries.org/li/catholic_social_services_68510",
    "name": "Catholic Social Services",
    "address": "2241 O St",
    "city": "Lincoln",
    "state": "NE",
    "zip": "68510",
    "phone": null,
    "fax": null,
    "email": null,
    "website": "http://www.freefood.org/",
    "hours": "Monday, Tuesday, Thursday, Friday: 9am to 12pm; Wednesdays 10am-12pm\r\n                                    \r\n                                                                        \n* Important: Please call the food pantries to confirm that the hours have not changed. We do our best to provide full information and details, but food pantries often change their hours without notifying us. We do not want you to waste your time visiting a pantry that is not open.",
    "description": null,
    "requirements": "Name and how many people live in your house.   Food Pantry Hours:  Saturday 11:30am  For more information, please call.  \nGo To Details Page For More Information",
    "scraped_at": "2025-10-31T21:05:55.520454",
    "latitude": 40.813453,
    "longitude": -96.6890844,
    "geocoded_address": "2241, O Street, Malone, Lincoln, Lancaster County, Nebraska, 68510, United States of America"
  },
  {
    "url": "https://www.foodpantries.org/li/center_for_people_in_need_68521",
    "name": "Center for People in Need",
    "address": "3901 N. 27th Street",
    "city": "Lincoln",
    "state": "NE",
    "zip": "68521",
    "phone": "(402) 476-4357",
    "fax": "(402) 476-4358",
    "email": null,
    "website": "http://www.freefood.org/",
    "hours": "Tuesday 5:00pm - 6:00pm (Neighborhood FOOD)Wednesday 2:30pm (Foodnet)For more information, please call.\nCounty or Counties Served: Lancaster",
    "description": null,
    "requirements": null,
    "scraped_at": "2025-10-31T21:05:58.002099",
    "latitude": 40.8504248,
    "longitude": -96.6846483,
    "geocoded_address": "3901, North 27th Street, Landon's, Lincoln, Lancaster County, Nebraska, 68521, United States of America"
  },
  {
    "url": "https://www.foodpantries.org/li/indian_center_inc_68508",
    "name": "Indian Center, Inc",
    "address": "1100 Military Rd",
    "city": "Lincoln",
    "state": "NE",
    "zip": "68508",
    "phone": null,
    "fax": null,
    "email": null,
    "website": "http://www.freefood.org/",
    "hours": "Monday, Wednesday, Friday: 1-3pm; Perishables: Tuesdays 1pm; Thursday: 10am\r\n                                    \r\n                                                                        \n* Important: Please call the food pantries to confirm that the hours have not changed. We do our best to provide full information and details, but food pantries often change their hours without notifying us. We do not want you to waste your time visiting a pantry that is not open.",
    "description": null,
    "requirements": "Name and how many people live in your house.   Food Pantry Hours:  Saturday 11:30am  For more information, please call.  \nGo To Details Page For More Information",
    "scraped_at": "2025-10-31T21:06:01.435172",
    "latitude": 40.8316928,
    "longitude": -96.7047909,
    "geocoded_address": "Indian Center Inc, 1100, Military Road, North Bottoms, Lincoln, Lancaster County, Nebraska, 68508, United States of America"
  },
  {
    "url": "https://www.foodpantries.org/li/foodnet-northwest_lincoln_church_of_christ_68521",
    "name": "Foodnet-Northwest Lincoln Church of Christ",
    "address": "3110 N 1st St",
    "city": "Lincoln",
    "state": "NE",
    "zip": "68521",
    "phone": null,
    "fax": null,
    "email": null,
    "website": "http://www.freefood.org/",
    "hours": "Tuesdays at 5pm\r\n                                    \r\n                                                                        \n* Important: Please call the food pantries to confirm that the hours have not changed. We do our best to provide full information and details, but food pantries often change their hours without notifying us. We do not want you to waste your time visiting a pantry that is not open.",
    "description": null,
    "requirements": "Name and how many people live in your house.   Food Pantry Hours:  Saturday 11:30am  For more information, please call.  \nGo To Details Page For More Information",
    "scraped_at": "2025-10-31T21:06:04.092968",
    "latitude": 40.8439018,
    "longitude": -96.7195631,
    "geocoded_address": "Northwest Church of Christ, 3110, North 1st Street, Northwest Territory, West Lincoln, Lincoln, Lancaster County, Nebraska, 68521, United States of America"
  },
  {
    "url": "https://www.foodpantries.org/li/ne_68510_eastridge-presbyterian-church-food-pantry",
    "name": "Eastridge Presbyterian Church Food Pantry",
    "address": "1135 Eastridge Dr",
    "city": "Lincoln",
    "state": "NE",
    "zip": "68510",
    "phone": "(531) 254-5405",
    "fax": null,
    "email": null,
    "website": "http://www.freefood.org/",
    "hours": "Wednesdays 6pm\nGo To Details Page For More Information",
    "description": null,
    "requirements": "Name and how many people live in your house.",
    "scraped_at": "2025-10-31T21:06:06.486944",
    "latitude": 40.8023238,
    "longitude": -96.6432444,
    "geocoded_address": "Eastridge Presbyterian Church, 1135, Eastridge Drive, Eastridge, Lincoln, Lancaster County, Nebraska, 68510, United States of America"
  },
  {
    "url": "https://www.foodpantries.org/li/ne_68434_christs-cupboard",
    "name": "Christ's Cupboard",
    "address": "919 N. Columbia Avenue",
    "city": "Seward",
    "state": "NE",
    "zip": "68434",
    "phone": "(402) 643-2983",
    "fax": "(402) 643-2985",
    "email": null,
    "website": "http://www.freefood.org/",
    "hours": "Monday 3:00pm - 5:00pm Thursday 6:00pm - 8:00pm Saturday 9:00am - 11:00amFor more information, please call. \nCounty or Counties Served: Seward",
    "description": null,
    "requirements": null,
    "scraped_at": "2025-10-31T21:06:08.826176",
    "latitude": 40.9154456,
    "longitude": -97.0920139,
    "geocoded_address": "919, North Columbia Avenue, Seward, Seward County, Nebraska, 68434, United States of America"
  },
  {
    "url": "https://www.foodpantries.org/li/seward-foodnet",
    "name": "Seward Foodnet",
    "address": "1400 North 5th Street",
    "city": "Seward",
    "state": "NE",
    "zip": "68434",
    "phone": "(402) 643-4156",
    "fax": "(402) 643-4159",
    "email": null,
    "website": "https://sewardumc.org",
    "hours": "Thursday \r\n5:30pm\n\r\nFor more information, please call.",
    "description": null,
    "requirements": null,
    "scraped_at": "2025-10-31T21:06:11.065532",
    "latitude": 40.920029,
    "longitude": -97.097706,
    "geocoded_address": "1400, North 5th Street, Seward, Seward County, Nebraska, 68434, United States of America"
  },
  {
    "url": "https://www.foodpantries.org/li/southeast-nebraska-community-action-senca",
    "name": "Southeast Nebraska Community Action (SENCA)",
    "address": "917 Wildwood Ln",
    "city": "Nebraska City",
    "state": "NE",
    "zip": "68410",
    "phone": "(402) 873-6459",
    "fax": null,
    "email": null,
    "website": "http://senca.org",
    "hours": "Mon - Friday \r\n8:00am - 4:30pm \r\n \r\nAmount of Food Provided: 1-3 days \r\nVisits permitted: Four times a year, unless in an emergency. \r\nDocumentation Required: Proof of Residence, Social Security Number. \r\n \r\nFor more information, please call.",
    "description": null,
    "requirements": null,
    "scraped_at": "2025-10-31T21:06:13.440579",
    "latitude": 40.669771,
    "longitude": -95.8839483,
    "geocoded_address": "917, Wildwood Lane, Nebraska City, Otoe County, Nebraska, 68410, United States of America"
  },
  {
    "url": "https://www.foodpantries.org/li/west_central_development_corporation_food_pantry",
    "name": "West Central Development Corporation Food Pantry",
    "address": "910 Illinois Street",
    "city": "Sidney",
    "state": "IA",
    "zip": "51652",
    "phone": "(712) 374-3367",
    "fax": null,
    "email": null,
    "website": "http://www.freefood.org/",
    "hours": "Mon - Friday\r\n8:00am - 4:30pm\n\r\nAmount of Food Provided: 1-3 days\r\nVisits permitted: Four times a year, unless in an emergency.\r\nDocumentation Required: Proof of Residence, Social Security Number.\n\r\nFor more information, please call. \nCounty or Counties Served: Fremont",
    "description": null,
    "requirements": null,
    "scraped_at": "2025-10-31T21:06:15.650093",
    "latitude": 40.7489221,
    "longitude": -95.6474151,
    "geocoded_address": "910, Illinois Street, Sidney, Fremont County, Iowa, 51652, United States of America"
  },
  {
    "url": "https://www.foodpantries.org/li/syracuse-area-churches-food-pantry-inc",
    "name": "Syracuse Area Churches Food Pantry, Inc. - Luther Memorial Church",
    "address": "303 Railroad Ave",
    "city": "Syracuse",
    "state": "NE",
    "zip": "68446",
    "phone": "(402) 269-2360",
    "fax": "(402) 269-3261",
    "email": null,
    "website": "http://www.freefood.org/",
    "hours": "Monday and Thursday9:00am to 2:00pm  Must be a resident of Syracuse, Dunbar, Avoca, Otoe, Unadilla, Talmage, Burr, or Lorton and have a drivers license / ID showing address. Provide up to two weeks worth of food.For more information, please call. \nCounty or Counties Served: Otoe",
    "description": null,
    "requirements": null,
    "scraped_at": "2025-10-31T21:06:17.897960",
    "latitude": 40.656687,
    "longitude": -96.1862549,
    "geocoded_address": "Railroad Avenue, Syracuse, Otoe County, Nebraska, 68446, United States of America"
  },
  {
    "url": "https://www.foodpantries.org/li/senca-plattsmouth-food-pantry",
    "name": "SENCA Plattsmouth Food Pantry",
    "address": "1215 South 15th Street",
    "city": "Plattsmouth",
    "state": "NE",
    "zip": "68048",
    "phone": "(402) 297-7418",
    "fax": null,
    "email": null,
    "website": "http://www.senca.org",
    "hours": "Monday - Friday12:00pm to 1:00pm Participating Community Action Outreach Offices/Senior Centers. Enjoy a nutritious \"made from scratch\" noon meal for less than $5. Suggested contributions may vary by location. For more information, please call. \nCounty or Counties Served: Cass",
    "description": null,
    "requirements": "Must be at least 18 years of age Register in person for the first\nGo To Details Page For More Information",
    "scraped_at": "2025-10-31T21:06:21.029948",
    "latitude": 41.0093339,
    "longitude": -95.8971356,
    "geocoded_address": "South 15th Street, Plattsmouth, Cass County, Nebraska, 68048, United States of America"
  },
  {
    "url": "https://www.foodpantries.org/li/the-salvation-army-norfolk-ne",
    "name": "The Salvation Army - Norfolk, NE",
    "address": "610 W Norfolk Ave",
    "city": "Norfolk",
    "state": "NE",
    "zip": "68701",
    "phone": "(402) 379-4663",
    "fax": null,
    "email": null,
    "website": "http://www.freefood.org/",
    "hours": "Monday 9:00am - 12:00pm; 1:00pm - 4:00pm Wednesday 9:00am - 12:00pm; 1:00pm - 4:00pm Friday 9:00am - 12:00pm Requirements:Please bring a picture ID, proof of address and proof of all in the household.For more information, please call. \nCounty or Counties Served: Madison",
    "description": null,
    "requirements": "Please bring a picture ID, proof of address and proof of all in the household.For more information, please call. \nCounty or Counties Served: Madison",
    "scraped_at": "2025-10-31T21:06:23.345092",
    "latitude": 42.0327671,
    "longitude": -97.415485,
    "geocoded_address": "610, West Norfolk Avenue, Mackels Mobile Home Court, Norfolk, Madison County, Nebraska, 68701, United States of America"
  },
  {
    "url": "https://www.foodpantries.org/li/goldenrod-hills-community",
    "name": "Northeast Nebraska Community Action Partnership",
    "address": "1405 Riverside Blvd",
    "city": "Norfolk",
    "state": "NE",
    "zip": "68701",
    "phone": "(402) 371-0377",
    "fax": null,
    "email": null,
    "website": "https://www.nencap.org",
    "hours": "Monday 9:00am - 12:00pm; 1:00pm - 4:00pm Wednesday 9:00am - 12:00pm; 1:00pm - 4:00pm Friday 9:00am - 12:00pm  Requirements: Please bring a picture ID, proof of address and proof of all in the household. For more information, please call. \nGo To Details Page For More Information",
    "description": null,
    "requirements": "Please bring a picture ID, proof of address and proof of all in the household. For more information, please call. \nGo To Details Page For More Information",
    "scraped_at": "2025-10-31T21:06:25.633209",
    "latitude": 42.0479584,
    "longitude": -97.4175038,
    "geocoded_address": "1405, Riverside Boulevard, Norfolk, Madison County, Nebraska, 68701, United States of America"
  },
  {
    "url": "https://www.foodpantries.org/li/ne_68771_randolph-community-food-pantry",
    "name": "Randolph Community Food Pantry at St. John's Lutheran Church",
    "address": "310 W. Broadway",
    "city": "Randolph",
    "state": "NE",
    "zip": "68771",
    "phone": "(402) 672-2217",
    "fax": null,
    "email": null,
    "website": "http://www.freefood.org/",
    "hours": "2nd and 4th Mondays from 5:00pm to 7:00pm except on Holiday of Christmas and New Years.Open by appointments outside these hours by calling Mary Ann 402-672-2217.\nVolunteering Information:Call Mary Ann 402-672-2217 \nCounty or Counties Served: Cedar",
    "description": null,
    "requirements": "Please bring a picture ID, proof of address and proof of all in the household. For more information, please call. \nGo To Details Page For More Information",
    "scraped_at": "2025-10-31T21:06:28.023922",
    "latitude": 42.3788152,
    "longitude": -97.3600184,
    "geocoded_address": "310, West Broadway Street, Randolph, Cedar County, Nebraska, 68771, United States of America"
  },
  {
    "url": "https://www.foodpantries.org/li/the-salvaton-army",
    "name": "The Salvation Army North Platte",
    "address": "1020 North Adams Ave.",
    "city": "North Platte",
    "state": "NE",
    "zip": "69101",
    "phone": "(308) 532-2038",
    "fax": "(308) 532-1931",
    "email": null,
    "website": "http://www.freefood.org/",
    "hours": "Monday - Thursday9:00am - 4:00pm Application needs filled out with: picture ID, social security cards for EVERYONE in the household, proof of employment for EVERYONE in the household, rent receipt, electric AND gas bill dated last 30 days.  Pantry may be used once every 90 days.For more information, please call. \nCounty or Counties Served: Lincoln",
    "description": null,
    "requirements": null,
    "scraped_at": "2025-10-31T21:06:31.082794",
    "latitude": 41.1464564,
    "longitude": -100.775814,
    "geocoded_address": "1020, North Adams Avenue, Mobile Manor, North Platte, Lincoln County, Nebraska, 69101, United States of America"
  },
  {
    "url": "https://www.foodpantries.org/li/ne_sutherland_sutherland-food-pantry",
    "name": "The Hershey & Sutherland Food Pantry at USPS",
    "address": "110 Walnut St",
    "city": "Sutherland",
    "state": "NE",
    "zip": "69165",
    "phone": "(308) 386-4832",
    "fax": null,
    "email": null,
    "website": "http://www.freefood.org/",
    "hours": "Every 1st & 3rd Tuesday from 4:00pm to 5:30pm.\nCounty or Counties Served: Lincoln",
    "description": null,
    "requirements": null,
    "scraped_at": "2025-10-31T21:06:33.741829",
    "latitude": 41.1572813,
    "longitude": -101.1263254,
    "geocoded_address": "110, Walnut Street, Sutherland, Lincoln County, Nebraska, 69165, United States of America"
  },
  {
    "url": "https://www.foodpantries.org/li/eastern_nebraska_community_action_partnership_nutrition_center",
    "name": "Eastern Nebraska Community Action Partnership  - Nutrition Center",
    "address": "2406 Fowler Ave.",
    "city": "Omaha",
    "state": "NE",
    "zip": "68111",
    "phone": "(402) 453-5656",
    "fax": null,
    "email": null,
    "website": "http://www.freefood.org/",
    "hours": "Drive Thru food pantry is open the 2nd and 4th Saturday of each month from 10:00am to 12:00pm Also take walk ins during the week Monday through Friday from 10:00am to 2:00pm   \nGo To Details Page For More Information",
    "description": null,
    "requirements": null,
    "scraped_at": "2025-10-31T21:06:36.288417",
    "latitude": 41.3011344,
    "longitude": -95.947157,
    "geocoded_address": "2406, Fowler Avenue, Omaha, Douglas County, Nebraska, 68111, United States of America"
  },
  {
    "url": "https://www.foodpantries.org/li/chabad-house-pantry",
    "name": "Chabad House Pantry",
    "address": "1866 Sth 120th Street",
    "city": "Omaha",
    "state": "NE",
    "zip": "68144",
    "phone": "(402) 957-2705",
    "fax": "(402) 333-8415",
    "email": null,
    "website": "http://www.ochabad.com",
    "hours": "Monday - Wednesday9:00 am - 5:00 pm For more information, please call. \nCounty or Counties Served: Douglas",
    "description": null,
    "requirements": null,
    "scraped_at": "2025-10-31T21:06:38.631005",
    "latitude": 41.2405497,
    "longitude": -96.1008008,
    "geocoded_address": "1866, South 120th Street, Millard, Omaha, Douglas County, Nebraska, 68144, United States of America"
  },
  {
    "url": "https://www.foodpantries.org/li/the_salvation_army_material_assistance_department_68131",
    "name": "The Salvation Army - Material Assistance Department",
    "address": "6101 NW Radial Highway",
    "city": "Omaha",
    "state": "NE",
    "zip": "68104",
    "phone": "(402) 898-6090",
    "fax": null,
    "email": null,
    "website": "http://www.freefood.org/",
    "hours": "The last Saturday of each month 9:00 am - 12:00 pm \r\nDonations Hours: \r\nMonday - Thursday \r\n9:00 am - 1:00 pm \r\nNovember and December open a week early due to holidays. \r\nFor more information, please call.",
    "description": null,
    "requirements": "Vary with service requested. Proof of ID is required. A picture ID, social security card or birth certificate for everyone in household and proof of residence within the last 30 days is required. There may be income guidelines for specific programs.Food Pantry Hours of OperationMonday, Tuesday, Thursday and Friday 9:00am to 11:00am and 1:00pm to 3:30pm For more information, please call. \nCounty or Counties Served: Douglas",
    "scraped_at": "2025-10-31T21:06:40.746500",
    "latitude": 41.2865678,
    "longitude": -96.0080949,
    "geocoded_address": "6101, Northwest Radial Highway, Benson, Omaha, Douglas County, Nebraska, 68104, United States of America"
  },
  {
    "url": "https://www.foodpantries.org/li/timberlake-outreach-center",
    "name": "Timberlake Outreach Center - Open Door Mission",
    "address": "2828 North 23rd Street East",
    "city": "Omaha",
    "state": "NE",
    "zip": "68111",
    "phone": "(402) 422-1111",
    "fax": "(402) 422-0737",
    "email": null,
    "website": "http://www.freefood.org/",
    "hours": "Tuesday to Saturday 10:00 AM 4:00 PM depending on your last name Tuesdays: last names begin with A-F Wednesdays: last names begin with G-K Thursdays: last names begin with L-P Fridays: last names begin with Q-U Saturdays: last names begin with V-Z Seniors ages 55+ Tue\nGo To Details Page For More Information",
    "description": null,
    "requirements": null,
    "scraped_at": "2025-10-31T21:06:43.132336",
    "latitude": 41.2842543,
    "longitude": -95.9013136,
    "geocoded_address": "2828, North 23rd Street East, East Omaha, Omaha, Douglas County, Nebraska, 68110, United States of America"
  },
  {
    "url": "https://www.foodpantries.org/li/society-of-st-vincent-de-paul-food-pantry",
    "name": "Society of St. Vincent de Paul Food Pantry",
    "address": "2101 Leavenworth Street",
    "city": "Omaha",
    "state": "NE",
    "zip": "68102",
    "phone": "(402) 346-5445",
    "fax": null,
    "email": null,
    "website": "http://www.freefood.org/",
    "hours": "Tuesday and Thursday\r\n9:00am - 12:30pm",
    "description": null,
    "requirements": "1.  Photo Identification\r\n2.  Proof of mailing address\n\r\nThe pantry is located in the same building as the downtown St. Vincent de Paul Store. \r\nFor more information, please call.",
    "scraped_at": "2025-10-31T21:06:45.402940",
    "latitude": 41.25229,
    "longitude": -95.943641,
    "geocoded_address": "2101, Leavenworth Street, Omaha, Douglas County, Nebraska, 68102, United States of America"
  },
  {
    "url": "https://www.foodpantries.org/li/ne_68104_benson-baptist-food-pantry",
    "name": "Benson Baptist Food Pantry",
    "address": "6319 Maple Street",
    "city": "Omaha",
    "state": "NE",
    "zip": "68104",
    "phone": "(402) 551-1512",
    "fax": null,
    "email": null,
    "website": "http://www.omahabbc.com",
    "hours": "The last Saturday of each month 9:00 am - 12:00 pm\r\nDonations Hours:\r\nMonday - Thursday\r\n9:00 am - 1:00 pm\r\nNovember and December open a week early due to holidays. \r\nFor more information, please call.",
    "description": null,
    "requirements": "Photo ID or Consulate Card, SSN, and proof of address required. \r\nOne pantry per 30 days. \r\n \r\nClothing Closet Available: same hours as the pantry. \r\n \r\nFor more information, please call.",
    "scraped_at": "2025-10-31T21:06:47.725547",
    "latitude": 41.2847345,
    "longitude": -96.0104408,
    "geocoded_address": "Benson Baptist Church, 6319, Maple Street, Benson, Omaha, Douglas County, Nebraska, 68104, United States of America"
  },
  {
    "url": "https://www.foodpantries.org/li/food-bank-for-the-heartland",
    "name": "Food Bank for the Heartland",
    "address": "10525 J Street",
    "city": "Omaha",
    "state": "NE",
    "zip": "68127",
    "phone": "(402) 331-1213",
    "fax": null,
    "email": null,
    "website": "http://www.freefood.org/",
    "hours": "8:00am - 4:30pmHablamos Espaol. For more information, please call.\nVolunteering Information:https://donate.foodbankheartland.org/default.aspx?tsid=9195 \nCounty or Counties Served: Douglas",
    "description": null,
    "requirements": null,
    "scraped_at": "2025-10-31T21:06:50.191549",
    "latitude": 41.2141337,
    "longitude": -96.0770588,
    "geocoded_address": "10525, J Street, Millard, Omaha, Douglas County, Nebraska, 68127, United States of America"
  },
  {
    "url": "https://www.foodpantries.org/li/heart-ministry-center",
    "name": "Heart Ministry Center - Choice Food Pantry",
    "address": "2222 Binney Street",
    "city": "Omaha",
    "state": "NE",
    "zip": "68110",
    "phone": "(402) 451-2321",
    "fax": "(402) 502-3568",
    "email": null,
    "website": "http://www.freefood.org/",
    "hours": "Tuesday (Senior 55+)\r\n10:00am - 1:00pm\r\nWednesday\r\n10:00am - 1:00pm\r\nThursday\r\n10:00am - 1:00pm\r\nFriday\r\n11:00am - 2:00pm\r\nSaturday\r\n9:00am - 12:00pm\n\r\nFor more information, please call.",
    "description": null,
    "requirements": "Photo ID or Consulate Card, SSN, and proof of address required. \r\nOne pantry per 30 days. \r\n \r\nClothing Closet Available: same hours as the pantry. \r\n \r\nFor more information, please call.",
    "scraped_at": "2025-10-31T21:06:52.539934",
    "latitude": 41.2861242,
    "longitude": -95.9457102,
    "geocoded_address": "2222, Binney Street, Omaha, Douglas County, Nebraska, 68110, United States of America"
  },
  {
    "url": "https://www.foodpantries.org/li/st-martin-de-porres-catholic-charities",
    "name": "St. Martin de Porres (Catholic Charities)",
    "address": "2111 Emmet Street",
    "city": "Omaha",
    "state": "NE",
    "zip": "68110",
    "phone": "(402) 453-6363",
    "fax": null,
    "email": null,
    "website": "http://ccomaha.org",
    "hours": "Monday and Friday 9:00am to 1:00pmTuesday2:00pm - 4:00pm You will need to bring social security cards for yourself and all household members. You will need a piece of mail postmarked within the last 30 days in your name (P.O boxes are not accepted as an address), and your photo ID. You can apply for a pantry once every thirty days. You are expected to bring all required documentation with you on EVERY visit. For more information, please call. Alternate number 402-453-6363.",
    "description": null,
    "requirements": null,
    "scraped_at": "2025-10-31T21:06:54.674653",
    "latitude": 41.2893598,
    "longitude": -95.9443032,
    "geocoded_address": "2111, Emmet Street, Omaha, Douglas County, Nebraska, 68110, United States of America"
  },
  {
    "url": "https://www.foodpantries.org/li/black-men-united-drive-thru-food-pantry",
    "name": "Black Men United Drive-Thru-Food Pantry",
    "address": "4200 N 30th St",
    "city": "Omaha",
    "state": "NE",
    "zip": "68111",
    "phone": "(402) 885-9881",
    "fax": null,
    "email": null,
    "website": "http://www.freefood.org/",
    "hours": "Drive Thru food pantry is open the 2nd and 4th Saturday of each month from 10:00am to 12:00pmAlso take walk ins during the week Monday through Friday from 10:00am to 2:00pm\nCounty or Counties Served: Douglas",
    "description": null,
    "requirements": null,
    "scraped_at": "2025-10-31T21:06:57.376649",
    "latitude": 41.2970308,
    "longitude": -95.957132,
    "geocoded_address": "4200, North 30th Street, Omaha, Douglas County, Nebraska, 68111, United States of America"
  },
  {
    "url": "https://www.foodpantries.org/li/ne_68104_st-pius-x",
    "name": "St. Pius X Catholic Church - Food Pantry",
    "address": "6905 Blondo Street",
    "city": "Omaha",
    "state": "NE",
    "zip": "68104",
    "phone": "(402) 558-8446",
    "fax": null,
    "email": null,
    "website": "http://www.freefood.org/",
    "hours": "The last Saturday of each month 9:00 am - 12:00 pm \r\nDonations Hours: \r\nMonday - Thursday \r\n9:00 am - 1:00 pm \r\nNovember and December open a week early due to holidays. \r\nFor more information, please call.",
    "description": null,
    "requirements": "Photo ID or Consulate Card, SSN, and proof of address required. \r\nOne pantry per 30 days. \r\n \r\nClothing Closet Available: same hours as the pantry. \r\n \r\nFor more information, please call.",
    "scraped_at": "2025-10-31T21:06:59.806190",
    "latitude": 41.2777011,
    "longitude": -96.0204739,
    "geocoded_address": "6905, Blondo Street, Benson, Omaha, Douglas County, Nebraska, 68104, United States of America"
  },
  {
    "url": "https://www.foodpantries.org/li/ne_omaha_timberlake-outreach-center-open-door-mission",
    "name": "Timberlake Outreach Center - Open Door Mission",
    "address": "2107 E Locust Street",
    "city": "Omaha",
    "state": "NE",
    "zip": "68110",
    "phone": "(402) 422-1111",
    "fax": null,
    "email": null,
    "website": "http://www.freefood.org/",
    "hours": "Tuesday to Saturday 10:00 AM  4:00 PM depending on your last nameTuesdays: last names begin with A-FWednesdays: last names begin with G-KThursdays: last names begin with L-PFridays: last names begin with Q-USaturdays: last names begin with V-ZSeniors ages 55+ Tuesday-Saturday from 9:00AM  10:00 AM Eligibility:Garden Grove only  \nVolunteering Information:https://www.opendoormission.org/volunteer/ \nCounty or Counties Served: Douglas",
    "description": null,
    "requirements": null,
    "scraped_at": "2025-10-31T21:07:02.194254",
    "latitude": 41.2848461,
    "longitude": -95.9034174,
    "geocoded_address": "2107, East Locust Street, East Omaha, Omaha, Douglas County, Nebraska, 68110, United States of America"
  },
  {
    "url": "https://www.foodpantries.org/li/ne_68111_salem-food-pantry",
    "name": "Salem Food Pantry",
    "address": "3120 Lake Street",
    "city": "Omaha",
    "state": "NE",
    "zip": "68111",
    "phone": "(402) 505-9973",
    "fax": null,
    "email": null,
    "website": "http://www.freefood.org/",
    "hours": null,
    "description": null,
    "requirements": "Photo ID or Consulate Card, SSN, and proof of address required. \r\nOne pantry per 30 days. \r\n \r\nClothing Closet Available: same hours as the pantry. \r\n \r\nFor more information, please call.",
    "scraped_at": "2025-10-31T21:07:04.481604",
    "latitude": 41.2818025,
    "longitude": -95.9585615,
    "geocoded_address": "3120, Lake Street, Omaha, Douglas County, Nebraska, 68111, United States of America"
  },
  {
    "url": "https://www.foodpantries.org/li/ne_69360_extra-helpings-food-pantry-rushville",
    "name": "NCAP - Extra Helpings Food Pantry - Rushville",
    "address": "207 S. Main St.",
    "city": "Rushville",
    "state": "NE",
    "zip": "69360",
    "phone": "(308) 747-2200",
    "fax": null,
    "email": null,
    "website": "http://www.freefood.org/",
    "hours": "Tuesday of the month from 10:00am to 12:00pm, and, from 12:30pm - 3:30pm",
    "description": null,
    "requirements": null,
    "scraped_at": "2025-10-31T21:07:09.168553",
    "latitude": 42.7179126,
    "longitude": -102.4638782,
    "geocoded_address": "207, South Main Street, Rushville, Sheridan County, Nebraska, 69360, United States of America"
  },
  {
    "url": "https://www.foodpantries.org/li/western-nebraska-food-bank",
    "name": "Western Nebraska Food Bank",
    "address": "825 Hickory St",
    "city": "Sidney",
    "state": "NE",
    "zip": "69162",
    "phone": "(308) 254-1095",
    "fax": null,
    "email": null,
    "website": "http://www.freefood.org/",
    "hours": "The 1st, 3rd, and 5th Thursday of the month 11:00 am - 1:00 pm The 2nd and 4th Thursday of the month 5:30 pm - 7:00 pm Closed on Thanksgiving For more information, please call. \nGo To Details Page For More Information",
    "description": null,
    "requirements": null,
    "scraped_at": "2025-10-31T21:07:11.511985",
    "latitude": 41.1457726,
    "longitude": -102.9747013,
    "geocoded_address": "825, Hickory Street, Sidney, Cheyenne County, Nebraska, 69162, United States of America"
  },
  {
    "url": "https://www.foodpantries.org/li/ne_69162_table-of-grace-food-panty",
    "name": "Table of Grace Food Panty",
    "address": "1125 Alvarado Road",
    "city": "Sidney",
    "state": "NE",
    "zip": "69162",
    "phone": "(308) 765-0362",
    "fax": null,
    "email": null,
    "website": "http://www.freefood.org/",
    "hours": "The 1st, 3rd, and 5th Thursday of the month11:00 am - 1:00 pmThe 2nd and 4th Thursday of the month5:30 pm - 7:00 pmClosed on ThanksgivingFor more information, please call.\nVolunteering Information:https://www.sidneytableofgrace.com/volunteer-opportunities \nCounty or Counties Served: Cheyenne",
    "description": null,
    "requirements": null,
    "scraped_at": "2025-10-31T21:07:13.996112",
    "latitude": 41.1234292,
    "longitude": -102.9782178,
    "geocoded_address": "Alvarado Road, Sidney, Cheyenne County, Nebraska, 69162, United States of America"
  },
  {
    "url": "https://www.foodpantries.org/li/ne_nebraska_-So._Si-68776",
    "name": "NE Nebraska Community Action Agency",
    "address": "2120 Dakota Ave.",
    "city": "South Sioux City",
    "state": "NE",
    "zip": "68776",
    "phone": "(402) 494-8312",
    "fax": "(402) 385-6310",
    "email": null,
    "website": "https://www.nencap.org",
    "hours": "Monday - Friday9:00am - 4:00pmFor more information, please call.\nCounty or Counties Served: Dakota",
    "description": null,
    "requirements": "Photo ID required. For more information, please call. \nGo To Details Page For More Information",
    "scraped_at": "2025-10-31T21:07:16.115137",
    "latitude": 42.469056,
    "longitude": -96.4139,
    "geocoded_address": "2120, Dakota Avenue, South Sioux City, Dakota County, Nebraska, 68776, United States of America"
  },
  {
    "url": "https://www.foodpantries.org/li/gospel_missi-Sioux_-51103",
    "name": "Gospel Mission",
    "address": "500 Bluff Street",
    "city": "Sioux City",
    "state": "IA",
    "zip": "51103",
    "phone": "(712) 255-1769",
    "fax": null,
    "email": null,
    "website": "http://www.freefood.org/",
    "hours": "Monday - Friday 9:00am - 10:30amDonations: Food items are always welcome or call for pick-up of the donation. Thrift Store Hours:Monday - Friday 9:30am - 5:00pm Saturday 9:30am - 4:30pmFor more information, please call. \nCounty or Counties Served: Woodbury",
    "description": null,
    "requirements": "Photo ID required. For more information, please call. \nGo To Details Page For More Information",
    "scraped_at": "2025-10-31T21:07:18.582817",
    "latitude": 42.497854,
    "longitude": -96.412381,
    "geocoded_address": "500, Bluff Street, Sioux City, Woodbury County, Iowa, 51103, United States of America"
  },
  {
    "url": "https://www.foodpantries.org/li/first_evange-Sioux_-51101",
    "name": "First Evangelical Free Church",
    "address": "401 9th Street",
    "city": "Sioux City",
    "state": "IA",
    "zip": "51101",
    "phone": "(712) 255-7239",
    "fax": null,
    "email": null,
    "website": "http://www.freefood.org/",
    "hours": "Last Tuesday of the month1:00am - 3:00 pm The 4th Wednesday of the month 10:00am - 12:00pmFor more information, please call.\nCounty or Counties Served: Woodbury",
    "description": null,
    "requirements": "Photo ID required. For more information, please call. \nGo To Details Page For More Information",
    "scraped_at": "2025-10-31T21:07:21.028895",
    "latitude": 42.499712,
    "longitude": -96.406296,
    "geocoded_address": "401, 9th Street, Sioux City, Woodbury County, Iowa, 51101, United States of America"
  },
  {
    "url": "https://www.foodpantries.org/li/ia_51103_siouxland-soup-kitchen",
    "name": "Siouxland Soup Kitchen",
    "address": "717 W. 7th St",
    "city": "Sioux City",
    "state": "IA",
    "zip": "51103",
    "phone": "(712) 258-0027",
    "fax": null,
    "email": null,
    "website": "http://www.freefood.org/",
    "hours": "Diners - 4:30PM to 5:30PM Monday through Friday. \r\nLunch - Noon to 1:00PM on Saturdays",
    "description": null,
    "requirements": null,
    "scraped_at": "2025-10-31T21:07:23.582909",
    "latitude": 42.5027154,
    "longitude": -96.4166919,
    "geocoded_address": "Siouxland Soup Kitchen, 717, West 7th Street, Sioux City, Woodbury County, Iowa, 51102, United States of America"
  },
  {
    "url": "https://www.foodpantries.org/li/community_ac-Sioux_-51106",
    "name": "Community Action Agency of Siouxland Food Pantry",
    "address": "2700 Leech Avenue",
    "city": "Sioux City",
    "state": "IA",
    "zip": "51106",
    "phone": "(712) 274-1610",
    "fax": "(712) 274-0368",
    "email": null,
    "website": "http://www.freefood.org/",
    "hours": "Monday through Friday 8:30am - 5:00pmService Area:Woodbury County Other Programs they offer:Early Childhood EducationLow-Income Home Energy Assistance ProgramGeneral AssistanceFamily Development and Self-Sufficiency,Child and Adult Care Food ProgramEmergency ServicesWeatherization\nCounty or Counties Served: Woodbury",
    "description": null,
    "requirements": "Photo ID required. For more information, please call. \nGo To Details Page For More Information",
    "scraped_at": "2025-10-31T21:07:25.961621",
    "latitude": 42.4873582,
    "longitude": -96.3740004,
    "geocoded_address": "Community Action, 2700, Leech Avenue, Sioux City, Woodbury County, Iowa, 51106, United States of America"
  },
  {
    "url": "https://www.foodpantries.org/li/salvation_ar-Sioux_-51103",
    "name": "Salvation Army",
    "address": "1415 Villa Avenue",
    "city": "Sioux City",
    "state": "IA",
    "zip": "51103",
    "phone": "(712) 255-8836",
    "fax": "(712) 255-0413",
    "email": null,
    "website": "http://www.freefood.org/",
    "hours": "Monday9:00 - 12:00pm Tuesday - Friday 9:00am - 3:30pmClosed during lunch 12:00pm - 1:00pmFor more information, please call.\nCounty or Counties Served: Woodbury",
    "description": null,
    "requirements": null,
    "scraped_at": "2025-10-31T21:07:28.142945",
    "latitude": 42.504204,
    "longitude": -96.4264733,
    "geocoded_address": "1415, Villa Avenue, Sioux City, Woodbury County, Iowa, 51103, United States of America"
  },
  {
    "url": "https://www.foodpantries.org/li/food-bank-of-siouxland",
    "name": "Food Bank of Siouxland",
    "address": "1313 11th Street Suite 1",
    "city": "Sioux City",
    "state": "IA",
    "zip": "51105",
    "phone": "(712) 255-9741",
    "fax": null,
    "email": null,
    "website": "http://www.freefood.org/",
    "hours": "Monday - Friday8:00am - 4:30pm\r\n                                    \r\n                                    County or Counties Served: Woodbury",
    "description": null,
    "requirements": "Photo ID required. For more information, please call. \nGo To Details Page For More Information",
    "scraped_at": "2025-10-31T21:07:30.317746",
    "latitude": 42.4966815,
    "longitude": -96.4058782,
    "geocoded_address": "Sioux City, Woodbury County, Iowa, United States of America",
    "note": "Geocoded to city center (exact address not found)"
  },
  {
    "url": "https://www.foodpantries.org/li/first_united-Sioux_-51106",
    "name": "First United Methodist Church",
    "address": "1915 Nebraska Street",
    "city": "Sioux City",
    "state": "IA",
    "zip": "51104",
    "phone": "(712) 258-0119",
    "fax": "(712) 258-3639",
    "email": null,
    "website": "http://www.freefood.org/",
    "hours": "Wednesday 5:00pm - 6:00pm  Thursday 2:00pm - 3:00pm Hygiene/Personal Care Items Only\r\n                                    \r\n                                    County or Counties Served: Woodbury",
    "description": null,
    "requirements": "Photo ID required. For more information, please call. \nGo To Details Page For More Information",
    "scraped_at": "2025-10-31T21:07:33.674155",
    "latitude": 42.5103604,
    "longitude": -96.4037291,
    "geocoded_address": "1915, Nebraska Street, Sioux City, Woodbury County, Iowa, 51104, United States of America"
  },
  {
    "url": "https://www.foodpantries.org/li/grace_united-Sioux_-51106",
    "name": "Grace United Methodist Church",
    "address": "1735 Morningside Avenue",
    "city": "Sioux City",
    "state": "IA",
    "zip": "51106",
    "phone": "(712) 276-3452",
    "fax": null,
    "email": null,
    "website": "http://www.freefood.org/",
    "hours": "Monday and Wednesday9:00am - 12:00pmFor more information, please call.\nCounty or Counties Served: Woodbury",
    "description": null,
    "requirements": "Photo ID required. For more information, please call. \nGo To Details Page For More Information",
    "scraped_at": "2025-10-31T21:07:35.901444",
    "latitude": 42.4731748,
    "longitude": -96.357286,
    "geocoded_address": "1735, Morningside Avenue, Morningside, Sioux City, Woodbury County, Iowa, 51106, United States of America"
  },
  {
    "url": "https://www.foodpantries.org/li/morningside_-Sioux_-51106",
    "name": "Morningside Lutheran Church",
    "address": "700 South Martha Street",
    "city": "Sioux City",
    "state": "IA",
    "zip": "51106",
    "phone": "(712) 276-2511",
    "fax": "(712) 276-5459",
    "email": null,
    "website": "http://www.freefood.org/",
    "hours": "Tuesday4:00 pm - 6:00 pmWednesday10:00 am - 12:00 pm Requirement: Photo ID required.For more information, please call.\nCounty or Counties Served: Woodbury",
    "description": null,
    "requirements": "Photo ID required.For more information, please call.\nCounty or Counties Served: Woodbury",
    "scraped_at": "2025-10-31T21:07:38.207119",
    "latitude": 42.484752,
    "longitude": -96.361391,
    "geocoded_address": "700, South Martha Street, Sioux City, Woodbury County, Iowa, 51106, United States of America"
  },
  {
    "url": "https://www.foodpantries.org/li/ne_69201_extra-helpings-food-pantry-valentine",
    "name": "NCAP - Valentine Extra Helpings Food Pantry",
    "address": "312 E. 3rd St",
    "city": "Valentine",
    "state": "NE",
    "zip": "69201",
    "phone": "(402) 376-1886",
    "fax": null,
    "email": null,
    "website": "http://www.freefood.org/",
    "hours": "Monday to Friday from 9:00am to 4:00pm.\r\nAppointments Available",
    "description": null,
    "requirements": null,
    "scraped_at": "2025-10-31T21:07:42.005881",
    "latitude": 42.8747748,
    "longitude": -100.5473744,
    "geocoded_address": "312, East 3rd Street, Valentine, Cherry County, Nebraska, 69201, United States of America"
  },
  {
    "url": "https://www.foodpantries.org/li/ne_west-point_trinity-umcucc-west-point-food-pantry",
    "name": "Trinity UMC/UCC, West Point Food Distribution Service",
    "address": "900 E Decatur Street",
    "city": "West Point",
    "state": "NE",
    "zip": "68788",
    "phone": "(402) 372-2271",
    "fax": null,
    "email": null,
    "website": "http://www.freefood.org/",
    "hours": "3rd Saturday of Every Month at 8:00 a.m.\nCounty or Counties Served: Cuming",
    "description": null,
    "requirements": null,
    "scraped_at": "2025-10-31T21:07:44.235452",
    "latitude": 41.843008,
    "longitude": -96.7114204,
    "geocoded_address": "Decatur Street, West Point, Cuming County, Nebraska, 68788, United States of America"
  },
  {
    "url": "https://www.foodpantries.org/li/ne_68467_blue-valley-community-action",
    "name": "Blue Valley Community Action",
    "address": "3401 N Lincoln Ave",
    "city": "York",
    "state": "NE",
    "zip": "68467",
    "phone": "(402) 362-3516",
    "fax": null,
    "email": null,
    "website": "http://bvca.net",
    "hours": "Monday, Wednesday, and Friday1:00 pm - 3:00 pmCall for APPOINTMENT\nVolunteering Information:http://bvca.net/Get_Involved/volunteer.aspx \nCounty or Counties Served: York",
    "description": null,
    "requirements": null,
    "scraped_at": "2025-10-31T21:07:47.235038",
    "latitude": 40.8972779,
    "longitude": -97.5928969,
    "geocoded_address": "3401, North Lincoln Avenue, York, York County, Nebraska, 68467, United States of America"
  }
]