[
  {
    "url": "https://www.foodpantries.org/li/ri-tapin_barrington_food_pantry",
    "name": "Tap-In Barrington Food Pantry",
    "address": "281 County Road",
    "city": "Barrington",
    "state": "RI",
    "zip": "02806",
    "phone": "(401) 247-1444",
    "fax": null,
    "email": null,
    "website": "http://www.tapinri.org",
    "hours": "Tuesdays 3:00pm - 5:00pm Wednesdays 9:00am - 11:00am.  Requirements:  Some form of identification  Grocery bags  Service Area:  All of Rhode Island, anyone and e\nGo To Details Page For More Information",
    "description": null,
    "requirements": "Photo ID and proof of current address. They can be found in the lower level of the Barrington Public Library.Hours of Operation Monday through Friday9:00am - 12:00pmFor more information, please call. \nVolunteering Information:http://tapinri.org/volunteer \nCounty or Counties Served: Bristol",
    "scraped_at": "2025-11-02T20:04:19.707469",
    "latitude": 41.7404816,
    "longitude": -71.3072655,
    "geocoded_address": "Barrington Public Library, 281, County Road, Barrington, Bristol County, Rhode Island, 02806, United States of America"
  },
  {
    "url": "https://www.foodpantries.org/li/St-Mary-of-the-Bay-Food- Pantry_02885",
    "name": null,
    "address": null,
    "city": null,
    "state": null,
    "zip": null,
    "phone": null,
    "fax": null,
    "email": null,
    "website": null,
    "hours": null,
    "description": null,
    "requirements": null,
    "scraped_at": "2025-11-02T20:04:21.918855"
  },
  {
    "url": "https://www.foodpantries.org/li/good-neighbors-soup-kitchen-and-food-pantry",
    "name": "Good Neighbors Soup Kitchen and Food Pantry",
    "address": "55 Turner Ave, Riverside",
    "city": "East Providence",
    "state": "RI",
    "zip": "02915",
    "phone": null,
    "fax": null,
    "email": null,
    "website": "http://www.freefood.org/",
    "hours": "Monday, Tuesday and Thursday 12:00 pm - 4:00 pm Wednesday 2:00 pm - 6:00 pm Friday 8:00 am - 12:00 pm Requirements: Bring ID Complete an application on-site during regular hours For more information, please call.   \nGo To Details Page For More Information",
    "description": null,
    "requirements": "Bring ID Complete an application on-site during regular hours For more information, please call.   \nGo To Details Page For More Information",
    "scraped_at": "2025-11-02T20:04:22.667756",
    "latitude": 41.770965,
    "longitude": -71.3584254,
    "geocoded_address": "55, Turner Avenue, Kent Corner, East Providence, Providence County, Rhode Island, 02915, United States of America"
  },
  {
    "url": "https://www.foodpantries.org/li/east_bay_community_action_program_pantry_02915",
    "name": "East Bay Community Action Program Pantry",
    "address": "100 Bullocks Point Avenue",
    "city": "Riverside",
    "state": "RI",
    "zip": "02915",
    "phone": "(401) 437-0006",
    "fax": null,
    "email": null,
    "website": "https://www.ebcap.org",
    "hours": "Monday, Tuesday and Thursday12:00 pm - 4:00 pmWednesday2:00 pm - 6:00 pmFriday8:00 am - 12:00 pmRequirements:Bring IDComplete an application on-site during regular hoursFor more information, please call. \nVolunteering Information:https://www.ebcap.org/help-ebcap/volunteer \nCounty or Counties Served: Providence",
    "description": null,
    "requirements": "Bring IDComplete an application on-site during regular hoursFor more information, please call. \nVolunteering Information:https://www.ebcap.org/help-ebcap/volunteer \nCounty or Counties Served: Providence",
    "scraped_at": "2025-11-02T20:04:25.322133",
    "latitude": 41.776205,
    "longitude": -71.3631736,
    "geocoded_address": "100, Bullocks Point Avenue, Riverside, East Providence, Providence County, Rhode Island, 02915, United States of America"
  },
  {
    "url": "https://www.foodpantries.org/li/pilgrims-food-pantry",
    "name": "Pilgrim Lutheran Church Food Pantry",
    "address": "1817 Warwick Avenue",
    "city": "Warwick",
    "state": "RI",
    "zip": "02889",
    "phone": "(401) 739-2937",
    "fax": null,
    "email": null,
    "website": "http://www.freefood.org/",
    "hours": "Wednesdays 10:00 am - 11:00 amFor more information, please call.\u00a0 \nCounty or Counties Served: Kent",
    "description": null,
    "requirements": "Bring ID Complete an application on-site during regular hours For more information, please call.   \nGo To Details Page For More Information",
    "scraped_at": "2025-11-02T20:04:28.004420",
    "latitude": 41.7271006,
    "longitude": -71.4055175,
    "geocoded_address": "1817, Warwick Avenue, Hoxsie, Warwick, Kent County, Rhode Island, 02889, United States of America"
  },
  {
    "url": "https://www.foodpantries.org/li/edgewood_pawtuxet_food_closet:_transfiguration_church_02905",
    "name": "Edgewood Pawtuxet Food Closet: Transfiguration Church",
    "address": "1665 Broad Street",
    "city": "Cranston",
    "state": "RI",
    "zip": "02905",
    "phone": "(401)461-3142",
    "fax": null,
    "email": null,
    "website": "http://www.freefood.org/",
    "hours": "Tues and Fri: 9-10:45 am; Wed. 5-6:30 pm\r\n                                    \r\n                                                                        \n* Important: Please call the food pantries to confirm that the hours have not changed. We do our best to provide full information and details, but food pantries often change their hours without notifying us. We do not want you to waste your time visiting a pantry that is not open.",
    "description": null,
    "requirements": "Bring ID Complete an application on-site during regular hours For more information, please call.   \nGo To Details Page For More Information",
    "scraped_at": "2025-11-02T20:04:30.545292",
    "latitude": 41.780785,
    "longitude": -71.400959,
    "geocoded_address": "1665, Broad Street, Edgewood, Cranston, Providence County, Rhode Island, 02905, United States of America"
  },
  {
    "url": "https://www.foodpantries.org/li/ri-east-bay-food-pantry",
    "name": "The East Bay Food Pantry and Thrift Shop",
    "address": "532 Wood Street",
    "city": "Bristol",
    "state": "RI",
    "zip": "02809",
    "phone": "(401) 396-9490",
    "fax": null,
    "email": null,
    "website": "http://www.freefood.org/",
    "hours": "Wednesday 10:00 am - 6:30 pmProduce only on:Friday 10:00am - 3:00pm (Wood Street entrance)Thrift shop hours:Monday, Tuesday and Saturday from 10:00am to 4:00pmAdditional Information:Handicapped accessible.For more information, please call.\nMission Statement\r\n               To engage, educate and empower the East Bay in creating a hunger-free community.\r\n            \nCounty or Counties Served: Bristol",
    "description": null,
    "requirements": "Some form of identification  Grocery bags  Service Area:  All of Rhode Island, anyone and e\nGo To Details Page For More Information",
    "scraped_at": "2025-11-02T20:04:32.868031",
    "latitude": 41.6744194,
    "longitude": -71.2720514,
    "geocoded_address": "532, Wood Street, Unity Park, Bristol, Bristol County, Rhode Island, 02809, United States of America"
  },
  {
    "url": "https://www.foodpantries.org/li/st_ritas_church_pantry_02889",
    "name": "St Rita's Church Pantry",
    "address": "722 Oakland Beach Avenue",
    "city": "Warwick",
    "state": "RI",
    "zip": "02889",
    "phone": "(401) 738-1800",
    "fax": null,
    "email": null,
    "website": "http://www.freefood.org/",
    "hours": "Monday and Wednesday\r\n10:00am - 1:00pm\r\nFor more information, please call.",
    "description": null,
    "requirements": "Photo ID and proof of current address. They can be found in the lower level of the Barrington Public Library. Hours of Operation Monday through Friday 9:00am - 12:00pm For more information, please call.   \nGo To Details Page For More Information",
    "scraped_at": "2025-11-02T20:04:35.097728",
    "latitude": 41.6894879,
    "longitude": -71.3977621,
    "geocoded_address": "Saint Rita's Church, 722, Oakland Beach Avenue, Oakland Beach, Warwick, Kent County, Rhode Island, 02889, United States of America"
  },
  {
    "url": "https://www.foodpantries.org/li/project_outreach_02905",
    "name": "Project Outreach",
    "address": "1520 Broad Street",
    "city": "Providence",
    "state": "RI",
    "zip": "02905",
    "phone": "(401) 941-2212",
    "fax": null,
    "email": null,
    "website": "http://www.freefood.org/",
    "hours": "Tue and Friday9:00 am to 12:00 pmFor more information, please call. \nCounty or Counties Served: Providence",
    "description": null,
    "requirements": null,
    "scraped_at": "2025-11-02T20:04:37.522259",
    "latitude": 41.786035,
    "longitude": -71.401621,
    "geocoded_address": "1520, Broad Street, Providence, Providence County, Rhode Island, 02905, United States of America"
  },
  {
    "url": "https://www.foodpantries.org/li/ri-bristol_good_neighbors_pantry",
    "name": "Good Neighbors",
    "address": "55 Turner Ave,",
    "city": "Riverside",
    "state": "RI",
    "zip": "02915",
    "phone": "(401)433-0045",
    "fax": null,
    "email": null,
    "website": "http://www.freefood.org/",
    "hours": "Wednesday 10:00 am - 6:30 pm Produce only on: Friday 10:00am - 3:00pm (Wood Street entrance) Thrift shop hours: Monday, Tuesday and Saturday from 10:00am to 4\nGo To Details Page For More Information",
    "description": null,
    "requirements": "Some form of identification  Grocery bags  Service Area:  All of Rhode Island, anyone and e\nGo To Details Page For More Information",
    "scraped_at": "2025-11-02T20:04:39.873350",
    "latitude": 41.770965,
    "longitude": -71.3584254,
    "geocoded_address": "55, Turner Avenue, Kent Corner, East Providence, Providence County, Rhode Island, 02915, United States of America"
  },
  {
    "url": "https://www.foodpantries.org/li/bethany_gospel_chapel_02777",
    "name": "Bethany Gospel Chapel Food Pantry",
    "address": "62 Lindsay Lane",
    "city": "Swansea",
    "state": "MA",
    "zip": "02777",
    "phone": "(508) 675-0273",
    "fax": null,
    "email": null,
    "website": "http://www.freefood.org/",
    "hours": "The 3rd Saturday of the month\r\n        9:00am - 11:00am\n\r\nFor more information, please call. \nCounty or Counties Served: Bristol",
    "description": null,
    "requirements": null,
    "scraped_at": "2025-11-02T20:04:42.272575",
    "latitude": 41.7481575,
    "longitude": -71.1897684,
    "geocoded_address": "Swansea, Bristol County, Massachusetts, United States of America",
    "note": "Geocoded to city center (exact address not found)"
  },
  {
    "url": "https://www.foodpantries.org/li/citizens_for_citizens_02724",
    "name": "Citizens For Citizens",
    "address": "264 Griffin Street",
    "city": "Fall River",
    "state": "MA",
    "zip": "02724",
    "phone": null,
    "fax": null,
    "email": null,
    "website": "http://www.freefood.org/",
    "hours": "Tuesday & Thursday \r\n9:30am-11:30am \r\n \r\nFor more information, please call.",
    "description": null,
    "requirements": "Please bring your own bags and I.D. proof of address. For more information, please call. \nGo To Details Page For More Information",
    "scraped_at": "2025-11-02T20:04:47.094530",
    "latitude": 41.688956,
    "longitude": -71.1695013,
    "geocoded_address": "264, Griffin Street, Fall River, Bristol County, Massachusetts, 02724, United States of America"
  },
  {
    "url": "https://www.foodpantries.org/li/st_annes_church_food_pantry_02721",
    "name": "St Anne's Parish Food Pantry",
    "address": "818 Middle Street",
    "city": "Fall River",
    "state": "MA",
    "zip": "02721",
    "phone": "(508) 674-5651",
    "fax": null,
    "email": null,
    "website": "http://www.freefood.org/",
    "hours": "Tuesday & Thursday \r\n9:30am-11:30am \r\n \r\nFor more information, please call.",
    "description": null,
    "requirements": "Please bring your own bags and I.D. proof of address. For more information, please call. \nGo To Details Page For More Information",
    "scraped_at": "2025-11-02T20:04:50.226501",
    "latitude": 41.6938177,
    "longitude": -71.1638103,
    "geocoded_address": "Saint Anne Parish, 818, Middle Street, Fall River, Bristol County, Massachusetts, 02721, United States of America"
  },
  {
    "url": "https://www.foodpantries.org/li/ma_02720_bank-street-armory-food-pantry-for-seniors",
    "name": "Bank Street Armory - Food Pantry for Seniors",
    "address": "72 Bank Street",
    "city": "Fall River",
    "state": "MA",
    "zip": "02720",
    "phone": null,
    "fax": null,
    "email": null,
    "website": "http://www.gfrrec.org",
    "hours": "Tuesday & Thursday \r\n9:30am-11:30am \r\n \r\nFor more information, please call.",
    "description": null,
    "requirements": "Please bring your own bags and I.D. proof of address. For more information, please call. \nGo To Details Page For More Information",
    "scraped_at": "2025-11-02T20:04:52.682839",
    "latitude": 41.7036273,
    "longitude": -71.1561283,
    "geocoded_address": "Bank Street Armory, 72, Bank Street, Fall River, Bristol County, Massachusetts, 02722, United States of America"
  },
  {
    "url": "https://www.foodpantries.org/li/greater_fall_river_food_pantry_02720",
    "name": "Greater Fall River Food Pantry",
    "address": "228 North Main Street",
    "city": "Fall River",
    "state": "MA",
    "zip": "02720",
    "phone": null,
    "fax": null,
    "email": null,
    "website": "http://www.freefood.org/",
    "hours": "Tuesday & Thursday \r\n9:30am-11:30am \r\n \r\nFor more information, please call.",
    "description": null,
    "requirements": "Please bring your own bags and I.D. proof of address. For more information, please call. \nGo To Details Page For More Information",
    "scraped_at": "2025-11-02T20:04:54.869934",
    "latitude": 41.7049693,
    "longitude": -71.1553037,
    "geocoded_address": "228, North Main Street, Fall River Station, Fall River, Bristol County, Massachusetts, 02722, United States of America"
  },
  {
    "url": "https://www.foodpantries.org/li/salvation_armyfall_river_02722",
    "name": "Salvation Army Fall River Food Assistance",
    "address": "290 Bedford Street",
    "city": "Fall River",
    "state": "MA",
    "zip": "02722",
    "phone": "(508) 679-7900",
    "fax": "(508) 730-1791",
    "email": null,
    "website": "http://www.freefood.org/",
    "hours": "Tuesday & Thursday\r\n9:30am-11:30am\n\r\nFor more information, please call. \nCounty or Counties Served: Bristol",
    "description": null,
    "requirements": "Please bring your own bags and I.D. proof of address. For more information, please call. \nGo To Details Page For More Information",
    "scraped_at": "2025-11-02T20:04:57.981765",
    "latitude": 41.7012558,
    "longitude": -71.1499359,
    "geocoded_address": "290, Bedford Street, Fall River, Bristol County, Massachusetts, 02722, United States of America"
  },
  {
    "url": "https://www.foodpantries.org/li/st_vincent_de_paul_our_lady_of_good_help",
    "name": "St Vincent De Paul Our Lady of Good Help",
    "address": "1063 Victory Highway",
    "city": "Burrillville",
    "state": "RI",
    "zip": "02839",
    "phone": null,
    "fax": null,
    "email": null,
    "website": "http://www.freefood.org/",
    "hours": "Last Tuesday of every month: 5:30-6:30pm\nGo To Details Page For More Information",
    "description": null,
    "requirements": "Referral from Family Resources needed.  Pantry Hours:  Tuesday and Thursday 1:30pm - 2:30pm For more information, please call.  \nGo To Details Page For More Information",
    "scraped_at": "2025-11-02T20:05:00.863194",
    "latitude": 41.9555225,
    "longitude": -71.6499599,
    "geocoded_address": "1063, Victory Highway, Oakland, Burrillville, Providence County, Rhode Island, 02859, United States of America"
  },
  {
    "url": "https://www.foodpantries.org/li/burrillville_seventh_day_adventist",
    "name": "Burrillville Seventh Day Adventist",
    "address": "854 Victory Highway",
    "city": "Burrillville",
    "state": "RI",
    "zip": "02839",
    "phone": null,
    "fax": null,
    "email": null,
    "website": "http://www.freefood.org/",
    "hours": "2nd and 4th Tuesday of month: 10:00am - 11am (Seniors) and 6-7:00 pm (Others) in the service area\nGo To Details Page For More Information",
    "description": null,
    "requirements": "Referral from Family Resources needed.  Pantry Hours:  Tuesday and Thursday 1:30pm - 2:30pm For more information, please call.  \nGo To Details Page For More Information",
    "scraped_at": "2025-11-02T20:05:03.495862",
    "latitude": 41.9506899,
    "longitude": -71.6490666,
    "geocoded_address": "854, Victory Highway, Gazzaville, Mapleville, Burrillville, Providence County, Rhode Island, 02839, United States of America"
  },
  {
    "url": "https://www.foodpantries.org/li/burrillville_sda_02839",
    "name": "Burrillville SDA Shepherd's Food Pantry-",
    "address": "854 Victory Highway",
    "city": "Burrillville",
    "state": "RI",
    "zip": "02839",
    "phone": "(401)568-5255",
    "fax": null,
    "email": null,
    "website": "http://www.freefood.org/",
    "hours": "Last Tuesday of every month: 5:30-6:30pm\r\n                                    \r\n                                                                        \n* Important: Please call the food pantries to confirm that the hours have not changed. We do our best to provide full information and details, but food pantries often change their hours without notifying us. We do not want you to waste your time visiting a pantry that is not open.",
    "description": null,
    "requirements": "Referral from Family Resources needed.  Pantry Hours:  Tuesday and Thursday 1:30pm - 2:30pm For more information, please call.  \nGo To Details Page For More Information",
    "scraped_at": "2025-11-02T20:05:05.499940",
    "latitude": 41.9506899,
    "longitude": -71.6490666,
    "geocoded_address": "854, Victory Highway, Gazzaville, Mapleville, Burrillville, Providence County, Rhode Island, 02839, United States of America"
  },
  {
    "url": "https://www.foodpantries.org/li/svdp_our_lady_of_good_help_02839",
    "name": "SVDP Our Lady of Good Help",
    "address": "1063 Victory Highway",
    "city": "Burrillville",
    "state": "RI",
    "zip": "02839",
    "phone": "(401)762-1834",
    "fax": null,
    "email": null,
    "website": "http://www.freefood.org/",
    "hours": "2nd and 4th Tuesday of month: 10:00am - 11am (Seniors) and 6-7:00 pm (Others) in the service area\r\n                                    \r\n                                                                        \n* Important: Please call the food pantries to confirm that the hours have not changed. We do our best to provide full information and details, but food pantries often change their hours without notifying us. We do not want you to waste your time visiting a pantry that is not open.",
    "description": null,
    "requirements": "Referral from Family Resources needed.  Pantry Hours:  Tuesday and Thursday 1:30pm - 2:30pm For more information, please call.  \nGo To Details Page For More Information",
    "scraped_at": "2025-11-02T20:05:07.878201",
    "latitude": 41.9555225,
    "longitude": -71.6499599,
    "geocoded_address": "1063, Victory Highway, Oakland, Burrillville, Providence County, Rhode Island, 02859, United States of America"
  },
  {
    "url": "https://www.foodpantries.org/li/ri_02830_st-patricks-food-pantry",
    "name": "St. Patrick\u2019s Food Pantry",
    "address": "45 Harrisville Main Street",
    "city": "Burrillville",
    "state": "RI",
    "zip": "02830",
    "phone": "(401) 568-5600",
    "fax": "(401) 568-7132",
    "email": null,
    "website": "https://stpatrickri.org",
    "hours": "Every other Monday of the month 5:30pm - 7:00pmFor more information, please call. \nVolunteering Information:Call 401-568-5600 \nCounty or Counties Served: Providence",
    "description": null,
    "requirements": null,
    "scraped_at": "2025-11-02T20:05:10.459835",
    "latitude": 41.9675483,
    "longitude": -71.6778709,
    "geocoded_address": "45, Harrisville Main Street, Graniteville, Harrisville, Burrillville, Providence County, Rhode Island, 02830, United States of America"
  },
  {
    "url": "https://www.foodpantries.org/li/ri-new_hope_pantry",
    "name": "New Hope Chapel Pantry",
    "address": "80 Richmond Townhouse Rd",
    "city": "Carolina",
    "state": "RI",
    "zip": "02812",
    "phone": null,
    "fax": null,
    "email": null,
    "website": "http://www.freefood.org/",
    "hours": "Monday 9:30 am - 11:00 am Friday 6:30 pm - 8:00 pm . Handicappeed accessible. Please call them for more information.",
    "description": null,
    "requirements": null,
    "scraped_at": "2025-11-02T20:05:13.120849",
    "latitude": 41.4895,
    "longitude": -71.660609,
    "geocoded_address": "80, Richmond Townhouse Road, Carolina, Richmond, South County, Rhode Island, 02812, United States of America"
  },
  {
    "url": "https://www.foodpantries.org/li/ri-st_maryst_james_food_pantry",
    "name": "Rhode Island Center Assisting those in Need",
    "address": "805 Alton Carolina Road",
    "city": "Charlestown",
    "state": "RI",
    "zip": "02813",
    "phone": "(401) 364-9412",
    "fax": "(401) 552-7910",
    "email": null,
    "website": "http://www.freefood.org/",
    "hours": "Wednesday: 9:30 - 11:30 am  and 6:30 to 7:30 pm\r\n                                Thursday:     9:30 - 11:30 am\r\n                                Friday:  2-3\r\n\r\nWould you kindly make the change to your listing.\r\n\r\nThank you.",
    "description": null,
    "requirements": null,
    "scraped_at": "2025-11-02T20:05:17.064093",
    "latitude": 41.453272,
    "longitude": -71.6639163,
    "geocoded_address": "805, Alton Carolina Road, Charlestown, South County, Rhode Island, 02813, United States of America"
  },
  {
    "url": "https://www.foodpantries.org/li/new_life_assembly_02879",
    "name": "New Life Assembly",
    "address": "251 Post Road",
    "city": "South Kingstown",
    "state": "RI",
    "zip": "02879",
    "phone": "(401)783-8378",
    "fax": null,
    "email": null,
    "website": "http://www.freefood.org/",
    "hours": "2nd Wed: 1-2pm\r\n                                    \r\n                                                                        \n* Important: Please call the food pantries to confirm that the hours have not changed. We do our best to provide full information and details, but food pantries often change their hours without notifying us. We do not want you to waste your time visiting a pantry that is not open.",
    "description": null,
    "requirements": null,
    "scraped_at": "2025-11-02T20:05:19.452760",
    "latitude": 41.4321171,
    "longitude": -71.5165428,
    "geocoded_address": "251, Post Road, Wakefield, South Kingstown, South County, Rhode Island, 02879, United States of America"
  },
  {
    "url": "https://www.foodpantries.org/li/ri_center_assisting_those_in_need_02813",
    "name": "RI Center Assisting those in Need - RI CAN",
    "address": "805 Alton Carolina Rd",
    "city": "Charlestown",
    "state": "RI",
    "zip": "02812",
    "phone": "(401)364-9412",
    "fax": null,
    "email": null,
    "website": "http://www.freefood.org/",
    "hours": "Fridays 4:00 - 6:00pm.",
    "description": null,
    "requirements": null,
    "scraped_at": "2025-11-02T20:05:22.318424",
    "latitude": 41.453272,
    "longitude": -71.6639163,
    "geocoded_address": "805, Alton Carolina Road, Charlestown, South County, Rhode Island, 02813, United States of America"
  },
  {
    "url": "https://www.foodpantries.org/li/jonnycake_center_of_peace_dale_02883",
    "name": "Jonnycake Center of Peace Dale",
    "address": "1183 Kingstown Road",
    "city": "Peace Dale",
    "state": "RI",
    "zip": "02883",
    "phone": "(401)284-0303",
    "fax": null,
    "email": null,
    "website": "http://www.freefood.org/",
    "hours": "Tues: 12-4:30pm; Wed. and Thurs: 9:30am - 4:30pm; Fri. and Sat: 9:30am -2:30 pm\r\n                                    \r\n                                                                        \n* Important: Please call the food pantries to confirm that the hours have not changed. We do our best to provide full information and details, but food pantries often change their hours without notifying us. We do not want you to waste your time visiting a pantry that is not open.",
    "description": null,
    "requirements": null,
    "scraped_at": "2025-11-02T20:05:24.654602",
    "latitude": 41.4542715,
    "longitude": -71.500978,
    "geocoded_address": "Peace Dale Elementary School, Emmett Lane, Rocky Brook, Peacedale, South Kingstown, South County, Rhode Island, 02879, United States of America",
    "note": "Geocoded to city center (exact address not found)"
  },
  {
    "url": "https://www.foodpantries.org/li/ri_wakefield_jonnycake-center-food-pantry",
    "name": "Jonnycake Center Food Pantry",
    "address": "22 Kersey Road",
    "city": "Wakefield",
    "state": "RI",
    "zip": "02879",
    "phone": "(401) 789-1559",
    "fax": null,
    "email": null,
    "website": "http://www.freefood.org/",
    "hours": "Monday & Friday: 9:00 am to 2:00 pmWednesday: 12:00 pm to 6:00 pm2nd & 4th Saturday: 10:00 am to 2:00 pmAdditional Services:School vacation mealsSeniors deliveries for those who cannot get to the pantryhealthy harvestholiday mealsDonations can be dropped off during pantry hours.\nCounty or Counties Served: Washington",
    "description": null,
    "requirements": null,
    "scraped_at": "2025-11-02T20:05:27.889149",
    "latitude": 41.437324,
    "longitude": -71.5014469,
    "geocoded_address": "Wakefield, South Kingstown, South County, Rhode Island, 02879, United States of America",
    "note": "Geocoded to city center (exact address not found)"
  },
  {
    "url": "https://www.foodpantries.org/li/ri-warm-center",
    "name": "Warm Center",
    "address": "56 Spruce Street",
    "city": "Westerly",
    "state": "RI",
    "zip": "02891",
    "phone": "(401) 596-9276",
    "fax": null,
    "email": null,
    "website": "http://www.freefood.org/",
    "hours": "Daily 12:00pm and 1:00 pm dailyDinnerDaily5:30pm and 6:30pmFor more information, please call. \nVolunteering Information:http://warmcenter.org/volunteer-your-time \nCounty or Counties Served: Washington",
    "description": null,
    "requirements": null,
    "scraped_at": "2025-11-02T20:05:30.934394",
    "latitude": 41.382159,
    "longitude": -71.823573,
    "geocoded_address": "WARM Center, 56, Spruce Street, Westerly, South County, Rhode Island, 02891, United States of America"
  },
  {
    "url": "https://www.foodpantries.org/li/svdp_immaculate_conception_02891",
    "name": "SVDP Immaculate Conception",
    "address": "111 High Street",
    "city": "Westerly",
    "state": "RI",
    "zip": "02891",
    "phone": "(401)596-2130",
    "fax": null,
    "email": null,
    "website": "http://www.freefood.org/",
    "hours": "Mon, Wed, Thurs: 10am - 12pm\r\n                                    \r\n                                                                        \n* Important: Please call the food pantries to confirm that the hours have not changed. We do our best to provide full information and details, but food pantries often change their hours without notifying us. We do not want you to waste your time visiting a pantry that is not open.",
    "description": null,
    "requirements": null,
    "scraped_at": "2025-11-02T20:05:32.990358",
    "latitude": 41.3823155,
    "longitude": -71.8251232,
    "geocoded_address": "111, High Street, Westerly, South County, Rhode Island, 02891, United States of America"
  },
  {
    "url": "https://www.foodpantries.org/li/st_peters_by_the_sea_02882",
    "name": "St Peter\\'s by the Sea",
    "address": "72 Central Street",
    "city": "Narragansett",
    "state": "RI",
    "zip": "02882",
    "phone": "(401)783-4623",
    "fax": null,
    "email": null,
    "website": "http://www.freefood.org/",
    "hours": "Open Fridays  4:00 - 6:00pm. \r\n                                    \r\n                                                                        \n* Important: Please call the food pantries to confirm that the hours have not changed. We do our best to provide full information and details, but food pantries often change their hours without notifying us. We do not want you to waste your time visiting a pantry that is not open.",
    "description": null,
    "requirements": null,
    "scraped_at": "2025-11-02T20:05:35.535343",
    "latitude": 41.429119,
    "longitude": -71.460989,
    "geocoded_address": "72, Central Street, Narragansett Pier, Narragansett, South County, Rhode Island, 02882, United States of America"
  },
  {
    "url": "https://www.foodpantries.org/li/bradford_jonnycake_center_02891",
    "name": "Jonnycake Center of Westerly",
    "address": "23 Industrial Drive",
    "city": "Westerly",
    "state": "RI",
    "zip": "02891",
    "phone": "(401) 377-8069",
    "fax": null,
    "email": null,
    "website": "http://jonnycake.org",
    "hours": "Monday 1:00pm - 3:00pmTuesday - Wednesday 9:00am - 12:00pmThursday9:00am - 12:00pm; 3:00pm - 6:00pmFriday - Saturday9:00am - 12:00pmFor more information, please call. For more information, please call. \nVolunteering Information:http://jonnycake.org/volunteer \nCounty or Counties Served: Washington",
    "description": null,
    "requirements": null,
    "scraped_at": "2025-11-02T20:05:37.504946",
    "latitude": 41.3819626,
    "longitude": -71.8313575,
    "geocoded_address": "23, Industrial Drive, Westerly, South County, Rhode Island, 02891, United States of America"
  },
  {
    "url": "https://www.foodpantries.org/li/st_albans_church_food_pantry_02911",
    "name": "St Alban's Church Food Pantry",
    "address": "1964 Smith Street",
    "city": "Centerdale",
    "state": "RI",
    "zip": "02911",
    "phone": "(401) 231-4016",
    "fax": null,
    "email": null,
    "website": "http://www.freefood.org/",
    "hours": "The 3rd Saturday 9:00am - 11:30amFor more information, please call. \nCounty or Counties Served: Providence",
    "description": null,
    "requirements": null,
    "scraped_at": "2025-11-02T20:05:39.899479",
    "latitude": 41.8564933,
    "longitude": -71.4826223,
    "geocoded_address": "Embajada De Cristo, 1964, Smith Street, Fruit Hill, North Providence, Providence County, Rhode Island, 02911, United States of America"
  },
  {
    "url": "https://www.foodpantries.org/li/ri-bvcap_emergency_food_center_",
    "name": "Blackstone Valley Emergency Food Center",
    "address": "402 Dexter St",
    "city": "Central Falls",
    "state": "RI",
    "zip": "02863",
    "phone": null,
    "fax": null,
    "email": null,
    "website": "http://www.bvcap.org/",
    "hours": "Friday 9:00am - 12;00pm\nGo To Details Page For More Information",
    "description": null,
    "requirements": null,
    "scraped_at": "2025-11-02T20:05:41.934901",
    "latitude": 41.883586,
    "longitude": -71.393551,
    "geocoded_address": "402, Dexter Street, Central Falls, Providence County, Rhode Island, 02863, United States of America"
  },
  {
    "url": "https://www.foodpantries.org/li/ri_02863_st-george-episcopal-pantry",
    "name": "St. George Episcopal Pantry",
    "address": "12 Clinton Street",
    "city": "Central Falls",
    "state": "RI",
    "zip": "02863",
    "phone": null,
    "fax": null,
    "email": null,
    "website": "http://www.freefood.org/",
    "hours": "Friday 9:00am - 12;00pm\r\n                                    \r\n                                                                        \n* Important: Please call the food pantries to confirm that the hours have not changed. We do our best to provide full information and details, but food pantries often change their hours without notifying us. We do not want you to waste your time visiting a pantry that is not open.",
    "description": null,
    "requirements": null,
    "scraped_at": "2025-11-02T20:05:44.753694",
    "latitude": 41.8841921,
    "longitude": -71.3909294,
    "geocoded_address": "12, Clinton Street, Central Falls, Providence County, Rhode Island, 02863, United States of America"
  },
  {
    "url": "https://www.foodpantries.org/li/st_george_episcopal_pantry_02863",
    "name": "St George Episcopal Pantry",
    "address": "12 Clinton Street",
    "city": "Central Falls",
    "state": "RI",
    "zip": "02863",
    "phone": "(401) 722-9449",
    "fax": null,
    "email": null,
    "website": "http://www.freefood.org/",
    "hours": "Wednesday and Friday 9:00am - 12:00pmFor more information, please call. \nCounty or Counties Served: Providence",
    "description": null,
    "requirements": null,
    "scraped_at": "2025-11-02T20:05:46.808424",
    "latitude": 41.8841921,
    "longitude": -71.3909294,
    "geocoded_address": "12, Clinton Street, Central Falls, Providence County, Rhode Island, 02863, United States of America"
  },
  {
    "url": "https://www.foodpantries.org/li/central-falls-food-pantry-at-progreso-latino",
    "name": "Central Falls Food Pantry at Progreso Latino",
    "address": "626 Broad Street",
    "city": "Central Falls",
    "state": "RI",
    "zip": "02863",
    "phone": null,
    "fax": null,
    "email": null,
    "website": "http://www.freefood.org/",
    "hours": "Monday-Wednesday-Friday1:30am -3:30pm We are located on Broad Street in Central Falls, behind the (former) Notre Dame Church. Look for Progreso Latino signs. In case of inclement winter weather, call the pantry first about our status. \r\n                                    \r\n                                    County or Counties Served: Providence",
    "description": null,
    "requirements": null,
    "scraped_at": "2025-11-02T20:05:49.692399",
    "latitude": 41.8884623,
    "longitude": -71.3873695,
    "geocoded_address": "626, Broad Street, Central Falls, Providence County, Rhode Island, 02863, United States of America"
  },
  {
    "url": "https://www.foodpantries.org/li/ri_cumberland_lighthouse-community-outreach-food-pantry",
    "name": "Lighthouse Community Food Pantry",
    "address": "30 Meeting Street",
    "city": "Cumberland",
    "state": "RI",
    "zip": "02864",
    "phone": "(401) 725-0335",
    "fax": null,
    "email": null,
    "website": "http://www.freefood.org/",
    "hours": "Friday 9:00am - 12;00pm",
    "description": null,
    "requirements": null,
    "scraped_at": "2025-11-02T20:05:52.507740",
    "latitude": 41.8995191,
    "longitude": -71.3920718,
    "geocoded_address": "30, Meeting Street, Happy Hollow, Valley Falls, Cumberland, Providence County, Rhode Island, 02864, United States of America"
  },
  {
    "url": "https://www.foodpantries.org/li/blackstone_valley_community_action_program_02860",
    "name": "Blackstone Valley Community Action Program",
    "address": "32 Goff Avenue",
    "city": "Pawtucket",
    "state": "RI",
    "zip": "02860",
    "phone": "(401)723-4520",
    "fax": null,
    "email": null,
    "website": "http://www.freefood.org/",
    "hours": "M-F: 9am to 12pm and 1-3pm by appt.\r\n                                    \r\n                                                                        \n* Important: Please call the food pantries to confirm that the hours have not changed. We do our best to provide full information and details, but food pantries often change their hours without notifying us. We do not want you to waste your time visiting a pantry that is not open.",
    "description": null,
    "requirements": null,
    "scraped_at": "2025-11-02T20:05:54.926057",
    "latitude": 41.8785748,
    "longitude": -71.3879939,
    "geocoded_address": "32, Goff Avenue, Pawtucket, Providence County, Rhode Island, 02860, United States of America"
  },
  {
    "url": "https://www.foodpantries.org/li/salvation_army_of_pawtucket_pantry_02860",
    "name": "Salvation Army of Pawtucket Pantry",
    "address": "102 High Street",
    "city": "Pawtucket",
    "state": "RI",
    "zip": "02860",
    "phone": "(401)723-9533",
    "fax": null,
    "email": null,
    "website": "http://www.freefood.org/",
    "hours": "Please Please call for an appointment\r\n                                    \r\n                                                                        \n* Important: Please call the food pantries to confirm that the hours have not changed. We do our best to provide full information and details, but food pantries often change their hours without notifying us. We do not want you to waste your time visiting a pantry that is not open.",
    "description": null,
    "requirements": null,
    "scraped_at": "2025-11-02T20:05:56.850366",
    "latitude": 41.8791711,
    "longitude": -71.3840085,
    "geocoded_address": "102, High Street, Pawtucket, Providence County, Rhode Island, 02860, United States of America"
  },
  {
    "url": "https://www.foodpantries.org/li/church_of_the_good_shepherd_02860",
    "name": "Church of the Good Shepherd",
    "address": "490 Broadway",
    "city": "Pawtucket",
    "state": "RI",
    "zip": "02860",
    "phone": "(401)723-0408",
    "fax": null,
    "email": null,
    "website": "http://www.freefood.org/",
    "hours": "Saturday: 1pm - 2pm\r\n                                    \r\n                                                                        \n* Important: Please call the food pantries to confirm that the hours have not changed. We do our best to provide full information and details, but food pantries often change their hours without notifying us. We do not want you to waste your time visiting a pantry that is not open.",
    "description": null,
    "requirements": null,
    "scraped_at": "2025-11-02T20:05:59.652997",
    "latitude": 41.8867489,
    "longitude": -71.3753046,
    "geocoded_address": "490, Broadway, Pawtucket, Providence County, Rhode Island, 02860, United States of America"
  },
  {
    "url": "https://www.foodpantries.org/li/living_hope_assembly_of_god_02860",
    "name": "Living Hope Assembly of God",
    "address": "100 Broadway",
    "city": "Pawtucket",
    "state": "RI",
    "zip": "02860",
    "phone": "(401)723-2039",
    "fax": null,
    "email": null,
    "website": "http://www.freefood.org/",
    "hours": "3rd Sat: 10-11:30 am\r\n                                    \r\n                                                                        \n* Important: Please call the food pantries to confirm that the hours have not changed. We do our best to provide full information and details, but food pantries often change their hours without notifying us. We do not want you to waste your time visiting a pantry that is not open.",
    "description": null,
    "requirements": null,
    "scraped_at": "2025-11-02T20:06:02.265397",
    "latitude": 41.8773385,
    "longitude": -71.3804494,
    "geocoded_address": "100, Broadway, Pawtucket, Providence County, Rhode Island, 02860, United States of America"
  },
  {
    "url": "https://www.foodpantries.org/li/first_baptist_church_of_pawtucket_02860",
    "name": "First Baptist Church of Pawtucket",
    "address": "91 Cottage Street",
    "city": "Pawtucket",
    "state": "RI",
    "zip": "02860",
    "phone": "(401)725-7225",
    "fax": null,
    "email": null,
    "website": "http://www.freefood.org/",
    "hours": "Thursday: 9-12:00; Closed 1st Thurs. of month. Call for appt.\r\n                                    \r\n                                                                        \n* Important: Please call the food pantries to confirm that the hours have not changed. We do our best to provide full information and details, but food pantries often change their hours without notifying us. We do not want you to waste your time visiting a pantry that is not open.",
    "description": null,
    "requirements": null,
    "scraped_at": "2025-11-02T20:06:05.006550",
    "latitude": 41.8800433,
    "longitude": -71.3774495,
    "geocoded_address": "91, Cottage Street, Darlington, Pawtucket, Providence County, Rhode Island, 02860, United States of America"
  },
  {
    "url": "https://www.foodpantries.org/li/st_john_the_baptist_food_pantry_02860",
    "name": "St John the Baptist Food Pantry",
    "address": "69 Quincy Avenue",
    "city": "Pawtucket",
    "state": "RI",
    "zip": "02860",
    "phone": "(401) 722-9054",
    "fax": null,
    "email": null,
    "website": "http://www.freefood.org/",
    "hours": "Last two weeks of the month\r\nMonday\r\n 9:30am - 11:00am and 6:00pm - 7:00pm\r\nWednesday\r\n 9:30am - 11:00am\n\r\nSoup Kitchen\r\nTuesday\r\n9:30am \r\n11:30am\n\r\nFor more information, please call. \nCounty or Counties Served: Providence",
    "description": null,
    "requirements": "Must bring an ID and rent receipt for each visit.  Hours:  The last Saturday of the month 8:30am - 9:30am  They are located on Sayles Ave between Pawtucket Ave and Walker St . For more information, please call. \nGo To Details Page For More Information",
    "scraped_at": "2025-11-02T20:06:08.173545",
    "latitude": 41.872373,
    "longitude": -71.397172,
    "geocoded_address": "69, Quincy Avenue, Woodlawn, Pawtucket, Providence County, Rhode Island, 02860, United States of America"
  },
  {
    "url": "https://www.foodpantries.org/li/blackstone_valley_emergency_food_center_02861",
    "name": "Blackstone Valley Emergency Food Center",
    "address": "75 Benefit Street",
    "city": "Pawtucket",
    "state": "RI",
    "zip": "02861",
    "phone": "(401) 724-7170",
    "fax": null,
    "email": null,
    "website": "http://www.freefood.org/",
    "hours": "Monday, Wednesday and Friday 9:00am - 11:30amClosed first full week of every Month.Notes:Picture ID required, rent receipt, income, ID for children.You can come once a month.For more information, please call. \nCounty or Counties Served: Providence",
    "description": null,
    "requirements": null,
    "scraped_at": "2025-11-02T20:06:10.364218",
    "latitude": 41.8925515,
    "longitude": -71.3685802,
    "geocoded_address": "75, Benefit Street, Pawtucket, Providence County, Rhode Island, 02861, United States of America"
  },
  {
    "url": "https://www.foodpantries.org/li/holy_family_parish_02860",
    "name": "Holy Family Parish",
    "address": "195 Walcott Street",
    "city": "Pawtucket",
    "state": "RI",
    "zip": "02860",
    "phone": "(401)724-9190",
    "fax": null,
    "email": null,
    "website": "http://www.freefood.org/",
    "hours": "2nd and 4th Tuesdays 9-11AM\r\n                                    \r\n                                                                        \n* Important: Please call the food pantries to confirm that the hours have not changed. We do our best to provide full information and details, but food pantries often change their hours without notifying us. We do not want you to waste your time visiting a pantry that is not open.",
    "description": null,
    "requirements": null,
    "scraped_at": "2025-11-02T20:06:12.371285",
    "latitude": 41.8773389,
    "longitude": -71.3732485,
    "geocoded_address": "Saint Joseph Church, 195, Walcott Street, Pawtucket, Providence County, Rhode Island, 02860, United States of America"
  },
  {
    "url": "https://www.foodpantries.org/li/pawcatuck_neighborhood_center_06379",
    "name": "Pawcatuck Neighborhood Center",
    "address": "27 Chase Street",
    "city": "Pawcatuck",
    "state": "CT",
    "zip": "06379",
    "phone": null,
    "fax": null,
    "email": null,
    "website": "http://www.the-pnc.org",
    "hours": "Mondays through Fridays 8:30am - 4:00pm\r\n                                    \r\n                                    County or Counties Served: New London",
    "description": null,
    "requirements": null,
    "scraped_at": "2025-11-02T20:06:14.633711",
    "latitude": 41.3745433,
    "longitude": -71.8353961,
    "geocoded_address": "27, Chase Street, Mechanic Street Historic District, Pawcatuck, Stonington, Southeastern Connecticut Planning Region, Connecticut, 06379, United States of America"
  },
  {
    "url": "https://www.foodpantries.org/li/glocester-town-hall",
    "name": "Glocester Town Hall - Human Services",
    "address": "1145 Putnam Pike",
    "city": "Chepachet",
    "state": "RI",
    "zip": "02814",
    "phone": "(401) 568-6206",
    "fax": null,
    "email": null,
    "website": "http://www.freefood.org/",
    "hours": "Wednesday 10:00am -11:30am\u00a0 and 1:00pm - 2:30pm For more information, please call. \nCounty or Counties Served: Providence",
    "description": null,
    "requirements": null,
    "scraped_at": "2025-11-02T20:06:17.141213",
    "latitude": 41.912199,
    "longitude": -71.6681997,
    "geocoded_address": "Glocester Town Hall, 1145, Putnam Pike, Chepachet, Glocester, Providence County, Rhode Island, 02814, United States of America"
  },
  {
    "url": "https://www.foodpantries.org/li/st_patricks_food_closet",
    "name": "Saint Patrick's Food Pantry at Saint Patrick's Church",
    "address": "45 Harrisville Main Street",
    "city": "Harrisville",
    "state": "RI",
    "zip": "02830",
    "phone": "(401) 568-5600",
    "fax": "(401) 568-7132",
    "email": null,
    "website": "http://www.freefood.org/",
    "hours": "Monday 4:30pm - 6:30pmThey will operate on Tuesday if Monday is a holiday. Donations Accepted throughout the year:Non-perishable food itemsCashGift cardsGas cardsPet food Note: The Food Pantry calendar is posted on their website.",
    "description": null,
    "requirements": null,
    "scraped_at": "2025-11-02T20:06:19.412269",
    "latitude": 41.9675483,
    "longitude": -71.6778709,
    "geocoded_address": "45, Harrisville Main Street, Graniteville, Harrisville, Burrillville, Providence County, Rhode Island, 02830, United States of America"
  },
  {
    "url": "https://www.foodpantries.org/li/st_paul_the_apostle_church_02825",
    "name": "St Paul the Apostle Church",
    "address": "116 Danielson Pike #A",
    "city": "Foster",
    "state": "RI",
    "zip": "02825",
    "phone": "(401)647-3664",
    "fax": null,
    "email": null,
    "website": "http://www.freefood.org/",
    "hours": "Saturday9:30am - 11:00am\r\n                                    \r\n                                    County or Counties Served: Providence",
    "description": null,
    "requirements": null,
    "scraped_at": "2025-11-02T20:06:21.519399",
    "latitude": 41.8537098,
    "longitude": -71.7581249,
    "geocoded_address": "Foster, Providence County, Rhode Island, 02825, United States of America",
    "note": "Geocoded to city center (exact address not found)"
  },
  {
    "url": "https://www.foodpantries.org/li/st_theresas_church_food_pantry",
    "name": "St Theresas Church Food Pantry",
    "address": "35 Dion Drive",
    "city": "Harrisville",
    "state": "RI",
    "zip": "02830",
    "phone": "(401) 568-8280",
    "fax": null,
    "email": null,
    "website": "http://www.freefood.org/",
    "hours": "Wednesday and Friday9:15am - 10:00amAlso by request. Please contact them fro more information.\nCounty or Counties Served: Providence",
    "description": null,
    "requirements": "Referral from Family Resources needed.  Pantry Hours:  Tuesday and Thursday 1:30pm - 2:30pm For more information, please call.  \nGo To Details Page For More Information",
    "scraped_at": "2025-11-02T20:06:24.827575",
    "latitude": 41.9656539,
    "longitude": -71.6745112,
    "geocoded_address": "Harrisville, Burrillville, Providence County, Rhode Island, 02858, United States of America",
    "note": "Geocoded to city center (exact address not found)"
  },
  {
    "url": "https://www.foodpantries.org/li/st_theresas_church_02830",
    "name": "St Theresa's Church",
    "address": "35 Dion Drive",
    "city": "Harrisville",
    "state": "RI",
    "zip": "02830",
    "phone": "(401) 568-8280",
    "fax": null,
    "email": null,
    "website": "http://www.freefood.org/",
    "hours": "Wednesday and Friday 9:15am - 10:00amFor more information, please call. \nCounty or Counties Served: Providence",
    "description": null,
    "requirements": "Referral from Family Resources needed.  Pantry Hours:  Tuesday and Thursday 1:30pm - 2:30pm For more information, please call.  \nGo To Details Page For More Information",
    "scraped_at": "2025-11-02T20:06:28.518211",
    "latitude": 41.9656539,
    "longitude": -71.6745112,
    "geocoded_address": "Harrisville, Burrillville, Providence County, Rhode Island, 02858, United States of America",
    "note": "Geocoded to city center (exact address not found)"
  },
  {
    "url": "https://www.foodpantries.org/li/ri-coventry_community_food_services",
    "name": "Comprehensive Community Action",
    "address": "311 Doric Ave.",
    "city": "Coventry",
    "state": "RI",
    "zip": "02816",
    "phone": "(401) 467-9610",
    "fax": null,
    "email": null,
    "website": "https://www.comcap.org",
    "hours": "Monday, Tuesday & Friday\r\n9:30am - 12:30pm; 2:00pm - 4:00pm\r\nWednesday\r\n9:30am - 12:30pm; 2:30pm - 6:30pm\r\nThursday\r\n10:00am - 1:00pm\n\r\nFor more information, please call.",
    "description": null,
    "requirements": null,
    "scraped_at": "2025-11-02T20:06:31.854364",
    "latitude": 41.7000996,
    "longitude": -71.6828444,
    "geocoded_address": "Coventry, Kent County, Rhode Island, United States of America",
    "note": "Geocoded to city center (exact address not found)"
  },
  {
    "url": "https://www.foodpantries.org/li/ri_02816_faith-fellowship-ag",
    "name": "Faith Fellowship AG Food Pantry",
    "address": "1395 Nooseneck Hill Rd",
    "city": "Coventry",
    "state": "RI",
    "zip": "02816",
    "phone": "(401) 397-3383",
    "fax": null,
    "email": null,
    "website": "http://www.freefood.org/",
    "hours": "Every other Saturday from 8:00AM to 12:00PM.Food Pantry Location:Back of the building and down the ramp. \nCounty or Counties Served: Kent",
    "description": null,
    "requirements": null,
    "scraped_at": "2025-11-02T20:06:35.061731",
    "latitude": 41.6757412,
    "longitude": -71.5929144,
    "geocoded_address": "Faith Fellowship AOG Community Church, 1395, Nooseneck Hill Road, Coventry, Kent County, Rhode Island, 02816, United States of America"
  },
  {
    "url": "https://www.foodpantries.org/li/coventry_community_food_services_02816",
    "name": "Coventry Community Food Bank",
    "address": "191 Macarthur Boulevard",
    "city": "Coventry",
    "state": "RI",
    "zip": "02816",
    "phone": "(401) 822-9199",
    "fax": "(401) 822-9128",
    "email": null,
    "website": "http://www.freefood.org/",
    "hours": "Tuesday and Wednesday\r\n9:00am - 1:00pm \r\nThursday\r\n 12:00pm - 3:30pm\n\r\nFor more information, please call. \n\r\nFor more information, please call.",
    "description": null,
    "requirements": null,
    "scraped_at": "2025-11-02T20:06:37.408019",
    "latitude": 41.6975488,
    "longitude": -71.5390099,
    "geocoded_address": "191, Macarthur Boulevard, Quidnick, Anthony, Coventry, Kent County, Rhode Island, 02816, United States of America"
  },
  {
    "url": "https://www.foodpantries.org/li/department-of-human-services-town-of-foster",
    "name": "Department of Human Services, Town of Foster",
    "address": "181 Howard Hill Rd",
    "city": "Foster",
    "state": "RI",
    "zip": "02825",
    "phone": null,
    "fax": null,
    "email": null,
    "website": "http://townoffoster.com",
    "hours": "Monday - Wednesday 8:30am - 3:00pm \r\n                                    \r\n                                    County or Counties Served: Providence",
    "description": null,
    "requirements": null,
    "scraped_at": "2025-11-02T20:06:40.109782",
    "latitude": 41.7835344,
    "longitude": -71.7207723,
    "geocoded_address": "Foster Town Hall, 181, Howard Hill Road, Foster, Providence County, Rhode Island, 02825, United States of America"
  },
  {
    "url": "https://www.foodpantries.org/li/west_warwick_senior_center_pantry_02893",
    "name": "West Warwick Senior Center Pantry",
    "address": "145 Washington Street",
    "city": "West Warwick",
    "state": "RI",
    "zip": "02893",
    "phone": "(401) 822-4450",
    "fax": null,
    "email": null,
    "website": "http://www.freefood.org/",
    "hours": "Monday - Friday 8:30am - 4:00pmFor more information, please call. \nCounty or Counties Served: Kent",
    "description": null,
    "requirements": null,
    "scraped_at": "2025-11-02T20:06:42.539931",
    "latitude": 41.7022657,
    "longitude": -71.5267021,
    "geocoded_address": "145, Washington Street, Arctic, West Warwick, Kent County, Rhode Island, 02893, United States of America"
  },
  {
    "url": "https://www.foodpantries.org/li/ri_west-warwick_emanuel-lutheran-church-food-pantry",
    "name": "Emanuel Lutheran Church Food Pantry",
    "address": "9 New London Avenue",
    "city": "West Warwick",
    "state": "RI",
    "zip": "02893",
    "phone": "(401) 821-8888",
    "fax": null,
    "email": null,
    "website": "http://www.freefood.org/",
    "hours": "Tuesdays from 10:00 AM to 12:00PMAdditional Services:Coffee & pastry served on Tuesday mornings.Food Pantry is a partner of the Rhode Island Food Bank.\nCounty or Counties Served: Kent",
    "description": null,
    "requirements": null,
    "scraped_at": "2025-11-02T20:06:44.878330",
    "latitude": 41.692875,
    "longitude": -71.520473,
    "geocoded_address": "9, New London Avenue, Centerville, Crompton, West Warwick, Kent County, Rhode Island, 02893, United States of America"
  },
  {
    "url": "https://www.foodpantries.org/li/trinity_episcopal_church_02857",
    "name": "Trinity Episcopal Church",
    "address": "249 Danielson Pike",
    "city": "North Scituate",
    "state": "RI",
    "zip": "02857",
    "phone": "(401) 647-2322",
    "fax": null,
    "email": null,
    "website": "http://www.freefood.org/",
    "hours": "Tuesday and Thursday 9:00am - 1:00pmFriday9:00am - 12:00pmIf there is inclement weather during the school year and North Scituate schools are closed then we are closed and will reopen on the following Saturday.  If there is inclement weather during the summer months then the same policy will apply.\nCounty or Counties Served: Providence",
    "description": null,
    "requirements": null,
    "scraped_at": "2025-11-02T20:06:47.364009",
    "latitude": 41.8325753,
    "longitude": -71.597176,
    "geocoded_address": "249, Danielson Pike, North Scituate, Scituate, Providence County, Rhode Island, 02857, United States of America"
  },
  {
    "url": "https://www.foodpantries.org/li/project_pin_06374",
    "name": "Project Pin Food Pantry",
    "address": "23 Village Center Circle",
    "city": "Mossup",
    "state": "CT",
    "zip": "06354",
    "phone": "(860) 564-2668",
    "fax": "(860) 564-3941",
    "email": null,
    "website": "http://www.freefood.org/",
    "hours": "Thursday.  They are now open Friday  1-2:30pm. as well",
    "description": null,
    "requirements": null,
    "scraped_at": "2025-11-02T20:06:49.822079"
  },
  {
    "url": "https://www.foodpantries.org/li/johnston_sda_02919",
    "name": "Johnston SDA",
    "address": "2693 Hartford Avenue",
    "city": "Johnston",
    "state": "RI",
    "zip": "02919",
    "phone": "(401)934-2310",
    "fax": null,
    "email": null,
    "website": "http://www.freefood.org/",
    "hours": "3rd Tues. of the month: 4:30-6 pm\r\n                                    \r\n                                                                        \n* Important: Please call the food pantries to confirm that the hours have not changed. We do our best to provide full information and details, but food pantries often change their hours without notifying us. We do not want you to waste your time visiting a pantry that is not open.",
    "description": null,
    "requirements": null,
    "scraped_at": "2025-11-02T20:06:52.868943",
    "latitude": 41.833334,
    "longitude": -71.5552242,
    "geocoded_address": "2693, Hartford Avenue, Bishop Heights, Johnston, Providence County, Rhode Island, 02919, United States of America"
  },
  {
    "url": "https://www.foodpantries.org/li/ri-st_lukes_episcopalo_church_food_cupboard",
    "name": "St Lukes Episcopal Church Food Cupboard",
    "address": "99 Pierde St",
    "city": "East Greenwich",
    "state": "RI",
    "zip": "02818",
    "phone": null,
    "fax": null,
    "email": null,
    "website": "http://www.freefood.org/",
    "hours": "M, W and F: 10:30am - 12pm\nGo To Details Page For More Information",
    "description": null,
    "requirements": null,
    "scraped_at": "2025-11-02T20:06:55.157298",
    "latitude": 41.6603788,
    "longitude": -71.4558911,
    "geocoded_address": "East Greenwich, Kent County, Rhode Island, 02818, United States of America",
    "note": "Geocoded to city center (exact address not found)"
  },
  {
    "url": "https://www.foodpantries.org/li/east_greenwich_ecumenical_food_cupboard_02818",
    "name": "East Greenwich Ecumenical Food Cupboard",
    "address": "99 Peirce Street",
    "city": "East Greenwich",
    "state": "RI",
    "zip": "02818",
    "phone": "(401)884-4116",
    "fax": null,
    "email": null,
    "website": "http://www.freefood.org/",
    "hours": "M, W and F: 10:30am - 12pm\r\n                                    \r\n                                                                        \n* Important: Please call the food pantries to confirm that the hours have not changed. We do our best to provide full information and details, but food pantries often change their hours without notifying us. We do not want you to waste your time visiting a pantry that is not open.",
    "description": null,
    "requirements": null,
    "scraped_at": "2025-11-02T20:06:58.516721",
    "latitude": 41.6612954,
    "longitude": -71.4515547,
    "geocoded_address": "Saint Luke's Episcopal Church, 99, Peirce Street, East Greenwich, Kent County, Rhode Island, 02818, United States of America"
  },
  {
    "url": "https://www.foodpantries.org/li/svdp_emergency_food_center_02920",
    "name": "SVDP Emergency Food Center - Saint Mary Church",
    "address": "181 Princess Avenue",
    "city": "Cranston",
    "state": "RI",
    "zip": "02920",
    "phone": "(401) 946-5291",
    "fax": "(401) 946-2531",
    "email": null,
    "website": "http://www.svdpri.org",
    "hours": "Monday, Wednesday and Saturday\r\n 9:00am to 12:00pm\n\r\nFor more information, please call. \nCounty or Counties Served: Providence",
    "description": null,
    "requirements": null,
    "scraped_at": "2025-11-02T20:07:01.001090",
    "latitude": 41.794796,
    "longitude": -71.455349,
    "geocoded_address": "181, Princess Avenue, Cranston, Providence County, Rhode Island, 02920, United States of America"
  },
  {
    "url": "https://www.foodpantries.org/li/haitian_baptist_church_of_rhode_island_02920",
    "name": "Haitian Baptist Church Food Pantry",
    "address": "12 Lincoln Avenue",
    "city": "Cranston",
    "state": "RI",
    "zip": "02920",
    "phone": "(401) 944-1440",
    "fax": null,
    "email": null,
    "website": "http://www.freefood.org/",
    "hours": "Friday 10:00 am - 12:00 pmFor more information, please call.\nCounty or Counties Served: Providence",
    "description": null,
    "requirements": null,
    "scraped_at": "2025-11-02T20:07:03.429189",
    "latitude": 41.8029163,
    "longitude": -71.4437157,
    "geocoded_address": "12, Lincoln Avenue, Cranston, Providence County, Rhode Island, 02920, United States of America"
  },
  {
    "url": "https://www.foodpantries.org/li/comprehensive_community_action_program_02910",
    "name": "Comprehensive Community Action Program",
    "address": "311 Doric Avenue",
    "city": "Cranston",
    "state": "RI",
    "zip": "02910",
    "phone": "(401) 467-9610",
    "fax": null,
    "email": null,
    "website": "https://www.comcap.org",
    "hours": "Monday, Tuesday & Friday9:30am - 12:30pm; 2:00pm - 4:00pmWednesday9:30am - 12:30pm; 2:30pm - 6:30pmThursday10:00am - 1:00pmFor more information, please call. \nCounty or Counties Served: Providence",
    "description": null,
    "requirements": null,
    "scraped_at": "2025-11-02T20:07:05.854349",
    "latitude": 41.7761578,
    "longitude": -71.427148,
    "geocoded_address": "311, Doric Avenue, Auburn, Cranston, Providence County, Rhode Island, 02910, United States of America"
  },
  {
    "url": "https://www.foodpantries.org/li/rhode-island-community-food-bank",
    "name": "Rhode Island Community Food Bank",
    "address": "200 Niantic Avenue",
    "city": "Providence",
    "state": "RI",
    "zip": "02907",
    "phone": "(401) 942-6325",
    "fax": "(401) 942-2328",
    "email": null,
    "website": "http://www.freefood.org/",
    "hours": "Monday - Friday8:00 am - 5:00 pmFor more information, please call.\nVolunteering Information:https://rifoodbank.org/get-involved/volunteer-in-the-community \nCounty or Counties Served: Providence",
    "description": null,
    "requirements": null,
    "scraped_at": "2025-11-02T20:07:08.105102",
    "latitude": 41.7968807,
    "longitude": -71.4402346,
    "geocoded_address": "Lang's Bowlarama, 200, Niantic Avenue, Providence, Providence County, Rhode Island, 02907, United States of America"
  },
  {
    "url": "https://www.foodpantries.org/li/interfaith_food_ministry_02907",
    "name": "Interfaith Food Ministry",
    "address": "95 Hathaway Center",
    "city": "Providence",
    "state": "RI",
    "zip": "02907",
    "phone": "(401)461-1773",
    "fax": null,
    "email": null,
    "website": "http://www.freefood.org/",
    "hours": "Sat: 10 am - 12 pm\r\n                                    \r\n                                                                        \n* Important: Please call the food pantries to confirm that the hours have not changed. We do our best to provide full information and details, but food pantries often change their hours without notifying us. We do not want you to waste your time visiting a pantry that is not open.",
    "description": null,
    "requirements": null,
    "scraped_at": "2025-11-02T20:07:10.140769",
    "latitude": 41.8239891,
    "longitude": -71.4128343,
    "geocoded_address": "Providence, Providence County, Rhode Island, United States of America",
    "note": "Geocoded to city center (exact address not found)"
  },
  {
    "url": "https://www.foodpantries.org/li/assumption_of_the_bvm_church_02907",
    "name": "Assumption of the BVM Church",
    "address": "791 Potters Avenue",
    "city": "Providence",
    "state": "RI",
    "zip": "02907",
    "phone": "(401)941-1248",
    "fax": null,
    "email": null,
    "website": "http://www.freefood.org/",
    "hours": "2nd and 4th Wed and Thurs: 10:30-11:45am\r\n                                    \r\n                                                                        \n* Important: Please call the food pantries to confirm that the hours have not changed. We do our best to provide full information and details, but food pantries often change their hours without notifying us. We do not want you to waste your time visiting a pantry that is not open.",
    "description": null,
    "requirements": null,
    "scraped_at": "2025-11-02T20:07:13.621955",
    "latitude": 41.804272,
    "longitude": -71.4354365,
    "geocoded_address": "791, Potters Avenue, Elmwood, Olneyville, Providence, Providence County, Rhode Island, 02907, United States of America"
  },
  {
    "url": "https://www.foodpantries.org/li/lighthouse-community-development-corporation",
    "name": "Lighthouse Community Development Corporation",
    "address": "11 Hawthorne Street",
    "city": "Providence",
    "state": "RI",
    "zip": "02907",
    "phone": "(401) 941-4700",
    "fax": null,
    "email": null,
    "website": "http://lcdcri.com",
    "hours": "2nd and 4th Friday: 11am-1pm\nGo To Details Page For More Information",
    "description": null,
    "requirements": null,
    "scraped_at": "2025-11-02T20:07:16.264951",
    "latitude": 41.8009467,
    "longitude": -71.4271957,
    "geocoded_address": "11, Hawthorne Street, Elmwood, Providence, Providence County, Rhode Island, 02907, United States of America"
  },
  {
    "url": "https://www.foodpantries.org/li/providence_assembly_of_god_pantry_02907",
    "name": "Providence Assembly of God Pantry",
    "address": "353 Elmwood Avenue",
    "city": "Providence",
    "state": "RI",
    "zip": "02907",
    "phone": "(401)461-7210",
    "fax": null,
    "email": null,
    "website": "http://www.freefood.org/",
    "hours": "2nd and 4th Friday: 11am-1pm\r\n                                    \r\n                                                                        \n* Important: Please call the food pantries to confirm that the hours have not changed. We do our best to provide full information and details, but food pantries often change their hours without notifying us. We do not want you to waste your time visiting a pantry that is not open.",
    "description": null,
    "requirements": null,
    "scraped_at": "2025-11-02T20:07:18.845983",
    "latitude": 41.8025433,
    "longitude": -71.4263437,
    "geocoded_address": "Providence Assembly of God Church, 353, Elmwood Avenue, Elmwood, Providence, Providence County, Rhode Island, 02907, United States of America"
  },
  {
    "url": "https://www.foodpantries.org/li/capp-food-pantry",
    "name": "CAPP Food Pantry",
    "address": "85 Atlantic Avenue",
    "city": "Providence",
    "state": "RI",
    "zip": "02907",
    "phone": null,
    "fax": null,
    "email": null,
    "website": "http://www.cappri.org",
    "hours": "Wednesdays 10:00am-2:00pm Food Distribution/Pickup Mondays 12:00pm-4:00pmIntake/Resident RegistrationThe Food Pantry has partnered with URI/SNAP and RI Community Food Bank to offer nutritional education workshops and food demonstrations.    Please call 401-654-4970 x 108 for more information.",
    "description": null,
    "requirements": null,
    "scraped_at": "2025-11-02T20:07:21.277454",
    "latitude": 41.7985077,
    "longitude": -71.4192927,
    "geocoded_address": "85, Atlantic Avenue, Elmwood, Providence, Providence County, Rhode Island, 02907, United States of America"
  },
  {
    "url": "https://www.foodpantries.org/li/west_end_community_center_pantry_02907",
    "name": "West End Community Center Pantry",
    "address": "109 Bucklin Street",
    "city": "Providence",
    "state": "RI",
    "zip": "02907",
    "phone": "(401)781-4242",
    "fax": null,
    "email": null,
    "website": "http://www.freefood.org/",
    "hours": "Monday, Tuesday, Wednesday and Friday 10:00am - 3:00pmClosed 1st week month\r\n                                    \r\n                                    County or Counties Served: Providence",
    "description": null,
    "requirements": null,
    "scraped_at": "2025-11-02T20:07:23.535596",
    "latitude": 41.804448,
    "longitude": -71.4285221,
    "geocoded_address": "West End Community Center, 109, Bucklin Street, Elmwood, Olneyville, Providence, Providence County, Rhode Island, 02907, United States of America"
  },
  {
    "url": "https://www.foodpantries.org/li/christian_power_house_02907",
    "name": "Christian Power House",
    "address": "87 Althea Street",
    "city": "Providence",
    "state": "RI",
    "zip": "02907",
    "phone": "(401)831-3461",
    "fax": null,
    "email": null,
    "website": "http://www.freefood.org/",
    "hours": "Saturday: 9am to 12pm\r\n                                    \r\n                                                                        \n* Important: Please call the food pantries to confirm that the hours have not changed. We do our best to provide full information and details, but food pantries often change their hours without notifying us. We do not want you to waste your time visiting a pantry that is not open.",
    "description": null,
    "requirements": null,
    "scraped_at": "2025-11-02T20:07:25.927425",
    "latitude": 41.8070649,
    "longitude": -71.4322881,
    "geocoded_address": "87, Althea Street, Olneyville, Providence, Providence County, Rhode Island, 02907, United States of America"
  },
  {
    "url": "https://www.foodpantries.org/li/northern-ri-food-pantry",
    "name": "Northern RI Food Pantry",
    "address": "1 Angell Rd",
    "city": "Cumberland",
    "state": "RI",
    "zip": "02864",
    "phone": "(401) 347-5714",
    "fax": null,
    "email": null,
    "website": "http://www.freefood.org/",
    "hours": "The Third Saturday of each month \r\n9:00am - 11:30am\n\r\nWe ask families to register with us the first time they visit and to update family information when it changes.We begin handing out numbers at 8am. A family representative must be present to receive a number.We provide food in quantities determined by our available supply.Families who have an emergency food need should contact a food pantry representative. \n\r\nFor more information, please call.",
    "description": null,
    "requirements": "ID Proof of Lincoln residency Bags to carry your food  For more information, please call. \nGo To Details Page For More Information",
    "scraped_at": "2025-11-02T20:07:27.872852",
    "latitude": 41.937527,
    "longitude": -71.42937,
    "geocoded_address": "1, Angell Road, Ashton, Cumberland, Providence County, Rhode Island, 02864, United States of America"
  },
  {
    "url": "https://www.foodpantries.org/li/lime_rock_baptist_church_02865",
    "name": "Lime Rock Baptist Church",
    "address": "1075 Great Road",
    "city": "Lincoln",
    "state": "RI",
    "zip": "02865",
    "phone": "(401) 334-2999",
    "fax": null,
    "email": null,
    "website": "https://www.lrbcri.org",
    "hours": "Saturday 9:00am - 11:00amRequirements:IDProof of Lincoln residency Bags to carry your foodFor more information, please call.\nCounty or Counties Served: Providence",
    "description": null,
    "requirements": "IDProof of Lincoln residency Bags to carry your foodFor more information, please call.\nCounty or Counties Served: Providence",
    "scraped_at": "2025-11-02T20:07:32.580481",
    "latitude": 41.9238213,
    "longitude": -71.4439995,
    "geocoded_address": "Great Road, Lime Rock, Lincoln, Providence County, Rhode Island, 02865, United States of America"
  },
  {
    "url": "https://www.foodpantries.org/li/st_josephs_cupboard_02895",
    "name": "St Joseph's Cupboard",
    "address": "1200 Mendon Road",
    "city": "Woonsocket",
    "state": "RI",
    "zip": "02895",
    "phone": "(401)766-0626",
    "fax": null,
    "email": null,
    "website": "http://www.freefood.org/",
    "hours": "Fridays 5:30- 6pm\r\n                                    \r\n                                                                        \n* Important: Please call the food pantries to confirm that the hours have not changed. We do our best to provide full information and details, but food pantries often change their hours without notifying us. We do not want you to waste your time visiting a pantry that is not open.",
    "description": null,
    "requirements": "Referral from Family Resources needed.  Pantry Hours:  Tuesday and Thursday 1:30pm - 2:30pm For more information, please call.  \nGo To Details Page For More Information",
    "scraped_at": "2025-11-02T20:07:35.600423",
    "latitude": 42.0033495,
    "longitude": -71.4795816,
    "geocoded_address": "1200, Mendon Road, Woonsocket, Providence County, Rhode Island, 02895, United States of America"
  },
  {
    "url": "https://www.foodpantries.org/li/st_agathas_church_02895",
    "name": "St Agatha's Church",
    "address": "34 Joffre Avenue",
    "city": "Woonsocket",
    "state": "RI",
    "zip": "02895",
    "phone": "(401)767-2950",
    "fax": null,
    "email": null,
    "website": "http://www.freefood.org/",
    "hours": "1st and 3rd Friday: 10:30am - 12pm. Call first.\r\n                                    \r\n                                                                        \n* Important: Please call the food pantries to confirm that the hours have not changed. We do our best to provide full information and details, but food pantries often change their hours without notifying us. We do not want you to waste your time visiting a pantry that is not open.",
    "description": null,
    "requirements": "Referral from Family Resources needed.  Pantry Hours:  Tuesday and Thursday 1:30pm - 2:30pm For more information, please call.  \nGo To Details Page For More Information",
    "scraped_at": "2025-11-02T20:07:38.134608",
    "latitude": 41.9927626,
    "longitude": -71.4990604,
    "geocoded_address": "St. Agatha's Church, 34, Joffre Avenue, Bernon Heights, Woonsocket, Providence County, Rhode Island, 02895, United States of America"
  },
  {
    "url": "https://www.foodpantries.org/li/our_lady_queen_of_martyrs_02895",
    "name": "Our Lady Queen of Martyrs Food Pantry.",
    "address": "1409 Park Avenue",
    "city": "Woonsocket",
    "state": "RI",
    "zip": "02895",
    "phone": "(401) 762-5117",
    "fax": null,
    "email": null,
    "website": "http://www.freefood.org/",
    "hours": "Tuesday and Thursday 1:30pm - 2:30pmFor more information, please call. \nCounty or Counties Served: Providence",
    "description": null,
    "requirements": "Referral from Family Resources needed. Pantry Hours: Tuesday and Thursday 1:30pm - 2:30pmFor more information, please call. \nCounty or Counties Served: Providence",
    "scraped_at": "2025-11-02T20:07:40.142942",
    "latitude": 41.9840945,
    "longitude": -71.5167256,
    "geocoded_address": "1409, Park Avenue, Globe, Woonsocket, Providence County, Rhode Island, 02895, United States of America"
  },
  {
    "url": "https://www.foodpantries.org/li/st_james_episcopal_church_02895",
    "name": "St James Episcopal Church",
    "address": "24 Hamlet Avenue",
    "city": "Woonsocket",
    "state": "RI",
    "zip": "02895",
    "phone": "(401)762-2222",
    "fax": null,
    "email": null,
    "website": "http://www.freefood.org/",
    "hours": "M and W: 3-4 pm\r\n                                    \r\n                                                                        \n* Important: Please call the food pantries to confirm that the hours have not changed. We do our best to provide full information and details, but food pantries often change their hours without notifying us. We do not want you to waste your time visiting a pantry that is not open.",
    "description": null,
    "requirements": "Referral from Family Resources needed.  Pantry Hours:  Tuesday and Thursday 1:30pm - 2:30pm For more information, please call.  \nGo To Details Page For More Information",
    "scraped_at": "2025-11-02T20:07:42.505789",
    "latitude": 42.00255,
    "longitude": -71.5093555,
    "geocoded_address": "24, Hamlet Avenue, Hamlet, Woonsocket, Providence County, Rhode Island, 02895, United States of America"
  },
  {
    "url": "https://www.foodpantries.org/li/all_saints_church_pantry_02895",
    "name": "All Saints Church Pantry",
    "address": "323 Rathbun Street",
    "city": "Woonsocket",
    "state": "RI",
    "zip": "02895",
    "phone": "(401) 762-1100",
    "fax": null,
    "email": null,
    "website": "http://www.freefood.org/",
    "hours": "Wednesday\r\n10:00 am - 11:30 am\n\r\nFor more information, please call.\nCounty or Counties Served: Providence",
    "description": null,
    "requirements": "Referral from Family Resources needed.  Pantry Hours:  Tuesday and Thursday 1:30pm - 2:30pm For more information, please call.  \nGo To Details Page For More Information",
    "scraped_at": "2025-11-02T20:07:45.530752",
    "latitude": 42.0134005,
    "longitude": -71.5025489,
    "geocoded_address": "323, Rathbun Street, Social, Woonsocket, Providence County, Rhode Island, 02895, United States of America"
  },
  {
    "url": "https://www.foodpantries.org/li/st_vincient_de_paulst_theresa_02703",
    "name": "St Vincient de Paul/St Theresa",
    "address": "18 Baltic Street",
    "city": "South Attleboro",
    "state": "MA",
    "zip": "02703",
    "phone": null,
    "fax": null,
    "email": null,
    "website": "http://www.freefood.org/",
    "hours": "Monday, Wednesday and Friday 9:00am - 11:30am  Closed first full week of every Month.   Notes:  Picture ID required, rent receipt, income, ID for children. You can come once a month.   For more information, please call.  \nGo To Details Page For More Information",
    "description": null,
    "requirements": null,
    "scraped_at": "2025-11-02T20:07:48.983498",
    "latitude": 41.8977026,
    "longitude": -71.3554512,
    "geocoded_address": "South Attleboro, 1315, Newport Avenue, Attleboro, Bristol County, Massachusetts, 02703, United States of America",
    "note": "Geocoded to city center (exact address not found)"
  },
  {
    "url": "https://www.foodpantries.org/li/svdp_st_theresas_02703",
    "name": "SVDP St Theresa's",
    "address": "18 Baltic Street",
    "city": "South Attleboro",
    "state": "MA",
    "zip": "02703",
    "phone": "(508)243-4386",
    "fax": null,
    "email": null,
    "website": "http://www.freefood.org/",
    "hours": "W: 9:30-11am\r\n                                    \r\n                                                                        \n* Important: Please call the food pantries to confirm that the hours have not changed. We do our best to provide full information and details, but food pantries often change their hours without notifying us. We do not want you to waste your time visiting a pantry that is not open.",
    "description": null,
    "requirements": null,
    "scraped_at": "2025-11-02T20:07:52.083911",
    "latitude": 41.8977026,
    "longitude": -71.3554512,
    "geocoded_address": "South Attleboro, 1315, Newport Avenue, Attleboro, Bristol County, Massachusetts, 02703, United States of America",
    "note": "Geocoded to city center (exact address not found)"
  },
  {
    "url": "https://www.foodpantries.org/li/svdp_bryans_pantry_02895",
    "name": "SVDP Bryan's Pantry",
    "address": "190 North Main Street",
    "city": "Woonsocket",
    "state": "RI",
    "zip": "02895",
    "phone": "(401) 766-0176",
    "fax": "(401) 766-0185",
    "email": null,
    "website": "http://www.freefood.org/",
    "hours": "Thursday 10:00am - 11:00pm Office is open on Tuesdays and Fridays, 9:00am to 4:00pmFor more information, please call.\nCounty or Counties Served: Providence",
    "description": null,
    "requirements": "Referral from Family Resources needed.  Pantry Hours:  Tuesday and Thursday 1:30pm - 2:30pm For more information, please call.  \nGo To Details Page For More Information",
    "scraped_at": "2025-11-02T20:07:55.178210",
    "latitude": 42.0083508,
    "longitude": -71.5138027,
    "geocoded_address": "Saint Charles Church, 190, North Main Street, Social, Woonsocket, Providence County, Rhode Island, 02895, United States of America"
  },
  {
    "url": "https://www.foodpantries.org/li/ri_north-kingstown-food-pantry",
    "name": "North Kingstown Food Pantry",
    "address": "445 School Street",
    "city": "North Kingstown",
    "state": "RI",
    "zip": "02852",
    "phone": "(401) 885-3663",
    "fax": null,
    "email": null,
    "website": "http://www.freefood.org/",
    "hours": "Monday through Friday 10:00 AM to 2:00 PMFarm Fresh Produce Day on Thursdays.Donations of food and personal care products are accepted.\nVolunteering Information:http://www.nkfoodpantry.org/want-to-help \nCounty or Counties Served: Washington",
    "description": null,
    "requirements": null,
    "scraped_at": "2025-11-02T20:07:57.148717",
    "latitude": 41.615269,
    "longitude": -71.47108,
    "geocoded_address": "445, School Street, Quidnessett, Davisville, North Kingstown, South County, Rhode Island, 02852, United States of America"
  },
  {
    "url": "https://www.foodpantries.org/li/family_service_of_rhode_island_pantry_02852",
    "name": "Family Service of Rhode Island Pantry",
    "address": "415 Tower Hill Road",
    "city": "North Kingstown",
    "state": "RI",
    "zip": "02852",
    "phone": "(401) 515-2459",
    "fax": null,
    "email": null,
    "website": "http://www.freefood.org/",
    "hours": null,
    "description": null,
    "requirements": null,
    "scraped_at": "2025-11-02T20:07:59.550134",
    "latitude": 41.5637703,
    "longitude": -71.4649883,
    "geocoded_address": "415, Tower Hill Road, Belleville, Wickford, North Kingstown, South County, Rhode Island, 02852, United States of America"
  },
  {
    "url": "https://www.foodpantries.org/li/westbay_cap_market_place_02886",
    "name": "Westbay Market Place - CAP",
    "address": "487 Jefferson Blvd.",
    "city": "Warwick",
    "state": "RI",
    "zip": "02886",
    "phone": "(401) 732-4660",
    "fax": null,
    "email": null,
    "website": "http://www.freefood.org/",
    "hours": "Monday - Friday 8:30am - 4:30pmFor more information, please call and dial extension 109\nVolunteering Information:https://www.westbaycap.org/get-involved \nCounty or Counties Served: Kent",
    "description": null,
    "requirements": null,
    "scraped_at": "2025-11-02T20:08:01.822433",
    "latitude": 41.7346964,
    "longitude": -71.440969,
    "geocoded_address": "487, Jefferson Boulevard, Hillsgrove, Warwick, Kent County, Rhode Island, 02886, United States of America"
  },
  {
    "url": "https://www.foodpantries.org/li/ri_02914_east-bay-baptist-church-provision-pantry",
    "name": "East Bay Baptist Church Provision Pantry",
    "address": "10 James Street",
    "city": "East Providence",
    "state": "RI",
    "zip": "02914",
    "phone": "(774) 340-7824",
    "fax": null,
    "email": null,
    "website": "http://www.freefood.org/",
    "hours": "Wednesday7:00pm - 9:00pmSundays10:00am -12:30pmFor more information, please call. \nCounty or Counties Served: Providence",
    "description": null,
    "requirements": null,
    "scraped_at": "2025-11-02T20:08:04.838303",
    "latitude": 41.8200594,
    "longitude": -71.3751808,
    "geocoded_address": "10, James Street, Six Corners, East Providence, Providence County, Rhode Island, 02914, United States of America"
  },
  {
    "url": "https://www.foodpantries.org/li/our_lady_of_the_rosary_pantry_02903",
    "name": "Our Lady of the Rosary Food Pantry",
    "address": "17 Traverse Street",
    "city": "Providence",
    "state": "RI",
    "zip": "02903",
    "phone": "(401) 453-0174",
    "fax": null,
    "email": null,
    "website": "http://www.freefood.org/",
    "hours": "Last Wednesday of the month 6:00 pm-8:00 pm Last Saturday of the month 9:00 - 11:00 am Closed for holidays.\nCounty or Counties Served: Providence",
    "description": null,
    "requirements": null,
    "scraped_at": "2025-11-02T20:08:07.092778",
    "latitude": 41.8191661,
    "longitude": -71.3994812,
    "geocoded_address": "17, Traverse Street, Fox Point, Providence, Providence County, Rhode Island, 02903, United States of America"
  },
  {
    "url": "https://www.foodpantries.org/li/ephese_sda_church_02905",
    "name": "Ephese SDA Church",
    "address": "857 Eddy Street",
    "city": "Providence",
    "state": "RI",
    "zip": "02905",
    "phone": "(401) 941-0998",
    "fax": null,
    "email": null,
    "website": "http://www.freefood.org/",
    "hours": "Wednesday 3:00 am - 4:30 pmFor more information, please call. \nCounty or Counties Served: Providence",
    "description": null,
    "requirements": null,
    "scraped_at": "2025-11-02T20:08:10.741520",
    "latitude": 41.80453,
    "longitude": -71.406774,
    "geocoded_address": "Ephese Seventh-day Adventist French Church, 857, Eddy Street, Providence, Providence County, Rhode Island, 02905, United States of America"
  },
  {
    "url": "https://www.foodpantries.org/li/community_food_share_first_unitarian_church_02906",
    "name": "Community Food Share First Unitarian Church",
    "address": "1 Benevolent Street",
    "city": "Providence",
    "state": "RI",
    "zip": "02906",
    "phone": "(401)457-7149",
    "fax": null,
    "email": null,
    "website": "http://www.freefood.org/",
    "hours": "3rd Monday: 3:30-5:30pm\r\n                                    \r\n                                                                        \n* Important: Please call the food pantries to confirm that the hours have not changed. We do our best to provide full information and details, but food pantries often change their hours without notifying us. We do not want you to waste your time visiting a pantry that is not open.",
    "description": null,
    "requirements": null,
    "scraped_at": "2025-11-02T20:08:12.869305",
    "latitude": 41.8244075,
    "longitude": -71.4049472,
    "geocoded_address": "First Unitarian Church of Providence, 1, Benevolent Street, College Hill, Providence, Providence County, Rhode Island, 02903, United States of America"
  },
  {
    "url": "https://www.foodpantries.org/li/bread_of_life_food_pantry_02916",
    "name": "Bread of Life Food Pantry",
    "address": "100 Newman Avenue",
    "city": "Rumford",
    "state": "RI",
    "zip": "02916",
    "phone": "(401)434-4742",
    "fax": null,
    "email": null,
    "website": "http://www.freefood.org/",
    "hours": "Tuesday - Friday 11:00am - 3:00pm Saturday 9:30am - 12:00pm  For more information, please call.  \nGo To Details Page For More Information",
    "description": null,
    "requirements": "Must bring an ID and rent receipt for each visit.  Hours:  The last Saturday of the month 8:30am - 9:30am  They are located on Sayles Ave between Pawtucket Ave and Walker St . For more information, please call. \nGo To Details Page For More Information",
    "scraped_at": "2025-11-02T20:08:15.634025",
    "latitude": 41.841208,
    "longitude": -71.35167,
    "geocoded_address": "100, Newman Avenue, East Providence Center, Rumford, East Providence, Providence County, Rhode Island, 02916, United States of America"
  },
  {
    "url": "https://www.foodpantries.org/li/salvation_army_of_providence_pantry_02907",
    "name": "Salvation Army of Providence Pantry",
    "address": "386 Broad Street",
    "city": "Providence",
    "state": "RI",
    "zip": "02907",
    "phone": "(401) 831-1119",
    "fax": "(401) 831-8629",
    "email": null,
    "website": "http://www.freefood.org/",
    "hours": "Tuesday and Thursday8:00am - 4:00pm; Closed 12-1 (By appointment)\r\n                                    \r\n                                    County or Counties Served: Providence",
    "description": null,
    "requirements": null,
    "scraped_at": "2025-11-02T20:08:17.613836",
    "latitude": 41.8129706,
    "longitude": -71.4214013,
    "geocoded_address": "The Salvation Army of Providence, RI, 386, Broad Street, Providence, Providence County, Rhode Island, 02907, United States of America"
  },
  {
    "url": "https://www.foodpantries.org/li/access_community_action_agency_danielson_06239",
    "name": "Access Community Action Agency - Danielson",
    "address": "231 Broad Street",
    "city": "Danielson",
    "state": "CT",
    "zip": "06239",
    "phone": "(860) 412-1600",
    "fax": "(860) 774-3347",
    "email": null,
    "website": "http://www.freefood.org/",
    "hours": "Monday- Friday 8:00am - 4:00pm\nCounty or Counties Served: Windham",
    "description": null,
    "requirements": null,
    "scraped_at": "2025-11-02T20:08:20.209318",
    "latitude": 41.8054774,
    "longitude": -71.8801527,
    "geocoded_address": "231, Broad Street, Broad Street\u2013Davis Park Historic District, Danielson, Killingly, Northeastern Connecticut Planning Region, Connecticut, 06239, United States of America"
  },
  {
    "url": "https://www.foodpantries.org/li/friends_of_assisi_food_pantry_06239",
    "name": "Friends of Assisi Food Pantry",
    "address": "77 Water Street",
    "city": "Danielson",
    "state": "CT",
    "zip": "06239",
    "phone": "(860) 774-2310",
    "fax": null,
    "email": null,
    "website": "http://www.freefood.org/",
    "hours": "Tuesday and Friday\r\n 9:00am - 11:00am\n\r\nFor more information, please call. \nCounty or Counties Served: Windham",
    "description": null,
    "requirements": null,
    "scraped_at": "2025-11-02T20:08:22.685891",
    "latitude": 41.8029494,
    "longitude": -71.8857833,
    "geocoded_address": "Friends of Assisi Food Pantry, 77, Water Street, Danielson Main Street Historic District, Danielson, Killingly, Northeastern Connecticut Planning Region, Connecticut, 06239, United States of America"
  },
  {
    "url": "https://www.foodpantries.org/li/ri-st_vincent_de_paul_st_philip_food_pantry",
    "name": "St Vincent De Paul St Philip Food Pantry",
    "address": "622 Putnam Pike",
    "city": "Greenville",
    "state": "RI",
    "zip": "02828",
    "phone": "(401) 949-2949",
    "fax": null,
    "email": null,
    "website": "http://www.freefood.org/",
    "hours": "Wednesday 1:00pm - 3:00pmSaturday 9:00am - 10:30amPlease contact them for more information.\nCounty or Counties Served: Providence",
    "description": null,
    "requirements": null,
    "scraped_at": "2025-11-02T20:08:25.500064",
    "latitude": 41.875113,
    "longitude": -71.564024,
    "geocoded_address": "622, Putnam Pike, West Greenville, Greenville, Smithfield, Providence County, Rhode Island, 02828, United States of America"
  },
  {
    "url": "https://www.foodpantries.org/li/svdp_st_philip_food_pantry_02828",
    "name": "SVDP St Philip Food Pantry",
    "address": "620 Putnam Pike",
    "city": "Greenville",
    "state": "RI",
    "zip": "02828",
    "phone": "(401)949-2949",
    "fax": null,
    "email": null,
    "website": "http://www.freefood.org/",
    "hours": "Wed: 1-3 pm; 1st and 3rd Sat: 9-10:30am\r\n                                    \r\n                                                                        \n* Important: Please call the food pantries to confirm that the hours have not changed. We do our best to provide full information and details, but food pantries often change their hours without notifying us. We do not want you to waste your time visiting a pantry that is not open.",
    "description": null,
    "requirements": null,
    "scraped_at": "2025-11-02T20:08:27.540145",
    "latitude": 41.8703402,
    "longitude": -71.5438797,
    "geocoded_address": "Putnam Pike, Greenville, Smithfield, Providence County, Rhode Island, 02828, United States of America"
  },
  {
    "url": "https://www.foodpantries.org/li/tri-town_community_action_agency_02911",
    "name": "Tri-Town Community Action Agency",
    "address": "33 Maple Ave",
    "city": "North Providence",
    "state": "RI",
    "zip": "02911",
    "phone": "(401) 404-3140",
    "fax": null,
    "email": null,
    "website": "https://tricountyri.org",
    "hours": "First 3 Wednesday of month10:00am - 2:00pmFor more information, please call. \nCounty or Counties Served: Providence",
    "description": null,
    "requirements": null,
    "scraped_at": "2025-11-02T20:08:30.073193",
    "latitude": 41.9998353,
    "longitude": -71.5642608,
    "geocoded_address": "33, Maple Avenue, Forestdale, North Smithfield, Providence County, Rhode Island, 02824, United States of America"
  },
  {
    "url": "https://www.foodpantries.org/li/new_life_worship_center_02917",
    "name": "New Life Worship Center",
    "address": "915 Douglas Pike",
    "city": "Smithfield",
    "state": "RI",
    "zip": "02917",
    "phone": "(401)232-5200",
    "fax": null,
    "email": null,
    "website": "https://atnewlife.org",
    "hours": "Sunday12:00pm - 1:00 pm\r\n                                    \r\n                                    County or Counties Served: Providence",
    "description": null,
    "requirements": "ID Proof of Lincoln residency Bags to carry your food  For more information, please call. \nGo To Details Page For More Information",
    "scraped_at": "2025-11-02T20:08:32.583218",
    "latitude": 41.9122865,
    "longitude": -71.5143526,
    "geocoded_address": "915, Douglas Pike, Stillwater, Smithfield, Providence County, Rhode Island, 02917, United States of America"
  },
  {
    "url": "https://www.foodpantries.org/li/st_roberts_food_closet_02919",
    "name": "St Robert's Food Closet",
    "address": "1804 Atwood Avenue",
    "city": "Johnston",
    "state": "RI",
    "zip": "02919",
    "phone": "(401)231-4987",
    "fax": null,
    "email": null,
    "website": "http://www.freefood.org/",
    "hours": "Thursday: 10am - 12pm\r\n                                    \r\n                                                                        \n* Important: Please call the food pantries to confirm that the hours have not changed. We do our best to provide full information and details, but food pantries often change their hours without notifying us. We do not want you to waste your time visiting a pantry that is not open.",
    "description": null,
    "requirements": null,
    "scraped_at": "2025-11-02T20:08:35.158337",
    "latitude": 41.8378106,
    "longitude": -71.5053068,
    "geocoded_address": "1804, Atwood Avenue, Johnston, Providence County, Rhode Island, 02919, United States of America"
  },
  {
    "url": "https://www.foodpantries.org/li/st_thomas_church_02909",
    "name": "St Thomas Church Food Pantry",
    "address": "65 Fruit Hill Avenue",
    "city": "Providence",
    "state": "RI",
    "zip": "02909",
    "phone": "(401) 272-7118",
    "fax": null,
    "email": null,
    "website": "http://www.freefood.org/",
    "hours": "Tuesday\r\n9:30am - 11:30am\n\r\nFor more information, please call.",
    "description": null,
    "requirements": null,
    "scraped_at": "2025-11-02T20:08:37.242219",
    "latitude": 41.835072,
    "longitude": -71.4681006,
    "geocoded_address": "65, Fruit Hill Avenue, Manton, Providence, Providence County, Rhode Island, 02911, United States of America"
  },
  {
    "url": "https://www.foodpantries.org/li/st_francis_poverello_center_02909",
    "name": "St Francis Poverello Center",
    "address": "668 Hartford Avenue",
    "city": "Providence",
    "state": "RI",
    "zip": "02909",
    "phone": "(401)455-3740",
    "fax": null,
    "email": null,
    "website": "http://www.freefood.org/",
    "hours": "Mon, Wed, Thurs: 10am-3pm; Tues: 10am-1pm.\r\n                                    \r\n                                                                        \n* Important: Please call the food pantries to confirm that the hours have not changed. We do our best to provide full information and details, but food pantries often change their hours without notifying us. We do not want you to waste your time visiting a pantry that is not open.",
    "description": null,
    "requirements": null,
    "scraped_at": "2025-11-02T20:08:40.086802",
    "latitude": 41.8196722,
    "longitude": -71.4669847,
    "geocoded_address": "668, Hartford Avenue, Dyerville, Olneyville, Providence, Providence County, Rhode Island, 02909, United States of America"
  },
  {
    "url": "https://www.foodpantries.org/li/blackstone-millville_food_pantry_01504",
    "name": "Blackstone Millville Food Pantry",
    "address": "48 St Paul St.",
    "city": "Blackstone",
    "state": "MA",
    "zip": "01504",
    "phone": "(508) 883-3542",
    "fax": "(508) 883-2079",
    "email": null,
    "website": "http://www.freefood.org/",
    "hours": "Tuesdays 7 - 8 PM; Saturday: 10 - 11 AM.\r\n                                    \r\n                                    County or Counties Served: Worcester",
    "description": null,
    "requirements": "Referral from Family Resources needed.  Pantry Hours:  Tuesday and Thursday 1:30pm - 2:30pm For more information, please call.  \nGo To Details Page For More Information",
    "scraped_at": "2025-11-02T20:08:42.281730",
    "latitude": 42.017646,
    "longitude": -71.5339245,
    "geocoded_address": "48, Saint Paul Street, Blackstone, Worcester County, Massachusetts, 01504, United States of America"
  },
  {
    "url": "https://www.foodpantries.org/li/people_first_food_pantry_01569",
    "name": "People First Food Pantry",
    "address": "19 Douglas Street",
    "city": "Uxbridge",
    "state": "MA",
    "zip": "01569",
    "phone": null,
    "fax": null,
    "email": null,
    "website": "http://www.freefood.org/",
    "hours": "Wednesdays 11 am - 1 pm and 6:30 - 8 pm\r\n                                    \r\n                                                                        \n* Important: Please call the food pantries to confirm that the hours have not changed. We do our best to provide full information and details, but food pantries often change their hours without notifying us. We do not want you to waste your time visiting a pantry that is not open.",
    "description": null,
    "requirements": null,
    "scraped_at": "2025-11-02T20:08:45.071398",
    "latitude": 42.0768163,
    "longitude": -71.6313163,
    "geocoded_address": "19, Douglas Street, Uxbridge, Worcester County, Massachusetts, 01569, United States of America"
  },
  {
    "url": "https://www.foodpantries.org/li/connecting_for_children_and_families_02895",
    "name": "Connecting for Children and Families",
    "address": "37 Center Street",
    "city": "Woonsocket",
    "state": "RI",
    "zip": "02895",
    "phone": "(401)766-3384",
    "fax": null,
    "email": null,
    "website": "http://www.freefood.org/",
    "hours": "Tuesdays 9am - 1pm\r\n                                    \r\n                                                                        \n* Important: Please call the food pantries to confirm that the hours have not changed. We do our best to provide full information and details, but food pantries often change their hours without notifying us. We do not want you to waste your time visiting a pantry that is not open.",
    "description": null,
    "requirements": "Referral from Family Resources needed.  Pantry Hours:  Tuesday and Thursday 1:30pm - 2:30pm For more information, please call.  \nGo To Details Page For More Information",
    "scraped_at": "2025-11-02T20:08:47.341063",
    "latitude": 42.0005815,
    "longitude": -71.5204649,
    "geocoded_address": "37, Center Street, Woonsocket, Providence County, Rhode Island, 02895, United States of America"
  },
  {
    "url": "https://www.foodpantries.org/li/pro-cap_elmwood_pantry_02907",
    "name": "Community Action Parnership of Providence",
    "address": "518 Hartford Ave.",
    "city": "Providence",
    "state": "RI",
    "zip": "02907",
    "phone": "(401) 273-2000",
    "fax": "(401) 273-2007",
    "email": null,
    "website": "http://www.freefood.org/",
    "hours": "Monday12:00pm - 3:30 pmThursday9:00 am - 2:00pmPantry Distribution Hours:Tuesday1:30 pm - 3:00 pm (for seniors and disabled residents only)Wednesday10:00 am - 2:00 pmTo pick up food you must first register. Arrive early.Hablamos espaol.For more information, please call and dial extension 302 \nCounty or Counties Served: Providence",
    "description": null,
    "requirements": null,
    "scraped_at": "2025-11-02T20:08:49.987612",
    "latitude": 41.8188509,
    "longitude": -71.4612391,
    "geocoded_address": "518, Hartford Avenue, Dyerville, Olneyville, Providence, Providence County, Rhode Island, 02909, United States of America"
  },
  {
    "url": "https://www.foodpantries.org/li/iglesia_el_refugio_02909",
    "name": "Iglesia El Refugio",
    "address": "540 Manton Avenue",
    "city": "Providence",
    "state": "RI",
    "zip": "02909",
    "phone": "(401)270-3323",
    "fax": null,
    "email": null,
    "website": "http://www.freefood.org/",
    "hours": "Tues and Sat: 11am - 2pm\r\n                                    \r\n                                                                        \n* Important: Please call the food pantries to confirm that the hours have not changed. We do our best to provide full information and details, but food pantries often change their hours without notifying us. We do not want you to waste your time visiting a pantry that is not open.",
    "description": null,
    "requirements": null,
    "scraped_at": "2025-11-02T20:08:52.424210",
    "latitude": 41.8260588,
    "longitude": -71.4592057,
    "geocoded_address": "540, Manton Avenue, Dyerville, Olneyville, Providence, Providence County, Rhode Island, 02909, United States of America"
  },
  {
    "url": "https://www.foodpantries.org/li/svdp_st_anthonys_church_02909",
    "name": "SVDP St Anthony's Church",
    "address": "549 Plainfield Street",
    "city": "Providence",
    "state": "RI",
    "zip": "02909",
    "phone": "(401)943-2300",
    "fax": null,
    "email": null,
    "website": "http://www.freefood.org/",
    "hours": "Tues, Wed and Fri: 10-11am\r\n                                    \r\n                                                                        \n* Important: Please call the food pantries to confirm that the hours have not changed. We do our best to provide full information and details, but food pantries often change their hours without notifying us. We do not want you to waste your time visiting a pantry that is not open.",
    "description": null,
    "requirements": null,
    "scraped_at": "2025-11-02T20:08:54.624867",
    "latitude": 41.813162,
    "longitude": -71.456474,
    "geocoded_address": "549, Plainfield Street, Olneyville, Providence, Providence County, Rhode Island, 02909, United States of America"
  },
  {
    "url": "https://www.foodpantries.org/li/silver_lake_community_center_02909",
    "name": "Silver Lake Community Center",
    "address": "529 Plainfield Street",
    "city": "Providence",
    "state": "RI",
    "zip": "02909",
    "phone": "(401)944-8300",
    "fax": null,
    "email": null,
    "website": "http://www.freefood.org/",
    "hours": "Mon, Tues, Thurs: 8:30am-5pm (Closed 1-2pm lunch); Wed: 8:30am-1pm\r\n                                    \r\n                                                                        \n* Important: Please call the food pantries to confirm that the hours have not changed. We do our best to provide full information and details, but food pantries often change their hours without notifying us. We do not want you to waste your time visiting a pantry that is not open.",
    "description": null,
    "requirements": null,
    "scraped_at": "2025-11-02T20:08:56.539141",
    "latitude": 41.8132041,
    "longitude": -71.4561332,
    "geocoded_address": "529, Plainfield Street, Olneyville, Providence, Providence County, Rhode Island, 02909, United States of America"
  },
  {
    "url": "https://www.foodpantries.org/li/maranatha_community_outreach_pantry_02909",
    "name": "Maranatha Community Outreach Pantry",
    "address": "381 Manton Ave.",
    "city": "Providence",
    "state": "RI",
    "zip": "02909",
    "phone": "(401) 521-4860",
    "fax": null,
    "email": null,
    "website": "http://www.freefood.org/",
    "hours": "Friday10:00am - 12:00pm**Prior notice will be made if services are not going to be provided.For more information, please call. \nCounty or Counties Served: Providence",
    "description": null,
    "requirements": null,
    "scraped_at": "2025-11-02T20:08:58.713718",
    "latitude": 41.8244915,
    "longitude": -71.4525129,
    "geocoded_address": "381, Manton Avenue, Dyerville, Olneyville, Providence, Providence County, Rhode Island, 02909, United States of America"
  },
  {
    "url": "https://www.foodpantries.org/li/ri_02837_little-compton-food-bank",
    "name": "Little Compton Food Bank",
    "address": "115 East Main Road",
    "city": "Little Compton",
    "state": "RI",
    "zip": "02837",
    "phone": "(401) 592-0403",
    "fax": null,
    "email": null,
    "website": "http://www.freefood.org/",
    "hours": "Fridays and Saturdays from 9:00 am - 10:30 am.Donations:You may drop off donations at the Wellness Center (115 East Main Road, Little Compton) and left in a bin outside the Food Bank entrance (lower level).Mail donations can be sent to LC Food Bank / PO Box 590 / Little Compton, RI 02837 or donate online.For more information, please call.\nVolunteering Information:Contact Sue Chase, volunteer Coordinator at Susan_chase at Verizon.net. \nCounty or Counties Served: Newport",
    "description": null,
    "requirements": "ID Complete an application on site during regular hours of operation. For more information, please call. \nGo To Details Page For More Information",
    "scraped_at": "2025-11-02T20:09:00.696956",
    "latitude": 41.5212492,
    "longitude": -71.1617439,
    "geocoded_address": "115, East Main Road, Little Compton, Newport County, Rhode Island, 02837, United States of America"
  },
  {
    "url": "https://www.foodpantries.org/li/salvation_army_newport_corps_food_pantry",
    "name": "Salvation Army Newport Corps Food Pantry",
    "address": "51 Memorial Blvd",
    "city": "Newport",
    "state": "RI",
    "zip": "02840",
    "phone": "(401) 846-3234",
    "fax": null,
    "email": null,
    "website": "http://www.freefood.org/",
    "hours": "Monday, Wednesday, and Friday 9:00am - 2:00 pmFor more information, please call. \nCounty or Counties Served: Newport",
    "description": null,
    "requirements": null,
    "scraped_at": "2025-11-02T20:09:02.986173",
    "latitude": 41.4840132,
    "longitude": -71.3118839,
    "geocoded_address": "51, Memorial Boulevard, Newport, Newport County, Rhode Island, 02840, United States of America"
  },
  {
    "url": "https://www.foodpantries.org/li/salvation_army_of_newport_pantry_02840",
    "name": "Salvation Army of Newport Pantry",
    "address": "51 Memorial Boulevard",
    "city": "Newport",
    "state": "RI",
    "zip": "02840",
    "phone": "(401)846-3234",
    "fax": null,
    "email": null,
    "website": "http://www.freefood.org/",
    "hours": "M, W, F: 9am to 12pm\r\n                                    \r\n                                                                        \n* Important: Please call the food pantries to confirm that the hours have not changed. We do our best to provide full information and details, but food pantries often change their hours without notifying us. We do not want you to waste your time visiting a pantry that is not open.",
    "description": null,
    "requirements": null,
    "scraped_at": "2025-11-02T20:09:05.466195",
    "latitude": 41.4840132,
    "longitude": -71.3118839,
    "geocoded_address": "51, Memorial Boulevard, Newport, Newport County, Rhode Island, 02840, United States of America"
  },
  {
    "url": "https://www.foodpantries.org/li/newport_residents_council_02840",
    "name": "Newport Residents Council",
    "address": "1 York Street",
    "city": "Newport",
    "state": "RI",
    "zip": "02840",
    "phone": "(401) 848-3218",
    "fax": null,
    "email": null,
    "website": "http://www.freefood.org/",
    "hours": "Monday - Friday9:00am - 5:00pmFor more information, please call. \nCounty or Counties Served: Newport",
    "description": null,
    "requirements": null,
    "scraped_at": "2025-11-02T20:09:08.269075",
    "latitude": 41.4899827,
    "longitude": -71.3137707,
    "geocoded_address": "Newport, Newport County, Rhode Island, 02840, United States of America",
    "note": "Geocoded to city center (exact address not found)"
  },
  {
    "url": "https://www.foodpantries.org/li/st_josephs_church_food_pantry",
    "name": "St Josephs Church Food Pantry",
    "address": "5 Mann St",
    "city": "Newport",
    "state": "RI",
    "zip": "02840",
    "phone": null,
    "fax": null,
    "email": null,
    "website": "http://www.freefood.org/",
    "hours": "Sat: 12:30-2:30pm\nGo To Details Page For More Information",
    "description": null,
    "requirements": null,
    "scraped_at": "2025-11-02T20:09:12.434086",
    "latitude": 41.4899827,
    "longitude": -71.3137707,
    "geocoded_address": "Newport, Newport County, Rhode Island, 02840, United States of America",
    "note": "Geocoded to city center (exact address not found)"
  },
  {
    "url": "https://www.foodpantries.org/li/st_josephs_church_food_pantry_02840",
    "name": "St Joseph's Church Food Pantry",
    "address": "5 Mann Avenue",
    "city": "Newport",
    "state": "RI",
    "zip": "02840",
    "phone": "(401) 258-5773",
    "fax": "(401) 849-2195",
    "email": null,
    "website": "http://www.freefood.org/",
    "hours": "Tuesday - Friday\r\n 10:00am - 12:00pm\n\r\nFor more information, please call. Alternate number 401-847-0065.",
    "description": null,
    "requirements": null,
    "scraped_at": "2025-11-02T20:09:19.132303",
    "latitude": 41.4923926,
    "longitude": -71.3103095,
    "geocoded_address": "5, Mann Avenue, Newport, Newport County, Rhode Island, 02840, United States of America"
  },
  {
    "url": "https://www.foodpantries.org/li/community_baptist_church_community_grocer_02840",
    "name": "Community Baptist Church - Community Grocer",
    "address": "40 Dr. Marcus Wheatland Boulevard",
    "city": "Newport",
    "state": "RI",
    "zip": "02840",
    "phone": "(401)847-1707",
    "fax": null,
    "email": null,
    "website": "http://www.freefood.org/",
    "hours": "Sat: 12:30-2:30pm\r\n                                    \r\n                                                                        \n* Important: Please call the food pantries to confirm that the hours have not changed. We do our best to provide full information and details, but food pantries often change their hours without notifying us. We do not want you to waste your time visiting a pantry that is not open.",
    "description": null,
    "requirements": null,
    "scraped_at": "2025-11-02T20:09:21.720629",
    "latitude": 41.4929827,
    "longitude": -71.3119619,
    "geocoded_address": "40, Dr Marcus Wheatland Boulevard, Newport, Newport County, Rhode Island, 02840, United States of America"
  },
  {
    "url": "https://www.foodpantries.org/li/martin_luther_king_center_food_pantry",
    "name": "Martin Luther King Center Food Pantry",
    "address": "20 Dr Marcus Wheatland Blvd",
    "city": "Newport",
    "state": "RI",
    "zip": "02840",
    "phone": "(401) 846-4828",
    "fax": null,
    "email": null,
    "website": "http://www.freefood.org/",
    "hours": "Sat: 12:30-2:30pm\nGo To Details Page For More Information",
    "description": null,
    "requirements": null,
    "scraped_at": "2025-11-02T20:09:24.086450",
    "latitude": 41.4917431,
    "longitude": -71.3126623,
    "geocoded_address": "20, Dr Marcus Wheatland Boulevard, Newport, Newport County, Rhode Island, 02840, United States of America"
  },
  {
    "url": "https://www.foodpantries.org/li/martin_luther_king_center_pantry_02840",
    "name": "Martin Luther King Center Pantry",
    "address": "20 Dr. Marcus Wheatland Boulevard",
    "city": "Newport",
    "state": "RI",
    "zip": "02840",
    "phone": "(401) 846-4828",
    "fax": null,
    "email": null,
    "website": "http://www.freefood.org/",
    "hours": "Monday - Friday 10:00am - 2:00pmFor more information, please call. \nVolunteering Information:https://www.mlkccenter.org/volunteer \nCounty or Counties Served: Newport",
    "description": null,
    "requirements": null,
    "scraped_at": "2025-11-02T20:09:26.016703",
    "latitude": 41.4917431,
    "longitude": -71.3126623,
    "geocoded_address": "20, Dr Marcus Wheatland Boulevard, Newport, Newport County, Rhode Island, 02840, United States of America"
  },
  {
    "url": "https://www.foodpantries.org/li/east_bay_community_action_newport_pantry_02840",
    "name": "East Bay Community Action Newport Pantry",
    "address": "19 Broadway",
    "city": "Newport",
    "state": "RI",
    "zip": "02840",
    "phone": "(401)847-7821",
    "fax": null,
    "email": null,
    "website": "http://www.freefood.org/",
    "hours": "Mon, Wed: 9am-2pm, Tues: 9am-2pm and 4-6:30pm\r\n                                    \r\n                                                                        \n* Important: Please call the food pantries to confirm that the hours have not changed. We do our best to provide full information and details, but food pantries often change their hours without notifying us. We do not want you to waste your time visiting a pantry that is not open.",
    "description": null,
    "requirements": null,
    "scraped_at": "2025-11-02T20:09:28.761563",
    "latitude": 41.4910534,
    "longitude": -71.3123037,
    "geocoded_address": "19, Broadway, Newport, Newport County, Rhode Island, 02840, United States of America"
  },
  {
    "url": "https://www.foodpantries.org/li/st_edward_food_and_wellness_center_02904",
    "name": "St Edward Food and Wellness Center",
    "address": "1001 Branch Avenue",
    "city": "Providence",
    "state": "RI",
    "zip": "02904",
    "phone": "(401) 454-0553",
    "fax": null,
    "email": null,
    "website": "http://www.freefood.org/",
    "hours": "Wednesday10:00am - 2:00pm and 5:00pm - 6:00pmFor more information, please call. \nCounty or Counties Served: Providence",
    "description": null,
    "requirements": null,
    "scraped_at": "2025-11-02T20:09:30.854859",
    "latitude": 41.855292,
    "longitude": -71.4395013,
    "geocoded_address": "1001, Branch Avenue, Wanskuck, Providence, Providence County, Rhode Island, 02904, United States of America"
  },
  {
    "url": "https://www.foodpantries.org/li/st_peter_and_st_andrew_food_pantry_02908",
    "name": "Pete and Andy\u2019s Food Pantry and Thrift Shop",
    "address": "70 Pemberton Street",
    "city": "Providence",
    "state": "RI",
    "zip": "02908",
    "phone": "(401) 861-0441",
    "fax": null,
    "email": null,
    "website": "http://www.freefood.org/",
    "hours": "Saturday from 10:00am to 1130pm.\nCounty or Counties Served: Providence",
    "description": null,
    "requirements": null,
    "scraped_at": "2025-11-02T20:09:33.132911",
    "latitude": 41.8291972,
    "longitude": -71.4456447,
    "geocoded_address": "70, Pemberton Street, Olneyville, Providence, Providence County, Rhode Island, 02908, United States of America"
  },
  {
    "url": "https://www.foodpantries.org/li/joslin_community_center_02909",
    "name": "Joslin Community Center",
    "address": "231 Amherst Street",
    "city": "Providence",
    "state": "RI",
    "zip": "02909",
    "phone": "(401)421-8062",
    "fax": null,
    "email": null,
    "website": "http://www.freefood.org/",
    "hours": "M-F: 9 am - 5 pm.\r\n                                    \r\n                                                                        \n* Important: Please call the food pantries to confirm that the hours have not changed. We do our best to provide full information and details, but food pantries often change their hours without notifying us. We do not want you to waste your time visiting a pantry that is not open.",
    "description": null,
    "requirements": null,
    "scraped_at": "2025-11-02T20:09:35.081953",
    "latitude": 41.823227,
    "longitude": -71.447675,
    "geocoded_address": "231, Amherst Street, Dyerville, Olneyville, Providence, Providence County, Rhode Island, 02909, United States of America"
  },
  {
    "url": "https://www.foodpantries.org/li/ri-bethany_baptist_church",
    "name": "Bethany Baptist Church",
    "address": "178 Sayles Ave",
    "city": "Pawtucket",
    "state": "RI",
    "zip": "02860",
    "phone": "(401) 724-5520",
    "fax": null,
    "email": null,
    "website": "http://www.freefood.org/",
    "hours": "The last Saturday of the month8:30am - 9:30am They are located on Sayles Ave between Pawtucket Ave and Walker St . For more information, please call.\nCounty or Counties Served: Providence",
    "description": null,
    "requirements": "Must bring an ID and rent receipt for each visit. Hours: The last Saturday of the month8:30am - 9:30am They are located on Sayles Ave between Pawtucket Ave and Walker St . For more information, please call.\nCounty or Counties Served: Providence",
    "scraped_at": "2025-11-02T20:09:37.319492",
    "latitude": 41.8650281,
    "longitude": -71.3933218,
    "geocoded_address": "178, Sayles Avenue, Woodlawn, Pawtucket, Providence County, Rhode Island, 02860, United States of America"
  },
  {
    "url": "https://www.foodpantries.org/li/st_leo_the_great_pantry_02861",
    "name": "St Leo the Great  Pantry",
    "address": "697 Central Avenue",
    "city": "Pawtucket",
    "state": "RI",
    "zip": "02861",
    "phone": "(401) 722-1220",
    "fax": "(401) 726-3392",
    "email": null,
    "website": "http://www.freefood.org/",
    "hours": "2nd Saturday of the month\r\n 10:00am to 11:00am\r\n3rd Friday of the month\r\n 10:00am to 11:00am\r\nLast Tuesday of the month\r\n 10:00am to 11:00am\n\r\n(Use left side of entrance)\n\r\nFor more information, please call. \nCounty or Counties Served: Providence",
    "description": null,
    "requirements": null,
    "scraped_at": "2025-11-02T20:09:40.009589",
    "latitude": 41.8873694,
    "longitude": -71.3561493,
    "geocoded_address": "697, Central Avenue, Darlington, Pawtucket, Providence County, Rhode Island, 02861, United States of America"
  },
  {
    "url": "https://www.foodpantries.org/li/covenant_congregational_church_02860",
    "name": "Covenant Congregational Church",
    "address": "143 Glenwood Avenue",
    "city": "Pawtucket",
    "state": "RI",
    "zip": "02860",
    "phone": "(401)724-8546",
    "fax": null,
    "email": null,
    "website": "http://www.freefood.org/",
    "hours": "Wednesdays 6:00-7:00 pm\r\n                                    \r\n                                                                        \n* Important: Please call the food pantries to confirm that the hours have not changed. We do our best to provide full information and details, but food pantries often change their hours without notifying us. We do not want you to waste your time visiting a pantry that is not open.",
    "description": null,
    "requirements": "Must bring an ID and rent receipt for each visit.  Hours:  The last Saturday of the month 8:30am - 9:30am  They are located on Sayles Ave between Pawtucket Ave and Walker St . For more information, please call. \nGo To Details Page For More Information",
    "scraped_at": "2025-11-02T20:09:42.736998",
    "latitude": 41.8599073,
    "longitude": -71.3905184,
    "geocoded_address": "143, Glenwood Avenue, Woodlawn, Pawtucket, Providence County, Rhode Island, 02860, United States of America"
  },
  {
    "url": "https://www.foodpantries.org/li/darlington_congregational_church_02861",
    "name": "Darlington Congregational Church",
    "address": "685 Central Avenue",
    "city": "Pawtucket",
    "state": "RI",
    "zip": "02861",
    "phone": "(401)725-6324",
    "fax": null,
    "email": null,
    "website": "http://www.freefood.org/",
    "hours": "2nd Saturday of the month \r\n 10:00am to 11:00am \r\n3rd Friday of the month \r\n 10:00am to 11:00am \r\nLast Tuesday of the month \r\n 10:00am to 11:00am \r\n \r\n(Use left side of entrance) \r\n \r\nFor more information, please call.",
    "description": null,
    "requirements": null,
    "scraped_at": "2025-11-02T20:09:45.379394",
    "latitude": 41.887205,
    "longitude": -71.356829,
    "geocoded_address": "685, Central Avenue, Darlington, Pawtucket, Providence County, Rhode Island, 02861, United States of America"
  },
  {
    "url": "https://www.foodpantries.org/li/st_matthew_trinity_lutheran_food_pantry_02861",
    "name": "St Matthew Trinity Lutheran Food Pantry",
    "address": "690 Newport Avenue",
    "city": "Pawtucket",
    "state": "RI",
    "zip": "02861",
    "phone": "(401)723-5632",
    "fax": null,
    "email": null,
    "website": "http://www.freefood.org/",
    "hours": "Thurs and Fri: 9am to 12pm and 2nd and 4th Sunday: 11am-12pm\r\n                                    \r\n                                                                        \n* Important: Please call the food pantries to confirm that the hours have not changed. We do our best to provide full information and details, but food pantries often change their hours without notifying us. We do not want you to waste your time visiting a pantry that is not open.",
    "description": null,
    "requirements": null,
    "scraped_at": "2025-11-02T20:09:48.623274",
    "latitude": 41.8749412,
    "longitude": -71.3544147,
    "geocoded_address": "690, Newport Avenue, Pawtucket, Providence County, Rhode Island, 02861, United States of America"
  },
  {
    "url": "https://www.foodpantries.org/li/ri_02904_your-neighborhood-food-pantry",
    "name": "Your Neighborhood Food Pantry",
    "address": "533 Branch Ave.",
    "city": "Providence",
    "state": "RI",
    "zip": "02904",
    "phone": "(401) 919-5233",
    "fax": null,
    "email": null,
    "website": "https://ynfp.org",
    "hours": "Tuesdays 11:00am-2:00pmThursdays 4:00pm-7:00pmSaturdays 11:00am-1:00pm\nMission Statement\r\n               YNFP\u2019s mission is to serve neighbors in the North End of Providence who experience food insecurity.\r\n            \nVolunteering Information:Please email us at ynfp22@gmail.com \nCounty or Counties Served: Providence",
    "description": null,
    "requirements": null,
    "scraped_at": "2025-11-02T20:09:50.816706",
    "latitude": 41.8516761,
    "longitude": -71.4230151,
    "geocoded_address": "533, Branch Avenue, Providence, Providence County, Rhode Island, 02904, United States of America"
  },
  {
    "url": "https://www.foodpantries.org/li/ri-blessed_sacrament_food_pantry",
    "name": "Blessed Sacrament Food Pantry",
    "address": "275 Manton Ave",
    "city": "Providence",
    "state": "RI",
    "zip": "02909",
    "phone": "(401) 497-6204",
    "fax": null,
    "email": null,
    "website": "http://www.freefood.org/",
    "hours": "Monday - Friday\r\n 10:00am - 1:00pm\n\r\nPlease contact the for more information.\nCounty or Counties Served: Providence",
    "description": null,
    "requirements": null,
    "scraped_at": "2025-11-02T20:09:54.480634",
    "latitude": 41.822105,
    "longitude": -71.4492257,
    "geocoded_address": "275, Manton Avenue, Dyerville, Olneyville, Providence, Providence County, Rhode Island, 02909, United States of America"
  },
  {
    "url": "https://www.foodpantries.org/li/svdp_holy_ghost_conference_02909",
    "name": "SVDP Holy Ghost Conference",
    "address": "472 Atwells Avenue",
    "city": "Providence",
    "state": "RI",
    "zip": "02909",
    "phone": "(401)421-3551",
    "fax": null,
    "email": null,
    "website": "http://www.freefood.org/",
    "hours": "Thursday: 1-3pm (Call first - by appt only.)\r\n                                    \r\n                                                                        \n* Important: Please call the food pantries to confirm that the hours have not changed. We do our best to provide full information and details, but food pantries often change their hours without notifying us. We do not want you to waste your time visiting a pantry that is not open.",
    "description": null,
    "requirements": null,
    "scraped_at": "2025-11-02T20:09:56.413548",
    "latitude": 41.823843,
    "longitude": -71.4329115,
    "geocoded_address": "Holy Ghost Church, 472, Atwells Avenue, Federal Hill, Olneyville, Providence, Providence County, Rhode Island, 02909, United States of America"
  },
  {
    "url": "https://www.foodpantries.org/li/st_teresa_of_avila_food_pantry_02909",
    "name": "St Teresa of Avila Food Pantry",
    "address": "275 Manton Avenue",
    "city": "Providence",
    "state": "RI",
    "zip": "02909",
    "phone": "(401)497-6204",
    "fax": null,
    "email": null,
    "website": "http://www.freefood.org/",
    "hours": "M-F: 10am-1:00 pm (Call first.)\r\n                                    \r\n                                                                        \n* Important: Please call the food pantries to confirm that the hours have not changed. We do our best to provide full information and details, but food pantries often change their hours without notifying us. We do not want you to waste your time visiting a pantry that is not open.",
    "description": null,
    "requirements": null,
    "scraped_at": "2025-11-02T20:09:59.169560",
    "latitude": 41.822105,
    "longitude": -71.4492257,
    "geocoded_address": "275, Manton Avenue, Dyerville, Olneyville, Providence, Providence County, Rhode Island, 02909, United States of America"
  },
  {
    "url": "https://www.foodpantries.org/li/pica_food_cupboard_02903",
    "name": "PICA Food Cupboard",
    "address": "15 Hayes Street",
    "city": "Providence",
    "state": "RI",
    "zip": "02908",
    "phone": "(401) 454-7422",
    "fax": null,
    "email": null,
    "website": "http://ripica.org",
    "hours": "Monday - Thursday*9:00am - 11:00am Saturday* 9:00am - 12:00pm*Arrive at 8:30am for an orientationMeal Hours:Friday4:00pm - 6:30pmFor more information, please call. \nCounty or Counties Served: Providence",
    "description": null,
    "requirements": null,
    "scraped_at": "2025-11-02T20:10:01.051689",
    "latitude": 41.8293317,
    "longitude": -71.415994,
    "geocoded_address": "15, Hayes Street, Downtown, Providence, Providence County, Rhode Island, 02908, United States of America"
  },
  {
    "url": "https://www.foodpantries.org/li/nickerson_community_center_pantry_02909",
    "name": "Nickerson Community Center Pantry",
    "address": "133 Delaine Street",
    "city": "Providence",
    "state": "RI",
    "zip": "02909",
    "phone": "(401)351-2241",
    "fax": null,
    "email": null,
    "website": "http://www.freefood.org/",
    "hours": "Thurs. and Fri: 9am to 12pm\r\n                                    \r\n                                                                        \n* Important: Please call the food pantries to confirm that the hours have not changed. We do our best to provide full information and details, but food pantries often change their hours without notifying us. We do not want you to waste your time visiting a pantry that is not open.",
    "description": null,
    "requirements": null,
    "scraped_at": "2025-11-02T20:10:03.817805",
    "latitude": 41.8188385,
    "longitude": -71.4434343,
    "geocoded_address": "133, Delaine Street, Olneyville, Providence, Providence County, Rhode Island, 02909, United States of America"
  },
  {
    "url": "https://www.foodpantries.org/li/mt._hope_neighborhood_association_02906",
    "name": "Mt. Hope Neighborhood Association",
    "address": "199 Camp Street",
    "city": "Providence",
    "state": "RI",
    "zip": "02906",
    "phone": "(401) 521-8830",
    "fax": null,
    "email": null,
    "website": "http://www.freefood.org/",
    "hours": "Monday, Wednesday, Friday\r\n9:00am - 3:00pm (By appointment)\n\r\nFor more information, please call.",
    "description": null,
    "requirements": null,
    "scraped_at": "2025-11-02T20:10:05.818823",
    "latitude": 41.8437417,
    "longitude": -71.4021237,
    "geocoded_address": "Mount Hope Neighborhood Association, 199, Camp Street, Providence, Providence County, Rhode Island, 02906, United States of America"
  },
  {
    "url": "https://www.foodpantries.org/li/john_hope_settlement_house_pantry_02903",
    "name": "John Hope Settlement House Pantry",
    "address": "7 Thomas Whitten Way",
    "city": "Providence",
    "state": "RI",
    "zip": "02903",
    "phone": "(401)421-6993",
    "fax": null,
    "email": null,
    "website": "http://www.freefood.org/",
    "hours": "Mon, Tues, Thurs, Fri: 9am - 4:30pm; Wed: 10:30am - 4:30pm (with bread only 9-10am)\r\n                                    \r\n                                                                        \n* Important: Please call the food pantries to confirm that the hours have not changed. We do our best to provide full information and details, but food pantries often change their hours without notifying us. We do not want you to waste your time visiting a pantry that is not open.",
    "description": null,
    "requirements": null,
    "scraped_at": "2025-11-02T20:10:08.184769",
    "latitude": 41.8239891,
    "longitude": -71.4128343,
    "geocoded_address": "Providence, Providence County, Rhode Island, United States of America",
    "note": "Geocoded to city center (exact address not found)"
  },
  {
    "url": "https://www.foodpantries.org/li/gospel_tabernacle_outreach_pantry_02908",
    "name": "Gospel Tabernacle Outreach Pantry",
    "address": "145 Oakland Avenue",
    "city": "Providence",
    "state": "RI",
    "zip": "02908",
    "phone": "(401)454-0988",
    "fax": null,
    "email": null,
    "website": "http://www.freefood.org/",
    "hours": "2nd Mon of the month: 5:30-7pm; 4th Mon: 6-7pm\r\n                                    \r\n                                                                        \n* Important: Please call the food pantries to confirm that the hours have not changed. We do our best to provide full information and details, but food pantries often change their hours without notifying us. We do not want you to waste your time visiting a pantry that is not open.",
    "description": null,
    "requirements": null,
    "scraped_at": "2025-11-02T20:10:11.263791",
    "latitude": 41.8384105,
    "longitude": -71.429455,
    "geocoded_address": "145, Oakland Avenue, Providence, Providence County, Rhode Island, 02908, United States of America"
  },
  {
    "url": "https://www.foodpantries.org/li/federal_hill_house_pantry_02909",
    "name": "Federal Hill House Pantry",
    "address": "35 Swiss Street",
    "city": "Providence",
    "state": "RI",
    "zip": "02909",
    "phone": "(401) 421-1095",
    "fax": null,
    "email": null,
    "website": "http://www.freefood.org/",
    "hours": "Monday 10:00am - 3:00pm Wednesday and Friday 10:00am - 4:00pm (By appt, call first.) Pantry closed from 12-1 each day for lunch.For more information, please call. \nCounty or Counties Served: Providence",
    "description": null,
    "requirements": null,
    "scraped_at": "2025-11-02T20:10:13.322343",
    "latitude": 41.8229507,
    "longitude": -71.4337249,
    "geocoded_address": "35, Swiss Street, Federal Hill, Olneyville, Providence, Providence County, Rhode Island, 02909, United States of America"
  },
  {
    "url": "https://www.foodpantries.org/li/church_of_god_shalom_02908",
    "name": "Church of God Shalom",
    "address": "145 Chad Brown Street",
    "city": "Providence",
    "state": "RI",
    "zip": "02908",
    "phone": "(401)421-5112",
    "fax": null,
    "email": null,
    "website": "http://www.freefood.org/",
    "hours": "Friday: 4-6pm\r\n                                    \r\n                                                                        \n* Important: Please call the food pantries to confirm that the hours have not changed. We do our best to provide full information and details, but food pantries often change their hours without notifying us. We do not want you to waste your time visiting a pantry that is not open.",
    "description": null,
    "requirements": null,
    "scraped_at": "2025-11-02T20:10:16.006858",
    "latitude": 41.8387028,
    "longitude": -71.4271564,
    "geocoded_address": "145, Chad Brown Street, Providence, Providence County, Rhode Island, 02908, United States of America"
  },
  {
    "url": "https://www.foodpantries.org/li/camp_street_ministries_02906",
    "name": "Camp Street Ministries",
    "address": "190 Camp Street",
    "city": "Providence",
    "state": "RI",
    "zip": "02906",
    "phone": "(401) 421-5474",
    "fax": null,
    "email": null,
    "website": "http://www.freefood.org/",
    "hours": "Tuesday - Friday\r\n 10:00am - 3:00pm (Bread only)\r\nSaturday\r\n 10:00am - 1:00pm\n\r\nFor more information, please call. \nCounty or Counties Served: Providence",
    "description": null,
    "requirements": null,
    "scraped_at": "2025-11-02T20:10:18.010254",
    "latitude": 41.843743,
    "longitude": -71.4023881,
    "geocoded_address": "United First Born Church of Jesus Christ;Camp Street Community Ministries, 190, Camp Street, Providence, Providence County, Rhode Island, 02906, United States of America"
  },
  {
    "url": "https://www.foodpantries.org/li/the_louis_and_goldie_chester_full_plate_kosher_pantry_02907",
    "name": "Jewish Collaborative Services Full Plate Kosher Pantry",
    "address": "1165 North Main Street",
    "city": "Providence",
    "state": "RI",
    "zip": "02907",
    "phone": "(401) 331-1244",
    "fax": null,
    "email": null,
    "website": "https://jcsri.org",
    "hours": "Saturday \r\n 9:00am - 11:00am \r\n \r\nFor more information, please call.",
    "description": null,
    "requirements": "Must bring an ID and rent receipt for each visit.  Hours:  The last Saturday of the month 8:30am - 9:30am  They are located on Sayles Ave between Pawtucket Ave and Walker St . For more information, please call. \nGo To Details Page For More Information",
    "scraped_at": "2025-11-02T20:10:20.346672",
    "latitude": 41.8522901,
    "longitude": -71.4019108,
    "geocoded_address": "1165, North Main Street, Providence, Providence County, Rhode Island, 02904, United States of America"
  },
  {
    "url": "https://www.foodpantries.org/li/svdp_st_raymonds_church_02904",
    "name": "SVDP St Raymond's Church",
    "address": "1240 North Main Street",
    "city": "Providence",
    "state": "RI",
    "zip": "02904",
    "phone": "(401) 351-4224",
    "fax": null,
    "email": null,
    "website": "http://www.freefood.org/",
    "hours": "Saturday\r\n 9:00am - 11:00am\n\r\nFor more information, please call. \nCounty or Counties Served: Providence",
    "description": null,
    "requirements": "Must bring an ID and rent receipt for each visit.  Hours:  The last Saturday of the month 8:30am - 9:30am  They are located on Sayles Ave between Pawtucket Ave and Walker St . For more information, please call. \nGo To Details Page For More Information",
    "scraped_at": "2025-11-02T20:10:22.826197",
    "latitude": 41.8540653,
    "longitude": -71.4004859,
    "geocoded_address": "1240, North Main Street, Providence, Providence County, Rhode Island, 02904, United States of America"
  },
  {
    "url": "https://www.foodpantries.org/li/svdp_st_charles_pantry_02907",
    "name": "SVDP St Charles Pantry",
    "address": "178 Dexter St",
    "city": "Providence",
    "state": "RI",
    "zip": "02907",
    "phone": "(401)273-1108",
    "fax": null,
    "email": null,
    "website": "http://www.freefood.org/",
    "hours": "Tues: 10am-12pm; Fri: 9:30-11:30am (Sept. - Dec: Tuesdays only, no Fridays.)\r\n                                    \r\n                                                                        \n* Important: Please call the food pantries to confirm that the hours have not changed. We do our best to provide full information and details, but food pantries often change their hours without notifying us. We do not want you to waste your time visiting a pantry that is not open.",
    "description": null,
    "requirements": null,
    "scraped_at": "2025-11-02T20:10:25.557559",
    "latitude": 41.8115944,
    "longitude": -71.4290228,
    "geocoded_address": "178, Dexter Street, Federal Hill, Olneyville, Providence, Providence County, Rhode Island, 02907, United States of America"
  },
  {
    "url": "https://www.foodpantries.org/li/operation_compassion_church_of_god_02907",
    "name": "Operation Compassion Church of God",
    "address": "297 Elmwood Avenue",
    "city": "Providence",
    "state": "RI",
    "zip": "02907",
    "phone": "(401)275-2326",
    "fax": null,
    "email": null,
    "website": "http://www.freefood.org/",
    "hours": "2nd and 4th Thursday of the month: 9:30 - 11:30am\r\n                                    \r\n                                                                        \n* Important: Please call the food pantries to confirm that the hours have not changed. We do our best to provide full information and details, but food pantries often change their hours without notifying us. We do not want you to waste your time visiting a pantry that is not open.",
    "description": null,
    "requirements": null,
    "scraped_at": "2025-11-02T20:10:27.675438",
    "latitude": 41.8044902,
    "longitude": -71.4253496,
    "geocoded_address": "297, Elmwood Avenue, Elmwood, Providence, Providence County, Rhode Island, 02907, United States of America"
  },
  {
    "url": "https://www.foodpantries.org/li/gateway_healthcare_capital_city_community_center_food_pantry_02908",
    "name": "Gateway Healthcare Capital City Community Center Food Pantry",
    "address": "110 Ruggles Street",
    "city": "Providence",
    "state": "RI",
    "zip": "02908",
    "phone": "(401)455-3880",
    "fax": null,
    "email": null,
    "website": "http://www.freefood.org/",
    "hours": "Mon, Tues, Fri: 9am to 12pm; Wed: 10:30am-4pm; Thurs: 9am-4pm\r\n                                    \r\n                                                                        \n* Important: Please call the food pantries to confirm that the hours have not changed. We do our best to provide full information and details, but food pantries often change their hours without notifying us. We do not want you to waste your time visiting a pantry that is not open.",
    "description": null,
    "requirements": null,
    "scraped_at": "2025-11-02T20:10:30.461374",
    "latitude": 41.837864,
    "longitude": -71.428442,
    "geocoded_address": "110, Ruggles Street, Providence, Providence County, Rhode Island, 02908, United States of America"
  },
  {
    "url": "https://www.foodpantries.org/li/the-elisha-project",
    "name": "The Elisha Project",
    "address": "65 Newport Ave",
    "city": "Providence",
    "state": "RI",
    "zip": "02903",
    "phone": "(401) 400-1628",
    "fax": null,
    "email": null,
    "website": "http://www.freefood.org/",
    "hours": "Tuesday - Friday11:00am - 3:00pmSaturday9:30am - 12:00pmFor more information, please call. \nCounty or Counties Served: Providence",
    "description": null,
    "requirements": "Must bring an ID and rent receipt for each visit.  Hours:  The last Saturday of the month 8:30am - 9:30am  They are located on Sayles Ave between Pawtucket Ave and Walker St . For more information, please call. \nGo To Details Page For More Information",
    "scraped_at": "2025-11-02T20:10:32.368931",
    "latitude": 41.8612851,
    "longitude": -71.3543751,
    "geocoded_address": "65, Newport Avenue, Pawtucket, Providence County, Rhode Island, 02861, United States of America"
  },
  {
    "url": "https://www.foodpantries.org/li/seekonk_portuguese_sda_church_02771",
    "name": "Seekonk Portuguese SDA Church",
    "address": "781 Newman Avenue",
    "city": "Seekonk",
    "state": "MA",
    "zip": "02771",
    "phone": "(508)761-9181",
    "fax": null,
    "email": null,
    "website": "http://www.freefood.org/",
    "hours": "3rd Wed of the monthL 6:30-7:30pm\r\n                                    \r\n                                                                        \n* Important: Please call the food pantries to confirm that the hours have not changed. We do our best to provide full information and details, but food pantries often change their hours without notifying us. We do not want you to waste your time visiting a pantry that is not open.",
    "description": null,
    "requirements": null,
    "scraped_at": "2025-11-02T20:10:36.158061",
    "latitude": 41.8656139,
    "longitude": -71.3290872,
    "geocoded_address": "781, Newman Avenue, Seekonk, Bristol County, Massachusetts, 02271, United States of America"
  },
  {
    "url": "https://www.foodpantries.org/li/east_bay_community_action_program_tiverton_pantry_02878",
    "name": "East Bay Community Action Program Tiverton Pantry",
    "address": "1048 Stafford Road",
    "city": "Tiverton",
    "state": "RI",
    "zip": "02878",
    "phone": "(401) 625-5134",
    "fax": null,
    "email": null,
    "website": "https://www.ebcap.org",
    "hours": "Tuesday9:00am - 2:00pmWednesday9:00am - 6:30pmRequirements:IDComplete an application on site during regular hours of operation.For more information, please call. \nCounty or Counties Served: Newport",
    "description": null,
    "requirements": "IDComplete an application on site during regular hours of operation.For more information, please call. \nCounty or Counties Served: Newport",
    "scraped_at": "2025-11-02T20:10:38.299877",
    "latitude": 41.6345255,
    "longitude": -71.1470621,
    "geocoded_address": "1048, Stafford Road, Eagleville, Tiverton, Newport County, Rhode Island, 02878, United States of America"
  },
  {
    "url": "https://www.foodpantries.org/li/ma_02723_gates-of-hope",
    "name": "Gates Of Hope",
    "address": "112 Flint Street",
    "city": "Fall River",
    "state": "MA",
    "zip": "02723",
    "phone": "(508) 837-1962",
    "fax": null,
    "email": null,
    "website": "http://www.freefood.org/",
    "hours": "The 2nd & 4th Monday of the month 4:00 pm - 5:00 pm  For more information, please call.  \nGo To Details Page For More Information",
    "description": null,
    "requirements": "Please bring your own bags and  I.D. proof of address.For more information, please call. \nVolunteering Information:https://www.gatesofhopeinc.org/volunteer \nCounty or Counties Served: Bristol",
    "scraped_at": "2025-11-02T20:10:40.648516",
    "latitude": 41.6929717,
    "longitude": -71.1352938,
    "geocoded_address": "112, Flint Street, Flint Village, Fall River, Bristol County, Massachusetts, 02723, United States of America"
  },
  {
    "url": "https://www.foodpantries.org/li/veterans_assoc._of_bristol_county_02720",
    "name": "Veteran's Assoc. of Bristol County",
    "address": "755 Pine Street",
    "city": "Fall River",
    "state": "MA",
    "zip": "02720",
    "phone": null,
    "fax": null,
    "email": null,
    "website": "http://www.freefood.org/",
    "hours": "The 2nd & 4th Monday of the month 4:00 pm - 5:00 pm  For more information, please call.  \nGo To Details Page For More Information",
    "description": null,
    "requirements": "Please bring your own bags and I.D. proof of address. For more information, please call. \nGo To Details Page For More Information",
    "scraped_at": "2025-11-02T20:10:42.810091",
    "latitude": 41.7026904,
    "longitude": -71.1454111,
    "geocoded_address": "755, Pine Street, Fall River, Bristol County, Massachusetts, 02722, United States of America"
  },
  {
    "url": "https://www.foodpantries.org/li/sacred_heart_pantry_02720",
    "name": "Sacred Heart Pantry",
    "address": "160 Seabury Street",
    "city": "Fall River",
    "state": "MA",
    "zip": "02720",
    "phone": "(508) 673-0852",
    "fax": null,
    "email": null,
    "website": "http://www.freefood.org/",
    "hours": "The 2nd & 4th Monday of the month 4:00 pm - 5:00 pmFor more information, please call. \nCounty or Counties Served: Bristol",
    "description": null,
    "requirements": "Please bring your own bags and I.D. proof of address. For more information, please call. \nGo To Details Page For More Information",
    "scraped_at": "2025-11-02T20:10:45.347197",
    "latitude": 41.7028549,
    "longitude": -71.1472554,
    "geocoded_address": "160, Seabury Street, Fall River, Bristol County, Massachusetts, 02720, United States of America"
  },
  {
    "url": "https://www.foodpantries.org/li/potters-provision-ministries",
    "name": "Potters Provision Ministries",
    "address": "500 Sandy Hollow Road",
    "city": "Mystic",
    "state": "CT",
    "zip": "06355",
    "phone": "(860) 861-0018",
    "fax": null,
    "email": null,
    "website": "http://www.freefood.org/",
    "hours": "Monday - Friday 8:30am - 4:30pm For more information, please call. \nGo To Details Page For More Information",
    "description": null,
    "requirements": null,
    "scraped_at": "2025-11-02T20:10:47.877818",
    "latitude": 41.3542366,
    "longitude": -71.9664041,
    "geocoded_address": "Mystic, Stonington, Southeastern Connecticut Planning Region, Connecticut, 06388, United States of America",
    "note": "Geocoded to city center (exact address not found)"
  },
  {
    "url": "https://www.foodpantries.org/li/new_life_christian_fellowship_church_food_pantry_006339",
    "name": "New Life Christian Fellowship Church - Food Pantry",
    "address": "1729 Center Groton Rd",
    "city": "Ledyard",
    "state": "CT",
    "zip": "06339",
    "phone": "(860) 464-9098",
    "fax": null,
    "email": null,
    "website": "https://nlcfct.org",
    "hours": "The 2nd and 4th Saturday of the month 9:00am - 11:00amFor more information, please call. \nCounty or Counties Served: New London",
    "description": null,
    "requirements": null,
    "scraped_at": "2025-11-02T20:10:51.617728",
    "latitude": 41.409571,
    "longitude": -72.0200348,
    "geocoded_address": "New Life Church, 1729, Center Groton Road, Ledyard Center, Ledyard, Southeastern Connecticut Planning Region, Connecticut, 06339, United States of America"
  },
  {
    "url": "https://www.foodpantries.org/li/town_of_groton_human_services_department_social_services_06340",
    "name": "Town of Groton - Human Services Department - Social Services",
    "address": "2 Fort Hill Road",
    "city": "Groton",
    "state": "CT",
    "zip": "06340",
    "phone": "(860) 441-6760",
    "fax": null,
    "email": null,
    "website": "http://www.freefood.org/",
    "hours": "Monday - Friday8:30am - 4:30pmFor more information, please call. \nCounty or Counties Served: New London",
    "description": null,
    "requirements": null,
    "scraped_at": "2025-11-02T20:10:53.825446",
    "latitude": 41.3474487,
    "longitude": -72.0373289,
    "geocoded_address": "2, Fort Hill Road, Midway, Poquonock Bridge, Groton, Southeastern Connecticut Planning Region, Connecticut, 06340, United States of America"
  },
  {
    "url": "https://www.foodpantries.org/li/ct_ledyard_ledyard-food-pantry",
    "name": "Ledyard Food Pantry",
    "address": "722 Colonel Ledyard Highway",
    "city": "Ledyard",
    "state": "CT",
    "zip": "06339",
    "phone": "(860) 464-3222",
    "fax": null,
    "email": null,
    "website": "http://www.freefood.org/",
    "hours": "Tuesday, Thursday & Saturday: 9:00 am to 11:00 am",
    "description": null,
    "requirements": "New clients are required to fill out a short eligibility form upon arrival. This form must be upd\nGo To Details Page For More Information",
    "scraped_at": "2025-11-02T20:10:55.922441",
    "latitude": 41.4404716,
    "longitude": -72.0151465,
    "geocoded_address": "Ledyard Congregational Church, 722, Colonel Ledyard Highway, Ledyard Center, Ledyard, Southeastern Connecticut Planning Region, Connecticut, 06339, United States of America"
  },
  {
    "url": "https://www.foodpantries.org/li/town_of_ledyard_youth_and_social_services_06339",
    "name": "Town of Ledyard - Youth And Social Services",
    "address": "741 Colonel Ledyard Highway",
    "city": "Ledyard",
    "state": "CT",
    "zip": "06339",
    "phone": null,
    "fax": null,
    "email": null,
    "website": "http://www.freefood.org/",
    "hours": "Saturday of the month 9:00am - 11:00am For more information, please call.",
    "description": null,
    "requirements": "New clients are required to fill out a short eligibility form upon arrival. This form must be upd\nGo To Details Page For More Information",
    "scraped_at": "2025-11-02T20:10:58.601781",
    "latitude": 41.4424593,
    "longitude": -72.0175966,
    "geocoded_address": "Ledyard Town Hall, 741, Colonel Ledyard Highway, Ledyard Center, Ledyard, Southeastern Connecticut Planning Region, Connecticut, 06339, United States of America"
  }
]