[
  {
    "url": "https://www.foodpantries.org/li/tabithas-way-local-food-pantry",
    "name": "Tabitha's Way Local Food Pantry",
    "address": "920 E State Road",
    "city": "American Fork",
    "state": "UT",
    "zip": "84003",
    "phone": "(801) 692-1881",
    "fax": null,
    "email": null,
    "website": "http://www.freefood.org/",
    "hours": "Tuesday \r\n 11:00am - 2:00on\r\n Wednesday\r\n11:00am - 2:00pm\r\nThursday\r\n11:00am - 2:00pm\r\nFriday\r\n11:00am - 2:00pm\r\n1st and 3rd Saturday of the month\r\n 10:00am - 12:00pm",
    "description": null,
    "requirements": "New clients bring ID for each family member and proof of address. Se habla espaol.\n\r\nFor more information, please call. \nVolunteering Information:https://tabithaswaynorth.org/how-to-help \nCounty or Counties Served: Utah",
    "scraped_at": "2025-11-03T22:02:10.739822",
    "latitude": 40.3768064,
    "longitude": -111.7959146,
    "geocoded_address": "American Fork, Utah County, Utah, 84003, United States of America",
    "note": "Geocoded to city center (exact address not found)"
  },
  {
    "url": "https://www.foodpantries.org/li/ut_84003_calvary-food-bank",
    "name": "Calvary Food Bank",
    "address": "340 East State Road",
    "city": "American Fork",
    "state": "UT",
    "zip": "84003",
    "phone": "(801) 756-1446",
    "fax": null,
    "email": null,
    "website": "http://www.freefood.org/",
    "hours": "Monday 6:00 PM - 8:00 PM Thursday 6:00 - 8:00 PM\r\n                                    \r\n                                    County or Counties Served: Utah",
    "description": null,
    "requirements": null,
    "scraped_at": "2025-11-03T22:02:15.874036",
    "latitude": 40.3768064,
    "longitude": -111.7959146,
    "geocoded_address": "American Fork, Utah County, Utah, 84003, United States of America",
    "note": "Geocoded to city center (exact address not found)"
  },
  {
    "url": "https://www.foodpantries.org/li/lds_bishops_storehouse_and_lindon_84042",
    "name": "LDS Bishop's Storehouse and Lindon",
    "address": "940 West Center Street",
    "city": "Lindon",
    "state": "UT",
    "zip": "84042",
    "phone": "(801) 785-0995",
    "fax": null,
    "email": null,
    "website": "http://www.freefood.org/",
    "hours": "Tuesday \r\n 11:00am - 2:00on \r\n Wednesday \r\n11:00am - 2:00pm \r\nThursday \r\n11:00am - 2:00pm \r\nFriday \r\n11:00am - 2:00pm \r\n1st and 3rd Saturday o\nGo To Details Page For More Information",
    "description": null,
    "requirements": null,
    "scraped_at": "2025-11-03T22:02:22.290397",
    "latitude": 40.3432857,
    "longitude": -111.72076,
    "geocoded_address": "Lindon, Utah County, Utah, 84042, United States of America",
    "note": "Geocoded to city center (exact address not found)"
  },
  {
    "url": "https://www.foodpantries.org/li/provo_1st_baptist_church_pantry_84604",
    "name": "Provo 1st Baptist Church Pantry",
    "address": "1144 West Columbia Lane",
    "city": "Provo",
    "state": "UT",
    "zip": "84604",
    "phone": "(801) 374-8489",
    "fax": null,
    "email": null,
    "website": "http://fbcprovo.org",
    "hours": "Monday\r\n 9:00am and 11:00am\n\r\nFor more information, please call.\nCounty or Counties Served: Utah",
    "description": null,
    "requirements": "Complete and bring with you intake form (pick one up at the pantry) Picture ID Declare your income  Other Services:  Rental Assistance, and Employment Assistance. \nGo To Details Page For More Information",
    "scraped_at": "2025-11-03T22:02:25.704517",
    "latitude": 40.2538828,
    "longitude": -111.6734472,
    "geocoded_address": "West Columbia Lane, Rivergrove, Provo, Utah County, Utah, 84602, United States of America"
  },
  {
    "url": "https://www.foodpantries.org/li/community_action_services_(cas)_and_provo_84601",
    "name": "Community Action Services (CAS) and Provo",
    "address": "815 South Freedom Blvd",
    "city": "Provo",
    "state": "UT",
    "zip": "84601",
    "phone": "(801) 373-8200",
    "fax": null,
    "email": null,
    "website": "http://www.freefood.org/",
    "hours": "Monday - Friday 8:30am - 4:30pmFor more information, please call. \nVolunteering Information:https://communityactionprovo.org/circles \nCounty or Counties Served: Utah",
    "description": null,
    "requirements": "Complete and bring with you intake form (pick one up at the pantry) Picture ID Declare your income  Other Services:  Rental Assistance, and Employment Assistance. \nGo To Details Page For More Information",
    "scraped_at": "2025-11-03T22:02:28.305151",
    "latitude": 40.2230166,
    "longitude": -111.6621669,
    "geocoded_address": "815, South Freedom Boulevard, Franklin South, Provo, Utah County, Utah, 84601, United States of America"
  },
  {
    "url": "https://www.foodpantries.org/li/ut_84606_food-and-care-coalition-provo",
    "name": "Food and Care Coalition Provo",
    "address": "299 E 900 S",
    "city": "Provo",
    "state": "UT",
    "zip": "84606",
    "phone": "(801) 373-1825",
    "fax": null,
    "email": null,
    "website": "https://foodandcare.org",
    "hours": "Monday - Friday8:30am - 5:30pmSaturday8:30am - 9:30am; 12:00pm - 1:00pm; 4:30pm - 5:30pmFor more information, please call. \nVolunteering Information:https://foodandcare.org/volunteer-oportunities \nCounty or Counties Served: Utah",
    "description": null,
    "requirements": "Complete and bring with you intake form (pick one up at the pantry) Picture ID Declare your income  Other Services:  Rental Assistance, and Employment Assistance. \nGo To Details Page For More Information",
    "scraped_at": "2025-11-03T22:02:32.802127",
    "latitude": 40.2228856,
    "longitude": -111.6533105,
    "geocoded_address": "Food and Care Coalition, 299, East 900 South, East Bay, Provo, Utah County, Utah, 84606, United States of America"
  },
  {
    "url": "https://www.foodpantries.org/li/st_andrews_food_pantry_84065",
    "name": "St Andrew's Food Pantry",
    "address": "11835 South 3600 West",
    "city": "Riverton",
    "state": "UT",
    "zip": "84065",
    "phone": "(801) 871-5080",
    "fax": null,
    "email": null,
    "website": "http://www.freefood.org/",
    "hours": "Thursdays 5:00pm - 7:00pmFor more information, please call.\nVolunteering Information:Volunteer Opportunities\r\nWednesdays, 7:30 am -- 11:00 am \r\nThursdays 12:30-2:30pm \nCounty or Counties Served: Salt Lake",
    "description": null,
    "requirements": null,
    "scraped_at": "2025-11-03T22:02:35.799021",
    "latitude": 40.5361108,
    "longitude": -111.9760288,
    "geocoded_address": "Saint Andrew Catholic Church, 11835 South, 3600 West, Riverton, Salt Lake County, Utah, 84065, United States of America"
  },
  {
    "url": "https://www.foodpantries.org/li/ut_84094_entrada-food-pantry",
    "name": "Entrada HS - Food Pantry",
    "address": "825 E 9085 S",
    "city": "Sandy",
    "state": "UT",
    "zip": "84094",
    "phone": "(801) 826-6673",
    "fax": null,
    "email": null,
    "website": "http://www.freefood.org/",
    "hours": "The 2nd and 4th Sunday of the month 1:00pm - 3:00pm (Call for Holiday exceptions) All are welcome. No proof of residency needed.  For more information, please call.  \nGo To Details Page For More Information",
    "description": null,
    "requirements": null,
    "scraped_at": "2025-11-03T22:02:38.328336",
    "latitude": 40.5864038,
    "longitude": -111.8487693,
    "geocoded_address": "Waters Lane, Canyon View Estates, Sandy, Salt Lake County, Utah, 84094, United States of America"
  },
  {
    "url": "https://www.foodpantries.org/li/st_james_episcopal_church_84047",
    "name": "St. James Episcopal Church Food Pantry",
    "address": "7486 Union Park Ave",
    "city": "Midvale",
    "state": "UT",
    "zip": "84047",
    "phone": "(801) 566-1311",
    "fax": "(801) 566-1322",
    "email": null,
    "website": "http://www.freefood.org/",
    "hours": "The 2nd and 4th Sunday of the month 1:00pm - 3:00pm(Call for Holiday exceptions)All are welcome. No proof of residency needed. For more information, please call. \nCounty or Counties Served: Salt Lake",
    "description": null,
    "requirements": null,
    "scraped_at": "2025-11-03T22:02:41.166159",
    "latitude": 40.6148544,
    "longitude": -111.8595686,
    "geocoded_address": "Saint James Episcopal Church, 7486, Union Park Avenue, Essex Court Condo, Midvale, Salt Lake County, Utah, 84047, United States of America"
  },
  {
    "url": "https://www.foodpantries.org/li/st_josephs_84084",
    "name": "St Joseph's Food Pantry",
    "address": "7405 South Redwood Road",
    "city": "West Jordan",
    "state": "UT",
    "zip": "84084",
    "phone": "(801) 255-8902",
    "fax": "(801) 561-4062",
    "email": null,
    "website": "http://sjtwchurch.org",
    "hours": "Tuesday 4:00pm to 6:00pm For more information, please call.\nCounty or Counties Served: Salt Lake",
    "description": null,
    "requirements": null,
    "scraped_at": "2025-11-03T22:02:43.254293",
    "latitude": 40.6323024,
    "longitude": -111.9388068,
    "geocoded_address": "Redwood Road, West Jordan, Salt Lake County, Utah, 84084, United States of America"
  },
  {
    "url": "https://www.foodpantries.org/li/grace_bible_church_84663",
    "name": "Grace Bible Church",
    "address": "239 South Main Street",
    "city": "Springville",
    "state": "UT",
    "zip": "84663",
    "phone": null,
    "fax": null,
    "email": null,
    "website": "http://www.freefood.org/",
    "hours": "3rd Sat: 10 am - 2 pm\r\n                                    \r\n                                                                        \n* Important: Please call the food pantries to confirm that the hours have not changed. We do our best to provide full information and details, but food pantries often change their hours without notifying us. We do not want you to waste your time visiting a pantry that is not open.",
    "description": null,
    "requirements": "Complete and bring with you intake form (pick one up at the pantry) Picture ID Declare your income  Other Services:  Rental Assistance, and Employment Assistance. \nGo To Details Page For More Information",
    "scraped_at": "2025-11-03T22:02:46.494197",
    "latitude": 40.1632902,
    "longitude": -111.6105326,
    "geocoded_address": "239, South Main Street, Springville, Utah County, Utah, 84663, United States of America"
  },
  {
    "url": "https://www.foodpantries.org/li/ut_beaver_beaver-care-share-food-pantry",
    "name": "Beaver Care & Share Food Pantry",
    "address": "50 South 100 East",
    "city": "Beaver",
    "state": "UT",
    "zip": "84713",
    "phone": "(435) 438-6266",
    "fax": null,
    "email": null,
    "website": "http://www.freefood.org/",
    "hours": "2nd & 4th Thursday of each month: 3:00 pm to 6:00 pm\r\nService Area:\r\nBeaver County.\r\nDocumentation Required:\r\nPicture ID\r\nSOCIAL SECURITY NUMBER",
    "description": null,
    "requirements": null,
    "scraped_at": "2025-11-03T22:02:48.974792",
    "latitude": 38.2133688,
    "longitude": -112.9219225,
    "geocoded_address": "100 East, Minersville, Beaver County, Utah, 84752, United States of America"
  },
  {
    "url": "https://www.foodpantries.org/li/milford_care_and_share_84751",
    "name": "Milford Care and Share",
    "address": "298 South Main Street",
    "city": "Milford",
    "state": "UT",
    "zip": "84751",
    "phone": "(435) 387-5398",
    "fax": null,
    "email": null,
    "website": "http://www.freefood.org/",
    "hours": "The 1st and 3rd Tuesday and\u00a0 Wednesday of the month\r\n10:00am to 5:00pm\n\r\nFor more information, please call.",
    "description": null,
    "requirements": null,
    "scraped_at": "2025-11-03T22:02:51.800349",
    "latitude": 38.3877793,
    "longitude": -113.0080266,
    "geocoded_address": "South Main Street, Milford, Beaver County, Utah, 84751, United States of America"
  },
  {
    "url": "https://www.foodpantries.org/li/beryl_junction_care_and_share_84714",
    "name": "Beryl Junction Care and Share",
    "address": "291 North Beryl Hwy",
    "city": "Beryl Junction",
    "state": "UT",
    "zip": "84714",
    "phone": "(435) 439-5682",
    "fax": null,
    "email": null,
    "website": "http://www.freefood.org/",
    "hours": "The 1st Saturday of the monthFor more information, please call. \nCounty or Counties Served: Iron",
    "description": null,
    "requirements": null,
    "scraped_at": "2025-11-03T22:02:54.638685",
    "latitude": 37.7128274,
    "longitude": -113.656256,
    "geocoded_address": "291, North Beryl Highway, Beryl Junction, Iron County, Utah, 84714, United States of America"
  },
  {
    "url": "https://www.foodpantries.org/li/central_utah_food_sharing_and_bicknell_84715",
    "name": "Central Utah Food Sharing and Bicknell",
    "address": "475 South 300 East",
    "city": "Bicknell",
    "state": "UT",
    "zip": "84715",
    "phone": "(435) 836-2422",
    "fax": null,
    "email": null,
    "website": "http://www.freefood.org/",
    "hours": "2nd, 3rd and 4th Tuesday of the month\r\n                                    \r\n                                                                        \n* Important: Please call the food pantries to confirm that the hours have not changed. We do our best to provide full information and details, but food pantries often change their hours without notifying us. We do not want you to waste your time visiting a pantry that is not open.",
    "description": null,
    "requirements": null,
    "scraped_at": "2025-11-03T22:02:57.401107",
    "latitude": 38.3401205,
    "longitude": -111.544867,
    "geocoded_address": "Bicknell, Wayne County, Utah, 84715, United States of America",
    "note": "Geocoded to city center (exact address not found)"
  },
  {
    "url": "https://www.foodpantries.org/li/bountiful_community_food_pantry_84010",
    "name": "Bountiful Community Food Pantry",
    "address": "480 East 150 North",
    "city": "Bountiful",
    "state": "UT",
    "zip": "84010",
    "phone": "(801) 299-8464",
    "fax": null,
    "email": null,
    "website": "http://www.freefood.org/",
    "hours": "Monday - Friday 11:00M - 1:00PM Tuesday, Wednesday and Thursday 6:00pm - 8:00pm Saturday 10:00am - 12:00pmDonation Hours:Monday - Friday 8:00am - 1:00pmTuesday, Wednesday Thursday 6:00pm - 8:00pmSaturday 8:00am - 12:00pmSe habla espanol. Spanish speaking assistance is available.For more information, please call. \nVolunteering Information:https://bountifulfoodpantry.org/volunteer \nCounty or Counties Served: Davis",
    "description": null,
    "requirements": "You must have a CURRENT PICTURE ID FOR EVERY ADULT (18 AND UP) IN THE HOUSEHOLD (it does NOT have to be a state-issued ID) and IDENTIFICATION FOR EVERY CHILD, \nGo To Details Page For More Information",
    "scraped_at": "2025-11-03T22:03:00.635197",
    "latitude": 40.8906399,
    "longitude": -111.8698051,
    "geocoded_address": "Bountiful Food Pantry, 480, 150 North, Central Heights, Bountiful, Davis County, Utah, 84010, United States of America"
  },
  {
    "url": "https://www.foodpantries.org/li/box_elder_community_pantry_84302",
    "name": "Box Elder Community Pantry",
    "address": "272 N 200 W",
    "city": "Brigham City",
    "state": "UT",
    "zip": "84302",
    "phone": null,
    "fax": null,
    "email": null,
    "website": "http://www.freefood.org/",
    "hours": "Monday and Tuesdays 3 and 6 pm\nGo To Details Page For More Information",
    "description": null,
    "requirements": null,
    "scraped_at": "2025-11-03T22:03:02.765800",
    "latitude": 41.516623,
    "longitude": -112.0181564,
    "geocoded_address": "272, North 200 West, Brigham City, Box Elder County, Utah, 84302, United States of America"
  },
  {
    "url": "https://www.foodpantries.org/li/box_elder_community_food_pantry_84302",
    "name": "Box Elder Community Food Pantry",
    "address": "272 North 200 West",
    "city": "Brigham City",
    "state": "UT",
    "zip": "84302",
    "phone": null,
    "fax": null,
    "email": null,
    "website": "http://www.freefood.org/",
    "hours": "Monday and Fri: 12 pm - 4 pm or by appointmentand.\r\n                                    \r\n                                                                        \n* Important: Please call the food pantries to confirm that the hours have not changed. We do our best to provide full information and details, but food pantries often change their hours without notifying us. We do not want you to waste your time visiting a pantry that is not open.",
    "description": null,
    "requirements": null,
    "scraped_at": "2025-11-03T22:03:09.729269",
    "latitude": 41.516623,
    "longitude": -112.0181564,
    "geocoded_address": "272, North 200 West, Brigham City, Box Elder County, Utah, 84302, United States of America"
  },
  {
    "url": "https://www.foodpantries.org/li/tremonton_community_food_pantry_84337",
    "name": "Tremonton Community Food Pantry",
    "address": "180 South Tremont St",
    "city": "Tremonton",
    "state": "UT",
    "zip": "84337",
    "phone": null,
    "fax": null,
    "email": null,
    "website": "http://www.freefood.org/",
    "hours": "Monday and Tuesdays 3 and 6 pm\r\n                                    \r\n                                                                        \n* Important: Please call the food pantries to confirm that the hours have not changed. We do our best to provide full information and details, but food pantries often change their hours without notifying us. We do not want you to waste your time visiting a pantry that is not open.",
    "description": null,
    "requirements": null,
    "scraped_at": "2025-11-03T22:03:11.930290",
    "latitude": 41.7097363,
    "longitude": -112.1663275,
    "geocoded_address": "Tremonton Food Pantry, 180, South Tremont Street, Tremonton, Box Elder County, Utah, 84337, United States of America"
  },
  {
    "url": "https://www.foodpantries.org/li/cache_community_food_pantry_84321",
    "name": "Cache Community Food Pantry",
    "address": "359 South Main Street",
    "city": "Logan",
    "state": "UT",
    "zip": "84321",
    "phone": "(435) 753-7140",
    "fax": null,
    "email": null,
    "website": "http://www.freefood.org/",
    "hours": "Monday through Thursday 8:30am - 3:30pm Friday 8:30 am - 12:00pmFor more information, please call. \nCounty or Counties Served: Cache",
    "description": null,
    "requirements": null,
    "scraped_at": "2025-11-03T22:03:16.501866",
    "latitude": 41.7248041,
    "longitude": -111.8353419,
    "geocoded_address": "359 South Main Street, Main Street, Logan, Cache County, Utah, 84321, United States of America"
  },
  {
    "url": "https://www.foodpantries.org/li/lds_bishops_storehouse_and_cannery_and_ogden_84404",
    "name": "LDS Bishop's Storehouse and Cannery and Ogden",
    "address": "1525 Lincoln Avenue",
    "city": "Ogden",
    "state": "UT",
    "zip": "84404",
    "phone": "(801) 399-3721",
    "fax": null,
    "email": null,
    "website": "http://www.freefood.org/",
    "hours": "Friday \r\n 10:00 am until the food is gone. \r\n \r\nFor more information, please call.",
    "description": null,
    "requirements": null,
    "scraped_at": "2025-11-03T22:03:18.716745",
    "latitude": 41.2394151,
    "longitude": -111.9757257,
    "geocoded_address": "1525, Lincoln Avenue, Ogden, Weber County, Utah, 84404, United States of America"
  },
  {
    "url": "https://www.foodpantries.org/li/griffin_memorial_church_food_pantry_84401",
    "name": "Griffin Memorial Church - Food Pantry",
    "address": "2424 E Avenue",
    "city": "Ogden",
    "state": "UT",
    "zip": "84401",
    "phone": "(801) 399-2171",
    "fax": null,
    "email": null,
    "website": "http://www.freefood.org/",
    "hours": "Friday\r\n 10:00 am until the food is gone. \n\r\nFor more information, please call. \nCounty or Counties Served: Weber",
    "description": null,
    "requirements": null,
    "scraped_at": "2025-11-03T22:03:21.409266",
    "latitude": 41.222124,
    "longitude": -111.99535,
    "geocoded_address": "2424, E Avenue, Ogden, Weber County, Utah, 84401, United States of America"
  },
  {
    "url": "https://www.foodpantries.org/li/ut_ogden_ogden-seventh-day-adventist-church-food-pantr",
    "name": "Ogden Seventh-day Adventist Church Food Pantry",
    "address": "2185 Taylor Avenue",
    "city": "Ogden",
    "state": "UT",
    "zip": "84401",
    "phone": "(801) 393-6991",
    "fax": null,
    "email": null,
    "website": "http://www.freefood.org/",
    "hours": "Every Saturday at 12:30 PM\nCounty or Counties Served: Weber",
    "description": null,
    "requirements": null,
    "scraped_at": "2025-11-03T22:03:23.804300",
    "latitude": 41.227467,
    "longitude": -111.939851,
    "geocoded_address": "2185, Taylor Avenue, Ogden, Weber County, Utah, 84401, United States of America"
  },
  {
    "url": "https://www.foodpantries.org/li/ut_ogden_Joyce-Hansen-Hall-Food-Bank",
    "name": "Joyce Hansen Hall Food Bank",
    "address": "2504 F Avenue",
    "city": "Ogden",
    "state": "UT",
    "zip": "84401",
    "phone": "(801) 394-5944",
    "fax": null,
    "email": null,
    "website": "http://www.freefood.org/",
    "hours": "Wednesday of the month 5:30pm - 7:00pm  For more information, please call.",
    "description": null,
    "requirements": null,
    "scraped_at": "2025-11-03T22:03:26.347893",
    "latitude": 41.220077,
    "longitude": -111.997151,
    "geocoded_address": "2504, F Avenue, Cargil Animal Nutrition, Ogden, Weber County, Utah, 84401, United States of America"
  },
  {
    "url": "https://www.foodpantries.org/li/the_salvation_army_and_ogden_84401",
    "name": "The Salvation Army and Ogden",
    "address": "2615 Grant Avenue (300 East)",
    "city": "Ogden",
    "state": "UT",
    "zip": "84401",
    "phone": "(801) 621-3580",
    "fax": null,
    "email": null,
    "website": "http://www.freefood.org/",
    "hours": "Sunday \r\n 1:00pm - 2:30pm \r\n Wednesday \r\n 3:00pm - 5:30pm \r\nThursday \r\n 5:00pm - 6:30pm \r\n \r\nFor more information, please call.",
    "description": null,
    "requirements": null,
    "scraped_at": "2025-11-03T22:03:29.522102",
    "latitude": 41.2230048,
    "longitude": -111.9738429,
    "geocoded_address": "Ogden, Weber County, Utah, United States of America",
    "note": "Geocoded to city center (exact address not found)"
  },
  {
    "url": "https://www.foodpantries.org/li/lds_bishops_storehouse_and_logan_84341",
    "name": "LDS Bishop's Storehouse and Logan",
    "address": "165 East 2200 North",
    "city": "Logan",
    "state": "UT",
    "zip": "84341",
    "phone": null,
    "fax": null,
    "email": null,
    "website": "http://www.freefood.org/",
    "hours": "Monday through Thursday 8:30am - 3:30pm Friday 8:30 am - 12:00pm For more information, please call. \nGo To Details Page For More Information",
    "description": null,
    "requirements": null,
    "scraped_at": "2025-11-03T22:03:35.819029",
    "latitude": 41.7729582,
    "longitude": -111.8292196,
    "geocoded_address": "165, 2200 North, North Logan, Cache County, Utah, 84341, United States of America"
  },
  {
    "url": "https://www.foodpantries.org/li/clubb_jesus_84401",
    "name": "CLUBB Jesus",
    "address": "3333 Grant Avenue",
    "city": "Ogden",
    "state": "UT",
    "zip": "84401",
    "phone": "(801) 695-3890",
    "fax": null,
    "email": null,
    "website": "http://www.freefood.org/",
    "hours": "Sunday\r\n 1:00pm - 2:30pm\r\n Wednesday\r\n 3:00pm - 5:30pm \r\nThursday\r\n 5:00pm - 6:30pm\n\r\nFor more information, please call. \nCounty or Counties Served: Weber",
    "description": null,
    "requirements": null,
    "scraped_at": "2025-11-03T22:03:39.212913",
    "latitude": 41.2028631,
    "longitude": -111.9738202,
    "geocoded_address": "3333, Grant Avenue, Ogden, Weber County, Utah, 84401, United States of America"
  },
  {
    "url": "https://www.foodpantries.org/li/clothing-exchange",
    "name": "Clothing Exchange",
    "address": "40 S Center Street",
    "city": "Castle Dale",
    "state": "UT",
    "zip": "84513",
    "phone": "(435) 381-5410",
    "fax": null,
    "email": null,
    "website": "http://www.freefood.org/",
    "hours": "Tuesday and Friday: 12 and 4pm\nGo To Details Page For More Information",
    "description": null,
    "requirements": null,
    "scraped_at": "2025-11-03T22:03:41.520823",
    "latitude": 39.2106311,
    "longitude": -111.0197291,
    "geocoded_address": "40, South Center Street, Castle Dale, Emery County, Utah, 84513, United States of America"
  },
  {
    "url": "https://www.foodpantries.org/li/Emery_County_Food_Bank",
    "name": "Emery County Food Bank",
    "address": "40 S Center St",
    "city": "Castle Dale",
    "state": "UT",
    "zip": "84513",
    "phone": null,
    "fax": null,
    "email": null,
    "website": "http://www.freefood.org/",
    "hours": "Tuesdays though Thursdays 12:00 pm - 4:00 pm and Friday: 9:00 am- 1:00 pm\nGo To Details Page For More Information",
    "description": null,
    "requirements": null,
    "scraped_at": "2025-11-03T22:03:45.976950",
    "latitude": 39.2106311,
    "longitude": -111.0197291,
    "geocoded_address": "40, South Center Street, Castle Dale, Emery County, Utah, 84513, United States of America"
  },
  {
    "url": "https://www.foodpantries.org/li/lds_bishops_storehouse_castle_dale_84513",
    "name": "LDS Bishop's Storehouse - Castle Dale",
    "address": "560 West Highway 29",
    "city": "Castle Dale",
    "state": "UT",
    "zip": "84513",
    "phone": null,
    "fax": null,
    "email": null,
    "website": "http://www.freefood.org/",
    "hours": "Tuesday and Friday: 12 and 4pm\nGo To Details Page For More Information",
    "description": null,
    "requirements": null,
    "scraped_at": "2025-11-03T22:03:48.654757",
    "latitude": 39.212192,
    "longitude": -111.019613,
    "geocoded_address": "Castle Dale, Emery County, Utah, 84513, United States of America",
    "note": "Geocoded to city center (exact address not found)"
  },
  {
    "url": "https://www.foodpantries.org/li/emery_county_community_services_84513",
    "name": "Emery County Community Services",
    "address": "40 South Center",
    "city": "Castle Dale",
    "state": "UT",
    "zip": "84513",
    "phone": null,
    "fax": null,
    "email": null,
    "website": "http://www.freefood.org/",
    "hours": "Tuesday and Friday: 12 and 4pm\r\n                                    \r\n                                                                        \n* Important: Please call the food pantries to confirm that the hours have not changed. We do our best to provide full information and details, but food pantries often change their hours without notifying us. We do not want you to waste your time visiting a pantry that is not open.",
    "description": null,
    "requirements": null,
    "scraped_at": "2025-11-03T22:03:53.077809",
    "latitude": 39.2106311,
    "longitude": -111.0197291,
    "geocoded_address": "40, South Center Street, Castle Dale, Emery County, Utah, 84513, United States of America"
  },
  {
    "url": "https://www.foodpantries.org/li/lds_bishops_storehouse_cedar_city_84721",
    "name": "LDS Bishop's Storehouse - Cedar City",
    "address": "219 East 275 South",
    "city": "Cedar City",
    "state": "UT",
    "zip": "84721",
    "phone": "(435) 586-8682",
    "fax": null,
    "email": null,
    "website": "http://www.freefood.org/",
    "hours": "Monday and Thursday 9:0am - 5:00pm For more information, please call. \nGo To Details Page For More Information",
    "description": null,
    "requirements": null,
    "scraped_at": "2025-11-03T22:03:55.911018",
    "latitude": 37.6774238,
    "longitude": -113.061827,
    "geocoded_address": "Cedar City, Iron County, Utah, United States of America",
    "note": "Geocoded to city center (exact address not found)"
  },
  {
    "url": "https://www.foodpantries.org/li/iron_county_care_and_share_food_bank_84721",
    "name": "Iron County Care and Share Food Bank",
    "address": "222 West 900 North",
    "city": "Cedar City",
    "state": "UT",
    "zip": "84721",
    "phone": "(435) 586-4962",
    "fax": null,
    "email": null,
    "website": "http://www.freefood.org/",
    "hours": "Monday and Thursday 9:0am - 5:00pmFor more information, please call. \nVolunteering Information:https://www.careandshare-ut.org/volunteer-faq/volunteer-application \nCounty or Counties Served: Iron",
    "description": null,
    "requirements": null,
    "scraped_at": "2025-11-03T22:04:03.021285",
    "latitude": 37.6927065,
    "longitude": -113.0675292,
    "geocoded_address": "222, West 900 North, Cedar City, Iron County, Utah, 84721, United States of America"
  },
  {
    "url": "https://www.foodpantries.org/li/parowan_care_and_share_84761",
    "name": "Parowan Care and Share",
    "address": "68 South 100 East",
    "city": "Parowan",
    "state": "UT",
    "zip": "84761",
    "phone": null,
    "fax": null,
    "email": null,
    "website": "http://www.freefood.org/",
    "hours": "Friday: 3-5pm\r\n                                    \r\n                                                                        \n* Important: Please call the food pantries to confirm that the hours have not changed. We do our best to provide full information and details, but food pantries often change their hours without notifying us. We do not want you to waste your time visiting a pantry that is not open.",
    "description": null,
    "requirements": null,
    "scraped_at": "2025-11-03T22:04:05.731578",
    "latitude": 37.8413184,
    "longitude": -112.8259692,
    "geocoded_address": "Iron County Courthouse, 68, South 100 East, Parowan, Iron County, Utah, 84761, United States of America"
  },
  {
    "url": "https://www.foodpantries.org/li/earth-community-food-bank-pantry",
    "name": "Earth Community Food Bank Pantry",
    "address": "125 N Main Street (Highway 89)",
    "city": "Centerfield",
    "state": "UT",
    "zip": "84622",
    "phone": null,
    "fax": null,
    "email": null,
    "website": "http://www.freefood.org/",
    "hours": "Monday to Thursday: 10:00 am to 2:00 pm  For more information, please call. \r\n \nGo To Details Page For More Information",
    "description": null,
    "requirements": null,
    "scraped_at": "2025-11-03T22:04:08.108116",
    "latitude": 39.1252392,
    "longitude": -111.819091,
    "geocoded_address": "Centerfield, Sanpete County, Utah, 84622, United States of America",
    "note": "Geocoded to city center (exact address not found)"
  },
  {
    "url": "https://www.foodpantries.org/li/lds_bishops_storehouse_and_centerville_84014",
    "name": "LDS Bishop's Storehouse and Centerville",
    "address": "1180 West 500 North",
    "city": "Centerville",
    "state": "UT",
    "zip": "84014",
    "phone": null,
    "fax": null,
    "email": null,
    "website": "http://www.freefood.org/",
    "hours": "Monday - Friday 11:00M - 1:00PM Tuesday, Wednesday and Thursday 6:00pm - 8:00pm Saturday 10:00am - 12:00pm  Don\nGo To Details Page For More Information",
    "description": null,
    "requirements": "You must have a CURRENT PICTURE ID FOR EVERY ADULT (18 AND UP) IN THE HOUSEHOLD (it does NOT have to be a state-issued ID) and IDENTIFICATION FOR EVERY CHILD, \nGo To Details Page For More Information",
    "scraped_at": "2025-11-03T22:04:11.048015",
    "latitude": 40.9285475,
    "longitude": -111.8882716,
    "geocoded_address": "North 500 West, Centerville, Davis County, Utah, 84014, United States of America"
  },
  {
    "url": "https://www.foodpantries.org/li/ut_clearfield_open-doors-clearfield-food-pantry",
    "name": "Open Doors - Clearfield Food Pantry",
    "address": "1360 E 1450 S",
    "city": "Clearfield",
    "state": "UT",
    "zip": "84015",
    "phone": "(801) 773-0712",
    "fax": null,
    "email": null,
    "website": "http://www.freefood.org/",
    "hours": "Tuesday and Wednesday 9:00\u202fam to 4:00\u202fpmFridays 9:00\u202fam to 1:00\u202fpmNotes:For low income families and individuals3-5 days food supplyOnce a month visit\r\n                                    Volunteering Information:https://www.opendoorsutah.org/volunteer/ \nCounty or Counties Served: Davis",
    "description": null,
    "requirements": null,
    "scraped_at": "2025-11-03T22:04:15.089323",
    "latitude": 41.0928163,
    "longitude": -112.0010192,
    "geocoded_address": "1450 South, Clearfield, Davis County, Utah, 84056, United States of America"
  },
  {
    "url": "https://www.foodpantries.org/li/apostolic_assembly_of_god_84015",
    "name": "Apostolic Assembly of God",
    "address": "389 S State Street",
    "city": "Clearfield",
    "state": "UT",
    "zip": "84015",
    "phone": "(801) 388-8389",
    "fax": null,
    "email": null,
    "website": "http://www.freefood.org/",
    "hours": "1st Wednesday of the month5:30pm - 7:00pmFor more information, please call. \nCounty or Counties Served: Davis",
    "description": null,
    "requirements": null,
    "scraped_at": "2025-11-03T22:04:19.423736",
    "latitude": 41.0943682,
    "longitude": -112.0062743,
    "geocoded_address": "State Street, Clearfield, Davis County, Utah, 84015, United States of America"
  },
  {
    "url": "https://www.foodpantries.org/li/Family_Connection_Center_Food_Bank:",
    "name": "Family Connection Center",
    "address": "875 East Hwy 193",
    "city": "Layton",
    "state": "UT",
    "zip": "84040",
    "phone": "(801) 771-4642",
    "fax": "(801) 773-0655",
    "email": null,
    "website": "http://www.freefood.org/",
    "hours": "Monday - Friday 9:00am - 2:00pm  For more information, please call.  \nGo To Details Page For More Information",
    "description": null,
    "requirements": null,
    "scraped_at": "2025-11-03T22:04:22.038128",
    "latitude": 41.1025759,
    "longitude": -111.9492767,
    "geocoded_address": "875, East Highway 193, Rolling Hills MHP, Layton, Davis County, Utah, 84040, United States of America"
  },
  {
    "url": "https://www.foodpantries.org/li/layton_drops_(delivery_and_redistribution_of_produce_and_sur_84041",
    "name": "Fish -N- Loaves Food Pantry",
    "address": "1322 North Hillfield Rd",
    "city": "Layton",
    "state": "UT",
    "zip": "84040",
    "phone": "(801) 544-2426",
    "fax": null,
    "email": null,
    "website": "http://www.freefood.org/",
    "hours": "Monday - Friday9:00am - 2:00pmFor more information, please call. \nCounty or Counties Served: Davis",
    "description": null,
    "requirements": null,
    "scraped_at": "2025-11-03T22:04:24.951734",
    "latitude": 41.0751048,
    "longitude": -111.9741925,
    "geocoded_address": "Layton, Davis County, Utah, United States of America",
    "note": "Geocoded to city center (exact address not found)"
  },
  {
    "url": "https://www.foodpantries.org/li/fish_-n_loaves_84041",
    "name": "Fish -n - Loaves - Layton Hills Baptist Church",
    "address": "1332 North Hill Field Rd",
    "city": "Layton",
    "state": "UT",
    "zip": "84041",
    "phone": "(801) 544-2426",
    "fax": null,
    "email": null,
    "website": "http://www.freefood.org/",
    "hours": "Monday through Friday 9:00am - 2:00pmFor more information, please call.\nCounty or Counties Served: Davis",
    "description": null,
    "requirements": null,
    "scraped_at": "2025-11-03T22:04:28.997655",
    "latitude": 41.0792147,
    "longitude": -111.9728538,
    "geocoded_address": "Layton Hills Baptist Church, 1332, North Hill Field Road, Riley, Layton, Davis County, Utah, 84041, United States of America"
  },
  {
    "url": "https://www.foodpantries.org/li/family_connection_center_layton_84040",
    "name": "Open Doors Mobile Food Pantry",
    "address": "875 East Highway 193",
    "city": "Layton",
    "state": "UT",
    "zip": "84041",
    "phone": "(801) 771-4642",
    "fax": "(801) 773-0655",
    "email": null,
    "website": "http://www.freefood.org/",
    "hours": "Monday - Friday 9:00am - 2:00pm  For more information, please call.  \nGo To Details Page For More Information",
    "description": null,
    "requirements": null,
    "scraped_at": "2025-11-03T22:04:31.533368",
    "latitude": 41.1025759,
    "longitude": -111.9492767,
    "geocoded_address": "875, East Highway 193, Rolling Hills MHP, Layton, Davis County, Utah, 84040, United States of America"
  },
  {
    "url": "https://www.foodpantries.org/li/ut_layton_layton-high-school-food-pantry",
    "name": "Layton High School Food Pantry",
    "address": "440 Wasatch Drive",
    "city": "Layton",
    "state": "UT",
    "zip": "84041",
    "phone": "(801) 402-4844",
    "fax": null,
    "email": null,
    "website": "http://www.freefood.org/",
    "hours": "Tuesdays from 3:00pm to 5:00pmDonations: Drop off to the Pantry during hours of operation or to the\u00a0Layton High Food Main Office anytime.\nCounty or Counties Served: Davis",
    "description": null,
    "requirements": null,
    "scraped_at": "2025-11-03T22:04:34.166063",
    "latitude": 41.0635626,
    "longitude": -111.9599149,
    "geocoded_address": "Layton High School, 440, Wasatch Drive, Layton Park Plaza Condominium, Layton, Davis County, Utah, 84041, United States of America"
  },
  {
    "url": "https://www.foodpantries.org/li/ut_84403_crossroads-food-pantry",
    "name": "Crossroads Food Pantry",
    "address": "6545 Combe Rd.",
    "city": "Uintah",
    "state": "UT",
    "zip": "84403",
    "phone": "(801) 479-1052",
    "fax": null,
    "email": null,
    "website": "http://www.freefood.org/",
    "hours": "Tuesday4:00 pm - 6:00 pmFor more information, please call.\nVolunteering Information:https://crossroadsgo.churchcenter.com/registrations/events/716706 \nCounty or Counties Served: Weber",
    "description": null,
    "requirements": null,
    "scraped_at": "2025-11-03T22:04:36.233702",
    "latitude": 41.1446,
    "longitude": -111.9182148,
    "geocoded_address": "6545, Combe Road, Uintah, Weber County, Utah, 84403, United States of America"
  },
  {
    "url": "https://www.foodpantries.org/li/lds_bishops_storehouse_and_kaysville_84037",
    "name": "Church of Jesus Christ of LDS",
    "address": "61 South 600 West",
    "city": "Kaysville",
    "state": "UT",
    "zip": "84037",
    "phone": "(801) 543-1855",
    "fax": null,
    "email": null,
    "website": "http://www.freefood.org/",
    "hours": "The 1st and 3rd Saturday of the month 10:00am  For more information, please call.   \nGo To Details Page For More Information",
    "description": null,
    "requirements": null,
    "scraped_at": "2025-11-03T22:04:40.099941",
    "latitude": 41.0339572,
    "longitude": -111.9494301,
    "geocoded_address": "61, South 600 West, Kaysville, Davis County, Utah, 84037, United States of America"
  },
  {
    "url": "https://www.foodpantries.org/li/ut_84037_true-vine-baptist-church-kaysville",
    "name": "True Vine Baptist Church Kaysville",
    "address": "197 W. 100 S.",
    "city": "Kaysville",
    "state": "UT",
    "zip": "84037",
    "phone": "(801) 546-6554",
    "fax": null,
    "email": null,
    "website": "http://www.freefood.org/",
    "hours": "The 1st and 3rd Saturday of the month10:00amFor more information, please call. \nVolunteering Information:http://truevinebaptistchurch.homestead.com/volunteer.html \nCounty or Counties Served: Davis",
    "description": null,
    "requirements": null,
    "scraped_at": "2025-11-03T22:04:42.301021",
    "latitude": 41.0331727,
    "longitude": -111.9418444,
    "geocoded_address": "197, West 100 South, Kaysville, Davis County, Utah, 84037, United States of America"
  },
  {
    "url": "https://www.foodpantries.org/li/community-action-services-coalville",
    "name": "Community Action Services - Coalville",
    "address": "17 Main St",
    "city": "Coalville",
    "state": "UT",
    "zip": "84017",
    "phone": "(435) 336-4277",
    "fax": null,
    "email": null,
    "website": "http://www.freefood.org/",
    "hours": "Thursday 3:00pm - 7:00pm  For more information, please call.  \nGo To Details Page For More Information",
    "description": null,
    "requirements": null,
    "scraped_at": "2025-11-03T22:04:44.977638",
    "latitude": 40.9127438,
    "longitude": -111.3963525,
    "geocoded_address": "17, Main Street, Coalville, Summit County, Utah, 84017, United States of America"
  },
  {
    "url": "https://www.foodpantries.org/li/community_action_services_and_coalville_84017",
    "name": "Community Action Services and Coalville",
    "address": "11 South Main Street",
    "city": "Coalville",
    "state": "UT",
    "zip": "84017",
    "phone": "(435) 336-4277",
    "fax": null,
    "email": null,
    "website": "http://www.freefood.org/",
    "hours": "Thursday3:00pm - 7:00pmFor more information, please call. \nCounty or Counties Served: Summit",
    "description": null,
    "requirements": null,
    "scraped_at": "2025-11-03T22:04:47.097715",
    "latitude": 40.9177251,
    "longitude": -111.3993634,
    "geocoded_address": "Coalville, Summit County, Utah, United States of America",
    "note": "Geocoded to city center (exact address not found)"
  },
  {
    "url": "https://www.foodpantries.org/li/morgan_county_food_pantry_84050",
    "name": "Morgan County Food Pantry",
    "address": "90 West Young Street",
    "city": "Morgan",
    "state": "UT",
    "zip": "84050",
    "phone": "(801) 829-8533",
    "fax": null,
    "email": null,
    "website": "http://www.freefood.org/",
    "hours": "Monday\r\n4:00pm - 6:00pm\r\nWednesday\r\n8:00am - 12:000pm\n\r\nFor more information, please call. \nCounty or Counties Served: Morgan",
    "description": null,
    "requirements": null,
    "scraped_at": "2025-11-03T22:04:50.438844",
    "latitude": 41.035696,
    "longitude": -111.6788145,
    "geocoded_address": "90, West Young Street, Morgan, Morgan County, Utah, 84050, United States of America"
  },
  {
    "url": "https://www.foodpantries.org/li/ut_park-city_christian-center-of-park-city-food-pantry",
    "name": "Park City Food Pantry - Christian Center",
    "address": "1283 Deer Valley Drive",
    "city": "Park City",
    "state": "UT",
    "zip": "84060",
    "phone": "(435) 649-2260",
    "fax": null,
    "email": null,
    "website": "https://ccofpc.org/",
    "hours": "Monday to Friday 11:00 am to 4:00 pmNotes:Food is distributed based on family size.Food varies day to day based on donated food.A family or group will be given a full shopping cart full of food.If possible bring bags, boxes or a suitcase on wheelsIf you arrive by car, they have shopping carts to carry your food from the pantry to your car\nCounty or Counties Served: Summit",
    "description": null,
    "requirements": "Complete and bring with you intake form (pick one up at the pantry) Picture ID Declare your income  Other Services:  Rental Assistance, and Employment Assistance. \nGo To Details Page For More Information",
    "scraped_at": "2025-11-03T22:04:53.487658",
    "latitude": 40.6568431,
    "longitude": -111.5047378,
    "geocoded_address": "1283, Deer Valley Drive, Park City, Summit County, Utah, 84060, United States of America"
  },
  {
    "url": "https://www.foodpantries.org/li/community-action-services-kamas",
    "name": "Community Action Services - Kamas",
    "address": "30 S Main St",
    "city": "Kamas",
    "state": "UT",
    "zip": "84036",
    "phone": "(435) 783-4303",
    "fax": null,
    "email": null,
    "website": "http://www.freefood.org/",
    "hours": "Monday to Friday 11:00 am to 4:00 pm  Notes:  Food is distributed based on family size. Food varies day to day based on donated food. A family or group will be given a full shopping cart full of food. If possible bring bags, boxes or a suitcase on wheels If you arr\nGo To Details Page For More Information",
    "description": null,
    "requirements": "Complete and bring with you intake form (pick one up at the pantry) Picture ID Declare your income  Other Services:  Rental Assistance, and Employment Assistance. \nGo To Details Page For More Information",
    "scraped_at": "2025-11-03T22:04:55.639365",
    "latitude": 40.6424597,
    "longitude": -111.2808975,
    "geocoded_address": "30, South Main Street, Kamas, Summit County, Utah, 84036, United States of America"
  },
  {
    "url": "https://www.foodpantries.org/li/community_action_services_kamas_84036",
    "name": "Community Action Services - Kamas",
    "address": "30 South Main Street",
    "city": "Kamas",
    "state": "UT",
    "zip": "84036",
    "phone": "(435) 783-4303",
    "fax": null,
    "email": null,
    "website": "http://www.freefood.org/",
    "hours": "Wednesday9:00am to 4:00pmCommunity Action Services and Food Bank offers a number of resources to help residents in Utah, Wasatch and Summit counties achieve self-reliance.It is important to understand that each program has its own set of guidelines and qualifications. Visit us today and receive the help or guidance that you need. Let Community Action Services and Food Bank be your partner in overcoming poverty.",
    "description": null,
    "requirements": "Complete and bring with you intake form (pick one up at the pantry) Picture ID Declare your income  Other Services:  Rental Assistance, and Employment Assistance. \nGo To Details Page For More Information",
    "scraped_at": "2025-11-03T22:04:58.261723",
    "latitude": 40.6424597,
    "longitude": -111.2808975,
    "geocoded_address": "30, South Main Street, Kamas, Summit County, Utah, 84036, United States of America"
  },
  {
    "url": "https://www.foodpantries.org/li/lds_bishops_storehouse_and_delta_84624",
    "name": "LDS Bishop's Storehouse and Delta",
    "address": "296 North 100 East",
    "city": "Delta",
    "state": "UT",
    "zip": "84624",
    "phone": null,
    "fax": null,
    "email": null,
    "website": "http://www.freefood.org/",
    "hours": "3rd Tuesday of the Month 3:30 pm - 5:00pm\nGo To Details Page For More Information",
    "description": null,
    "requirements": null,
    "scraped_at": "2025-11-03T22:05:00.429875",
    "latitude": 39.3541106,
    "longitude": -112.5681847,
    "geocoded_address": "296, East 100 North, Delta, Millard County, Utah, 84624, United States of America"
  },
  {
    "url": "https://www.foodpantries.org/li/central_utah_food_sharing_delta_84624",
    "name": "Central Utah Food Sharing - Delta",
    "address": "162 W 100 S",
    "city": "Delta",
    "state": "UT",
    "zip": "84624",
    "phone": null,
    "fax": null,
    "email": null,
    "website": "http://www.freefood.org/",
    "hours": "3rd Tuesday of the Month3:30 pm - 5:00pm\r\n                                    \r\n                                    County or Counties Served: Millard",
    "description": null,
    "requirements": null,
    "scraped_at": "2025-11-03T22:05:03.094293",
    "latitude": 39.350749,
    "longitude": -112.5816377,
    "geocoded_address": "100 South, Delta, Millard County, Utah, 84624, United States of America"
  },
  {
    "url": "https://www.foodpantries.org/li/central_utah_food_sharing_fillmore_84631",
    "name": "Central Utah Food Sharing - Fillmore",
    "address": "290 South Main Street",
    "city": "Fillmore",
    "state": "UT",
    "zip": "84631",
    "phone": null,
    "fax": null,
    "email": null,
    "website": "http://www.freefood.org/",
    "hours": "Third Tuesdays 9 am - 12 pm\r\n                                    \r\n                                                                        \n* Important: Please call the food pantries to confirm that the hours have not changed. We do our best to provide full information and details, but food pantries often change their hours without notifying us. We do not want you to waste your time visiting a pantry that is not open.",
    "description": null,
    "requirements": null,
    "scraped_at": "2025-11-03T22:05:06.900004",
    "latitude": 38.9626456,
    "longitude": -112.323699,
    "geocoded_address": "290, South Main Street, Fillmore, Millard County, Utah, 84631, United States of America"
  },
  {
    "url": "https://www.foodpantries.org/li/lds_bishops_storehouse_and_fillmore_84631",
    "name": "LDS Bishop's Storehouse and Fillmore",
    "address": "85 North 400 West",
    "city": "Fillmore",
    "state": "UT",
    "zip": "84631",
    "phone": "(435) 743-6614",
    "fax": null,
    "email": null,
    "website": "http://www.freefood.org/",
    "hours": "Third Tuesdays 9 am - 12 pm\nGo To Details Page For More Information",
    "description": null,
    "requirements": null,
    "scraped_at": "2025-11-03T22:05:09.397815",
    "latitude": 38.9698028,
    "longitude": -112.3349393,
    "geocoded_address": "85, North 400 West Street, Fillmore, Millard County, Utah, 84631, United States of America"
  },
  {
    "url": "https://www.foodpantries.org/li/south-valley-food-bank",
    "name": "South Valley Food bank  -The Adventure Church Food Pantry",
    "address": "352 West 12300 South",
    "city": "Draper",
    "state": "UT",
    "zip": "84020",
    "phone": "(801) 688-7251",
    "fax": null,
    "email": null,
    "website": "http://www.freefood.org/",
    "hours": "Thursday1:00pm - 9:00pmMake an appointmentFor more information, please call. \nCounty or Counties Served: Salt Lake",
    "description": null,
    "requirements": null,
    "scraped_at": "2025-11-03T22:05:13.039771",
    "latitude": 40.5269099,
    "longitude": -111.9025952,
    "geocoded_address": "352, 12300 South, Riverton Siding, Draper, Salt Lake County, Utah, 84020, United States of America"
  },
  {
    "url": "https://www.foodpantries.org/li/nueva_esperanza_84084",
    "name": "Nueva Esperanza",
    "address": "7681 South 2200 West",
    "city": "West Jordan",
    "state": "UT",
    "zip": "84084",
    "phone": "(509) 200-6251",
    "fax": null,
    "email": null,
    "website": "http://www.freefood.org/",
    "hours": "Wednesday and Thursday\r\n 5:00pm - 7:00pm\n\r\nFor more information, please call. \nCounty or Counties Served: Salt Lake",
    "description": null,
    "requirements": null,
    "scraped_at": "2025-11-03T22:05:15.323063",
    "latitude": 40.6278433,
    "longitude": -111.9483168,
    "geocoded_address": "2200 West, West Jordan, Salt Lake County, Utah, 84084, United States of America"
  },
  {
    "url": "https://www.foodpantries.org/li/ut_84107_murray-childrens-pantry",
    "name": "Murray Children's Pantry",
    "address": "170 East 5770 South",
    "city": "Murray",
    "state": "UT",
    "zip": "84107",
    "phone": "(385) 210-1107",
    "fax": null,
    "email": null,
    "website": "http://www.freefood.org/",
    "hours": "Tuesdays 10:00am - 12:00pm Third Saturday of the month 10:00am - 12:00pm Notes:Feel free to stop by if you require food assistance. They offer prepackaged bags designed to sustain one person for two days, or they can customize a family box to suit your needs.",
    "description": null,
    "requirements": null,
    "scraped_at": "2025-11-03T22:05:17.584558",
    "latitude": 40.6458795,
    "longitude": -111.887545,
    "geocoded_address": "170, 5770 South, Murray Heights, Murray, Salt Lake County, Utah, 84107, United States of America"
  },
  {
    "url": "https://www.foodpantries.org/li/murray_park_church_pantry",
    "name": "Murray Park Church of Christ Food Pantry",
    "address": "494 East 5300 South",
    "city": "Murray",
    "state": "UT",
    "zip": "84107",
    "phone": "(801) 293-7000",
    "fax": null,
    "email": null,
    "website": "http://www.freefood.org/",
    "hours": "Thursday 9:00 am - 5:00 pm\n\r\n For more information, please call.",
    "description": null,
    "requirements": null,
    "scraped_at": "2025-11-03T22:05:19.978089",
    "latitude": 40.656002,
    "longitude": -111.877359,
    "geocoded_address": "494, 5300 South, Murray, Salt Lake County, Utah, 84107, United States of America"
  },
  {
    "url": "https://www.foodpantries.org/li/ut_84123_redeemed-christian-church-of-god-house-of-his-glory-pantry",
    "name": "Redeemed Christian Church of God - House of His Glory Pantry",
    "address": "213 West 4800 South",
    "city": "Murray",
    "state": "UT",
    "zip": "84107",
    "phone": "(801) 994-2308",
    "fax": null,
    "email": null,
    "website": "https://www.rccghg.org",
    "hours": "Monday, Wednesday & Friday: 11:00 am to 1:00 pm Tuesday & Thursday: 2:30 pm to 4:30pm  Notes:  Food can be picked up once a week No ID, financial or citizenship requirements  Additional Services:  Seniors and Families programs Financial Assistance Crisis Support & \nGo To Details Page For More Information",
    "description": null,
    "requirements": null,
    "scraped_at": "2025-11-03T22:05:22.432581",
    "latitude": 40.6673876,
    "longitude": -111.8971342,
    "geocoded_address": "213, 4800 South, Tingleys Addition, Murray, Salt Lake County, Utah, 84107, United States of America"
  },
  {
    "url": "https://www.foodpantries.org/li/escalante_care_and_share_84726",
    "name": "Escalante Care and Share Food Pantry",
    "address": "75 North 100 West",
    "city": "Escalante",
    "state": "UT",
    "zip": "84726",
    "phone": "(435) 616-4665",
    "fax": null,
    "email": null,
    "website": "http://www.freefood.org/",
    "hours": "Friday 11:00am - 4:00pm 1st and 3rd Saturday 12:00pm - 4:00pm",
    "description": null,
    "requirements": null,
    "scraped_at": "2025-11-03T22:05:24.808597",
    "latitude": 37.7727073,
    "longitude": -111.6021721,
    "geocoded_address": "100 West, Escalante, Garfield County, Utah, 84726, United States of America"
  },
  {
    "url": "https://www.foodpantries.org/li/central_utah_food_sharing_richfield_84701",
    "name": "Central Utah Food Sharing - Richfield",
    "address": "2050 S. Industrial Park Rd.",
    "city": "Richfield",
    "state": "UT",
    "zip": "84701",
    "phone": "(435) 896-5225",
    "fax": null,
    "email": null,
    "website": "http://www.freefood.org/",
    "hours": "Monday to Thursday: 10:00 am to 2:00 pm For more information, please call.",
    "description": null,
    "requirements": null,
    "scraped_at": "2025-11-03T22:05:29.151298",
    "latitude": 38.7724674,
    "longitude": -112.084094,
    "geocoded_address": "Richfield, Sevier County, Utah, United States of America",
    "note": "Geocoded to city center (exact address not found)"
  },
  {
    "url": "https://www.foodpantries.org/li/lds_bishops_storehouse_and_sigurd_84657",
    "name": "LDS Bishop's Storehouse and Sigurd",
    "address": "845 South State",
    "city": "Sigurd",
    "state": "UT",
    "zip": "84657",
    "phone": null,
    "fax": null,
    "email": null,
    "website": "http://www.freefood.org/",
    "hours": "Monday to Thursday: 10:00 am to 2:00 pm  For more information, please call. \r\n \nGo To Details Page For More Information",
    "description": null,
    "requirements": null,
    "scraped_at": "2025-11-03T22:05:34.182371",
    "latitude": 38.8380489,
    "longitude": -111.967519,
    "geocoded_address": "South State Street, Sigurd, Sevier County, Utah, 84657, United States of America"
  },
  {
    "url": "https://www.foodpantries.org/li/grantsville_neighborhood_food_center_84029",
    "name": "Utah Community Action Grantsville",
    "address": "7 South Park Street",
    "city": "Grantsville",
    "state": "UT",
    "zip": "84029",
    "phone": "(435) 884-4452",
    "fax": null,
    "email": null,
    "website": "https://www.utahca.org/",
    "hours": "1st Friday after the 1st Monday: 8 am\nGo To Details Page For More Information",
    "description": null,
    "requirements": null,
    "scraped_at": "2025-11-03T22:05:36.945540",
    "latitude": 40.6000817,
    "longitude": -112.463531,
    "geocoded_address": "Grantsville, Tooele County, Utah, 84029, United States of America",
    "note": "Geocoded to city center (exact address not found)"
  },
  {
    "url": "https://www.foodpantries.org/li/grantsville_first_baptist_church_84029",
    "name": "Grantsville First Baptist Church",
    "address": "235 West Main Street",
    "city": "Grantsville",
    "state": "UT",
    "zip": "84029",
    "phone": "(435) 884-6025",
    "fax": null,
    "email": null,
    "website": "http://www.freefood.org/",
    "hours": "1st Friday after the 1st Monday: 8 am\nGo To Details Page For More Information",
    "description": null,
    "requirements": null,
    "scraped_at": "2025-11-03T22:05:41.939454",
    "latitude": 40.5998523,
    "longitude": -112.4722536,
    "geocoded_address": "235, West Main Street, Grantsville, Tooele County, Utah, 84029, United States of America"
  },
  {
    "url": "https://www.foodpantries.org/li/grantsville_mobile_food_pantry_84029",
    "name": "Grantsville Mobile Food Pantry",
    "address": "2930 West Highway 112",
    "city": "Grantsville",
    "state": "UT",
    "zip": "84029",
    "phone": null,
    "fax": null,
    "email": null,
    "website": "http://www.freefood.org/",
    "hours": "1st Friday after the 1st Monday: 8 am\r\n                                    \r\n                                                                        \n* Important: Please call the food pantries to confirm that the hours have not changed. We do our best to provide full information and details, but food pantries often change their hours without notifying us. We do not want you to waste your time visiting a pantry that is not open.",
    "description": null,
    "requirements": null,
    "scraped_at": "2025-11-03T22:05:43.997490",
    "latitude": 40.6000817,
    "longitude": -112.463531,
    "geocoded_address": "Grantsville, Tooele County, Utah, 84029, United States of America",
    "note": "Geocoded to city center (exact address not found)"
  },
  {
    "url": "https://www.foodpantries.org/li/green_river_food_bank_84525",
    "name": "Green River Food Bank",
    "address": "80 Farrer Street",
    "city": "Green River",
    "state": "UT",
    "zip": "84525",
    "phone": null,
    "fax": null,
    "email": null,
    "website": "http://www.freefood.org/",
    "hours": null,
    "description": null,
    "requirements": null,
    "scraped_at": "2025-11-03T22:05:48.671042",
    "latitude": 38.9906304,
    "longitude": -110.16045,
    "geocoded_address": "80, East Farrer Street, Green River, Emery County, Utah, 84525, United States of America"
  },
  {
    "url": "https://www.foodpantries.org/li/ut_84032_community-action-services-herber-food-pantry",
    "name": "Heber Food Pantry Community Action Services",
    "address": "34 West 200 South",
    "city": "Heber City",
    "state": "UT",
    "zip": "84032",
    "phone": "(435) 654-2182",
    "fax": null,
    "email": null,
    "website": "http://www.freefood.org/",
    "hours": "Thursday 11:00am - 6:00pmFriday 11:00am - 6:00pmRequirements:Complete and bring with you intake form (pick one up at the pantry)Picture IDDeclare your incomeOther Services:Rental Assistance, and Employment Assistance.For more information, please call.\nCounty or Counties Served: Wasatch",
    "description": null,
    "requirements": "Complete and bring with you intake form (pick one up at the pantry)Picture IDDeclare your incomeOther Services:Rental Assistance, and Employment Assistance.For more information, please call.\nCounty or Counties Served: Wasatch",
    "scraped_at": "2025-11-03T22:05:51.504706",
    "latitude": 40.5051096,
    "longitude": -111.4141423,
    "geocoded_address": "34, West 200 South, Heber, Wasatch County, Utah, 84032, United States of America"
  },
  {
    "url": "https://www.foodpantries.org/li/heber-valley-food-pantry",
    "name": "Heber Valley Food Pantry - Christian Center",
    "address": "55 E Center Street",
    "city": "Heber City",
    "state": "UT",
    "zip": "84032",
    "phone": "(435) 649-2260",
    "fax": null,
    "email": null,
    "website": "https://ccofpc.org/",
    "hours": "Monday to Friday 11:00 am to 4:00 pmNotes:Food is distributed based on family size.Food varies day to day based on donated food.A family or group will be given a full shopping cart full of food.If possible bring bags, boxes or a suitcase on wheelsIf you arrive by car, they have shopping carts to carry your food from the pantry to your car\nCounty or Counties Served: Wasatch",
    "description": null,
    "requirements": "Complete and bring with you intake form (pick one up at the pantry) Picture ID Declare your income  Other Services:  Rental Assistance, and Employment Assistance. \nGo To Details Page For More Information",
    "scraped_at": "2025-11-03T22:05:53.581482",
    "latitude": 40.5077168,
    "longitude": -111.4125045,
    "geocoded_address": "55, East Center Street, Heber, Wasatch County, Utah, 84032, United States of America"
  },
  {
    "url": "https://www.foodpantries.org/li/st_lawrence_catholic_church_84032",
    "name": "St Lawrence Catholic Church Food Pantry",
    "address": "5 S 100 West",
    "city": "Heber City",
    "state": "UT",
    "zip": "84032",
    "phone": "(435) 654-4035",
    "fax": null,
    "email": null,
    "website": "http://www.freefood.org/",
    "hours": "Thursday 11:00am - 6:00pm Friday 11:00am - 6:00pm  Requirements:  Complete and bring with you intake form (pick one up at the pantry) Picture ID Declare your income  Other Services:  Rental Assistance, and Employment Assistance. \nGo To Details Page For More Information",
    "description": null,
    "requirements": "Complete and bring with you intake form (pick one up at the pantry) Picture ID Declare your income  Other Services:  Rental Assistance, and Employment Assistance. \nGo To Details Page For More Information",
    "scraped_at": "2025-11-03T22:05:56.195212",
    "latitude": 40.5074305,
    "longitude": -111.4149526,
    "geocoded_address": "Saint Lawrence Catholic Church, 5, South 100 West, Heber, Wasatch County, Utah, 84032, United States of America"
  },
  {
    "url": "https://www.foodpantries.org/li/ut_84032_christian-center-of-heber-city-food-pantry",
    "name": "Christian Center of Heber City Food Pantry",
    "address": "55 East Center Street",
    "city": "Heber City",
    "state": "UT",
    "zip": "84030",
    "phone": "(435) 657-9493",
    "fax": "(435) 649-2268",
    "email": null,
    "website": "http://www.ccofpc.org",
    "hours": "Monday Through Friday \r\n11:00am to 4:00pm\n\r\nDonation Hours:\r\nMonday, Wednesday, Friday and Saturday\r\n10:00am - 2:00pm\n\r\nFor more information, please call. \nVolunteering Information:https://www.ccofpc.org/volunteer-needs \nCounty or Counties Served: Wasatch",
    "description": null,
    "requirements": "Complete and bring with you intake form (pick one up at the pantry) Picture ID Declare your income  Other Services:  Rental Assistance, and Employment Assistance. \nGo To Details Page For More Information",
    "scraped_at": "2025-11-03T22:05:58.881716",
    "latitude": 40.5077168,
    "longitude": -111.4125045,
    "geocoded_address": "55, East Center Street, Heber, Wasatch County, Utah, 84032, United States of America"
  },
  {
    "url": "https://www.foodpantries.org/li/hurricane-valley-food-bank",
    "name": "Hurricane Valley Food Bank",
    "address": "450 E 800 N",
    "city": "Hurricane",
    "state": "UT",
    "zip": "84737",
    "phone": "(435) 635-0995",
    "fax": null,
    "email": null,
    "website": "http://www.freefood.org/",
    "hours": "Monday to Thursday 11:00 a.m. \u2013 4:00 p.m. \u00a0\u00a0\u00a0 Friday: CLOSED \u00a0\u00a0\u00a0 Saturday: 11:00 a.m. \u2013 2:00 p.m.     Additional Services:  Emergency Shelter Drop In Services Affordable Housing Projects Community Soup Kitchen Em\nGo To Details Page For More Information",
    "description": null,
    "requirements": "Picture IDHousehold income verification (last thirty days of pay-stubs, W2s, most recent tax return, SSDI/SSI benefit letters, Department of Workforce SErvices benefit letters for SNAP or Medicaid.\nCounty or Counties Served: Washington",
    "scraped_at": "2025-11-03T22:06:01.369924",
    "latitude": 37.1889791,
    "longitude": -113.2789648,
    "geocoded_address": "450, East 800 North, Hurricane, Washington County, Utah, 84737, United States of America"
  },
  {
    "url": "https://www.foodpantries.org/li/ut_saint-george_community-soup-kitchen-food-pantry",
    "name": "Switchpoint Community Resource Center Food Pantry",
    "address": "932 South 250 West",
    "city": "Saint George",
    "state": "UT",
    "zip": "84770",
    "phone": "(435) 628-9310",
    "fax": null,
    "email": null,
    "website": "http://www.freefood.org/",
    "hours": "Monday to Thursday 11:00 a.m. \u2013 4:00 p.m.\u00a0\u00a0\u00a0 Friday: CLOSED\u00a0\u00a0\u00a0 Saturday: 11:00 a.m. \u2013 2:00 p.m.Additional Services:Emergency ShelterDrop In ServicesAffordable Housing ProjectsCommunity Soup KitchenEmergency Food PantryRequirements:Picture ID and 2 forms of identification for everyone 18 years of age and olderProof of Household Income",
    "description": null,
    "requirements": "Picture ID and 2 forms of identification for everyone 18 years of age and olderProof of Household Income",
    "scraped_at": "2025-11-03T22:06:05.730378",
    "latitude": 37.1099724,
    "longitude": -113.5904307,
    "geocoded_address": "West Saint George Boulevard, St. George, Washington County, Utah, 84770, United States of America",
    "note": "Geocoded to city center (exact address not found)"
  },
  {
    "url": "https://www.foodpantries.org/li/kanab_care_and_share_84741",
    "name": "Kanab Care and Share",
    "address": "56 West 450 North",
    "city": "Kanab",
    "state": "UT",
    "zip": "84741",
    "phone": null,
    "fax": null,
    "email": null,
    "website": "http://www.freefood.org/",
    "hours": "1st and 3rd Thurs, 5 pm - 8 pm\r\n                                    \r\n                                                                        \n* Important: Please call the food pantries to confirm that the hours have not changed. We do our best to provide full information and details, but food pantries often change their hours without notifying us. We do not want you to waste your time visiting a pantry that is not open.",
    "description": null,
    "requirements": null,
    "scraped_at": "2025-11-03T22:06:10.087775",
    "latitude": 37.0481715,
    "longitude": -112.5285237,
    "geocoded_address": "Kanab, Kane County, Utah, United States of America",
    "note": "Geocoded to city center (exact address not found)"
  },
  {
    "url": "https://www.foodpantries.org/li/fredonia_food_bank_86022",
    "name": "Fredonia Food Bank",
    "address": "100 E. Woodhill Rd.",
    "city": "Fredonia",
    "state": "AZ",
    "zip": "86022",
    "phone": null,
    "fax": null,
    "email": null,
    "website": "http://www.freefood.org/",
    "hours": "Every Other Thu\r\n                                    \r\n                                                                        \n* Important: Please call the food pantries to confirm that the hours have not changed. We do our best to provide full information and details, but food pantries often change their hours without notifying us. We do not want you to waste your time visiting a pantry that is not open.",
    "description": null,
    "requirements": null,
    "scraped_at": "2025-11-03T22:06:13.484424",
    "latitude": 36.949932,
    "longitude": -112.5253435,
    "geocoded_address": "Fredonia, Coconino County, Arizona, United States of America",
    "note": "Geocoded to city center (exact address not found)"
  },
  {
    "url": "https://www.foodpantries.org/li/kearns_1st_baptist_church_84118",
    "name": "First Baptist Community Church & Food Pantry",
    "address": "4445 West 5175 South",
    "city": "Kearns",
    "state": "UT",
    "zip": "84128",
    "phone": "(385) 282-3763",
    "fax": null,
    "email": null,
    "website": "http://www.freefood.org/",
    "hours": "Tuesday\r\n6:30pm - 7:45pm\r\nWednesday\r\n11:00am - 2:45pm (closed 12:30pm - 1:00pm)\r\nThursday\r\n1:00pm - 2:45pm\r\nFriday\r\n11:00am - 2:45pm (closed 12:30pm - 1:00pm\n\r\nFor more information, please call.",
    "description": null,
    "requirements": null,
    "scraped_at": "2025-11-03T22:06:17.549446",
    "latitude": 40.6570475,
    "longitude": -111.9970823,
    "geocoded_address": "4445, 5175 South, Hoffman Heights, Kearns, Salt Lake County, Utah, 84118, United States of America"
  },
  {
    "url": "https://www.foodpantries.org/li/iglesia_de_jesucristo_84118",
    "name": "Iglesia de Jesucristo",
    "address": "5486 South 4220 WEst",
    "city": "Kearns",
    "state": "UT",
    "zip": "84118",
    "phone": "(801) 673-0985",
    "fax": null,
    "email": null,
    "website": "http://www.freefood.org/",
    "hours": "2nd and 4th Monday of the month 11:00am - 4:00pmFor more information, please call. \nCounty or Counties Served: Salt Lake",
    "description": null,
    "requirements": null,
    "scraped_at": "2025-11-03T22:06:20.440913",
    "latitude": 40.6518583,
    "longitude": -111.9920543,
    "geocoded_address": "5486, 4220 West, Hoffman Heights Numbes 12 and 13, Kearns, Salt Lake County, Utah, 84118, United States of America"
  },
  {
    "url": "https://www.foodpantries.org/li/central_utah_food_sharing_hanksville_84749",
    "name": "Central Utah Food Sharing - Hanksville",
    "address": "83 North Main",
    "city": "Lyman",
    "state": "UT",
    "zip": "84749",
    "phone": null,
    "fax": null,
    "email": null,
    "website": "http://www.freefood.org/",
    "hours": "2nd, 3rd and 4th Tuesday\r\n                                    \r\n                                                                        \n* Important: Please call the food pantries to confirm that the hours have not changed. We do our best to provide full information and details, but food pantries often change their hours without notifying us. We do not want you to waste your time visiting a pantry that is not open.",
    "description": null,
    "requirements": null,
    "scraped_at": "2025-11-03T22:06:22.441126",
    "latitude": 38.3969236,
    "longitude": -111.589627,
    "geocoded_address": "Lyman, Wayne County, Utah, 84749, United States of America",
    "note": "Geocoded to city center (exact address not found)"
  },
  {
    "url": "https://www.foodpantries.org/li/ut_magna_magna-fact-inc-food-pantry",
    "name": "Magna FACT Food Pantry",
    "address": "9113 W Magna Main St",
    "city": "Magna",
    "state": "UT",
    "zip": "84044",
    "phone": "(801) 250-4811",
    "fax": null,
    "email": null,
    "website": "http://www.freefood.org/",
    "hours": "Tuesday to Friday 11:00 AM - 4:00 PM",
    "description": null,
    "requirements": null,
    "scraped_at": "2025-11-03T22:06:26.016386",
    "latitude": 40.7031629,
    "longitude": -112.081648,
    "geocoded_address": "Magna, Salt Lake County, Utah, 84044, United States of America",
    "note": "Geocoded to city center (exact address not found)"
  },
  {
    "url": "https://www.foodpantries.org/li/magna_neighborhood_center_84044",
    "name": "Salt Lake Community",
    "address": "3441 South 8400 West",
    "city": "Magna",
    "state": "UT",
    "zip": "84044",
    "phone": "(801) 250-6414",
    "fax": null,
    "email": null,
    "website": "http://www.freefood.org/",
    "hours": "Monday, Wednesday and Friday 8:30am - 5:00pm closed 12:00pm - 1:00pmServes: 84118, 84128, and 84044For more information, please call. \nCounty or Counties Served: Salt Lake",
    "description": null,
    "requirements": null,
    "scraped_at": "2025-11-03T22:06:29.385794",
    "latitude": 40.6974359,
    "longitude": -112.0916959,
    "geocoded_address": "3441, 8400 West, Magna, Salt Lake County, Utah, 84044, United States of America"
  },
  {
    "url": "https://www.foodpantries.org/li/flaming_gorge_food_pantry_84046",
    "name": "Flaming Gorge Food Pantry",
    "address": "93 North 100 West",
    "city": "Manila",
    "state": "UT",
    "zip": "84046",
    "phone": null,
    "fax": null,
    "email": null,
    "website": "http://www.freefood.org/",
    "hours": "Tuesday and Wednesdays 9 am - 3 pm and Thursday: 9 am - 1 pm (Seasonal)\r\n                                    \r\n                                                                        \n* Important: Please call the food pantries to confirm that the hours have not changed. We do our best to provide full information and details, but food pantries often change their hours without notifying us. We do not want you to waste your time visiting a pantry that is not open.",
    "description": null,
    "requirements": null,
    "scraped_at": "2025-11-03T22:06:31.689623",
    "latitude": 40.9880142,
    "longitude": -109.722649,
    "geocoded_address": "Manila, Daggett County, Utah, 84046, United States of America",
    "note": "Geocoded to city center (exact address not found)"
  },
  {
    "url": "https://www.foodpantries.org/li/daggett_county_community_food_pantry_84046",
    "name": "Daggett County Community Food Pantry",
    "address": "95 North 1st West",
    "city": "Manila",
    "state": "UT",
    "zip": "84046",
    "phone": "(435) 784-3993",
    "fax": "(435) 784-3335",
    "email": null,
    "website": "http://www.freefood.org/",
    "hours": "The 3rd Friday of every month\n\r\nThe Food Pantry is managed by the Uintah Basin Association of Governments (UBAOG) and Distributes commodities to low income families.\n\r\nFor more information, please call. \nCounty or Counties Served: Daggett",
    "description": null,
    "requirements": null,
    "scraped_at": "2025-11-03T22:06:35.665889",
    "latitude": 40.9880142,
    "longitude": -109.722649,
    "geocoded_address": "Manila, Daggett County, Utah, 84046, United States of America",
    "note": "Geocoded to city center (exact address not found)"
  },
  {
    "url": "https://www.foodpantries.org/li/lds_bishops_storehouse_and_manti_84642",
    "name": "LDS Bishop's Storehouse and Manti",
    "address": "50 South Main",
    "city": "Manti",
    "state": "UT",
    "zip": "84642",
    "phone": null,
    "fax": null,
    "email": null,
    "website": "http://www.freefood.org/",
    "hours": "Wednesday and Thursday 1:00pm - 3:30pm Friday 11:00am - 1:30pm  For more information, please call.  \nGo To Details Page For More Information",
    "description": null,
    "requirements": null,
    "scraped_at": "2025-11-03T22:06:39.648520",
    "latitude": 39.2647185,
    "longitude": -111.6370838,
    "geocoded_address": "50, South Main Street, Manti, Sanpete County, Utah, 84642, United States of America"
  },
  {
    "url": "https://www.foodpantries.org/li/mexican_hat_mobile_food_pantry_84531",
    "name": "Mexican Hat Mobile Food Pantry",
    "address": "272 Main Street",
    "city": "Mexican Hat",
    "state": "UT",
    "zip": "84531",
    "phone": null,
    "fax": null,
    "email": null,
    "website": "http://www.freefood.org/",
    "hours": "1st Friday after the 1st Monday: 11 am\r\n                                    \r\n                                                                        \n* Important: Please call the food pantries to confirm that the hours have not changed. We do our best to provide full information and details, but food pantries often change their hours without notifying us. We do not want you to waste your time visiting a pantry that is not open.",
    "description": null,
    "requirements": null,
    "scraped_at": "2025-11-03T22:06:42.637708",
    "latitude": 37.1482695,
    "longitude": -109.861438,
    "geocoded_address": "Mexican Hat, San Juan County, Utah, United States of America",
    "note": "Geocoded to city center (exact address not found)"
  },
  {
    "url": "https://www.foodpantries.org/li/ut_salt-lake-city_jewish-family-service-food-pantry",
    "name": "Alex & Sally Lebwohl Food Pantry at Jewish Family Service",
    "address": "495 E 4500 South",
    "city": "Salt Lake City",
    "state": "UT",
    "zip": "84107",
    "phone": "(801) 746-4334",
    "fax": null,
    "email": null,
    "website": "http://www.freefood.org/",
    "hours": "Monday, Wednesday & Friday: 11:00 am to 1:00 pmTuesday & Thursday: 2:30 pm to 4:30pmNotes:Food can be picked up once a weekNo ID, financial or citizenship requirementsAdditional Services:Seniors and Families programsFinancial AssistanceCrisis Support & Resources\nMission Statement\r\n               Caring for all Utahns since 1872.\r\nStrengthening individuals and families of all backgrounds.\r\n            \nCounty or Counties Served: Salt Lake",
    "description": null,
    "requirements": null,
    "scraped_at": "2025-11-03T22:06:45.972235",
    "latitude": 40.7022433,
    "longitude": -111.9988929,
    "geocoded_address": "4500 West, Alpine Meadows, West Valley City, Salt Lake County, Utah, 84120, United States of America"
  },
  {
    "url": "https://www.foodpantries.org/li/taylorsville_food_pantry_84123",
    "name": "Taylorsville Food Pantry",
    "address": "4775 South Plymouth View Drive",
    "city": "Taylorsville",
    "state": "UT",
    "zip": "84123",
    "phone": "(801) 815-0003",
    "fax": null,
    "email": null,
    "website": "http://www.freefood.org/",
    "hours": "Saturday 10:00am - 12:30pmNotes:They do not ask for ID verification unless there is a question of multiple persons from the same household attempting to obtain multiples of the food distribution.This situation is not allowed by the Utah Food Bank or the USDA, our main suppliers for the Pantry. It is one distribution for the entire household.For more information, please call.\nVolunteering Information:http://taylorsvillefoodpantry.org/give-time \nCounty or Counties Served: Salt Lake",
    "description": null,
    "requirements": null,
    "scraped_at": "2025-11-03T22:06:48.922676",
    "latitude": 40.6658983,
    "longitude": -111.9358998,
    "geocoded_address": "Taylorsville Food Pantry, 4775, Plymouth View Drive, Taylorsville, Salt Lake County, Utah, 84123, United States of America"
  },
  {
    "url": "https://www.foodpantries.org/li/ut_84124_mosaic-inter-faith-ministries",
    "name": "MOSAIC Inter-Faith Ministries Manna Food Pantry",
    "address": "3278 South 540 East",
    "city": "Salt Lake City",
    "state": "UT",
    "zip": "84106",
    "phone": "(801) 588-0139",
    "fax": null,
    "email": null,
    "website": "http://www.lssu.org/",
    "hours": "Monday, Tuesday, Wednesday, Thursday; 10:00 am to 3:00 pmNotes:Bring picture IDFood card will be issue first time to use from then on",
    "description": null,
    "requirements": null,
    "scraped_at": "2025-11-03T22:06:51.579576",
    "latitude": 40.7307296,
    "longitude": -111.8753685,
    "geocoded_address": "Park Street, Liberty Wells, Salt Lake City, Salt Lake County, Utah, 84114, United States of America"
  },
  {
    "url": "https://www.foodpantries.org/li/lds_bishops_storehouse_and_midway_84049",
    "name": "LDS Bishop's Storehouse and Midway",
    "address": "31 East Main Street",
    "city": "Midway",
    "state": "UT",
    "zip": "84049",
    "phone": null,
    "fax": null,
    "email": null,
    "website": "http://www.freefood.org/",
    "hours": "Thursday 11:00am - 6:00pm Friday 11:00am - 6:00pm  Requirements:  Complete and bring with you intake form (pick one up at the pantry) Picture ID Declare your income  Other Services:  Rental Assistance, and Employment Assistance. \nGo To Details Page For More Information",
    "description": null,
    "requirements": "Complete and bring with you intake form (pick one up at the pantry) Picture ID Declare your income  Other Services:  Rental Assistance, and Employment Assistance. \nGo To Details Page For More Information",
    "scraped_at": "2025-11-03T22:06:54.551188",
    "latitude": 40.5122482,
    "longitude": -111.4715496,
    "geocoded_address": "31, Main Street, Midway, Wasatch County, Utah, 84049, United States of America"
  },
  {
    "url": "https://www.foodpantries.org/li/grand-county-food-bank-moab",
    "name": "Grand County Food Bank",
    "address": "56 N 200 E",
    "city": "Moab",
    "state": "UT",
    "zip": "84532",
    "phone": "(435) 259-6456",
    "fax": null,
    "email": null,
    "website": "http://www.freefood.org/",
    "hours": "Tuesday, Thursday10:00 am - 12:00 pmFor more information, please call. \nCounty or Counties Served: Grand",
    "description": null,
    "requirements": null,
    "scraped_at": "2025-11-03T22:06:56.604678",
    "latitude": 38.5751555,
    "longitude": -109.5468418,
    "geocoded_address": "200 East, Moab, Grand County, Utah, 84532, United States of America"
  },
  {
    "url": "https://www.foodpantries.org/li/grand_county_food_bank_84532",
    "name": "Grand County Food Bank",
    "address": "56 North 200 East",
    "city": "Moab",
    "state": "UT",
    "zip": "84532",
    "phone": "(435) 259-6456",
    "fax": null,
    "email": null,
    "website": "http://www.freefood.org/",
    "hours": "Tuesday & Thursday\r\n 10:00am - 12:00pm\n\r\nFor more information, please call.",
    "description": null,
    "requirements": null,
    "scraped_at": "2025-11-03T22:06:59.169431",
    "latitude": 38.5745181,
    "longitude": -109.5467184,
    "geocoded_address": "56, 200 East, Moab, Grand County, Utah, 84532, United States of America"
  },
  {
    "url": "https://www.foodpantries.org/li/red_mesa_mobile_food_pantry_84534",
    "name": "Red Mesa Mobile Food Pantry",
    "address": "M",
    "city": "ontezuma Creek",
    "state": "UT",
    "zip": "84534",
    "phone": null,
    "fax": null,
    "email": null,
    "website": "http://www.freefood.org/",
    "hours": "4th Friday after the 1st Monday: Call for Details\r\n                                    \r\n                                                                        \n* Important: Please call the food pantries to confirm that the hours have not changed. We do our best to provide full information and details, but food pantries often change their hours without notifying us. We do not want you to waste your time visiting a pantry that is not open.",
    "description": null,
    "requirements": null,
    "scraped_at": "2025-11-03T22:07:01.276990"
  },
  {
    "url": "https://www.foodpantries.org/li/transitions_pantry_montezuma_creek_84534",
    "name": "Transitions Pantry - Montezuma Creek",
    "address": "North Highway 262",
    "city": "Montezuma Creek",
    "state": "UT",
    "zip": "84534",
    "phone": null,
    "fax": null,
    "email": null,
    "website": "http://www.freefood.org/",
    "hours": "Monday and Thursday: 10am and 3pm\r\n                                    \r\n                                                                        \n* Important: Please call the food pantries to confirm that the hours have not changed. We do our best to provide full information and details, but food pantries often change their hours without notifying us. We do not want you to waste your time visiting a pantry that is not open.",
    "description": null,
    "requirements": null,
    "scraped_at": "2025-11-03T22:07:04.371844",
    "latitude": 37.2632119,
    "longitude": -109.306128,
    "geocoded_address": "Montezuma Creek / D\u00edw\u00f3zhii Bikooh, Shiprock Agency / Naat\u02bc\u00e1anii N\u00e9\u00e9z Bi\u0142 Hahoodzo biyi\u02bcdi, San Juan County, Utah, 84534, United States of America",
    "note": "Geocoded to city center (exact address not found)"
  },
  {
    "url": "https://www.foodpantries.org/li/transitions_pantry_monument_valley_84536",
    "name": "Transitions Pantry - Monument Valley",
    "address": "Road 4 House 12",
    "city": "Monument Valley",
    "state": "UT",
    "zip": "84536",
    "phone": null,
    "fax": null,
    "email": null,
    "website": "http://www.freefood.org/",
    "hours": "Monday and Thursday: 11am and 3pm\r\n                                    \r\n                                                                        \n* Important: Please call the food pantries to confirm that the hours have not changed. We do our best to provide full information and details, but food pantries often change their hours without notifying us. We do not want you to waste your time visiting a pantry that is not open.",
    "description": null,
    "requirements": null,
    "scraped_at": "2025-11-03T22:07:09.102893",
    "latitude": 37.0111121,
    "longitude": -110.1873513,
    "geocoded_address": "Monument Valley State Park, San Juan County, Utah, 84536, United States of America",
    "note": "Geocoded to city center (exact address not found)"
  },
  {
    "url": "https://www.foodpantries.org/li/lds_bishops_storehouse_and_moroni_84646",
    "name": "LDS Bishop's Storehouse and Moroni",
    "address": "290 North Center Street",
    "city": "Moroni",
    "state": "UT",
    "zip": "84646",
    "phone": null,
    "fax": null,
    "email": null,
    "website": "http://www.freefood.org/",
    "hours": "Wednesday and Thursday 1:00pm - 3:30pm Friday 11:00am - 1:30pm  For more information, please call.  \nGo To Details Page For More Information",
    "description": null,
    "requirements": null,
    "scraped_at": "2025-11-03T22:07:14.677408",
    "latitude": 39.5285659,
    "longitude": -111.5837247,
    "geocoded_address": "290, Center Street, Moroni, Sanpete County, Utah, 84646, United States of America"
  },
  {
    "url": "https://www.foodpantries.org/li/ut_84647_sanpete-pantry",
    "name": "Sanpete Pantry",
    "address": "1080 S Blackhawk Blvd",
    "city": "Mt. Pleasant",
    "state": "UT",
    "zip": "84647",
    "phone": "(435) 462-3006",
    "fax": null,
    "email": null,
    "website": "http://www.freefood.org/",
    "hours": "Wednesday and Thursday1:00pm - 3:30pmFriday11:00am - 1:30pmFor more information, please call. \nCounty or Counties Served: Sanpete",
    "description": null,
    "requirements": null,
    "scraped_at": "2025-11-03T22:07:18.392026",
    "latitude": 39.5269249,
    "longitude": -111.4720994,
    "geocoded_address": "Blackhawk Boulevard, Mount Pleasant, Sanpete County, Utah, 84647, United States of America"
  },
  {
    "url": "https://www.foodpantries.org/li/ut_salt-lake-city_mesopotamia-community-pantry",
    "name": "Mesopotamia Community Pantry",
    "address": "3422 S 300 W",
    "city": "Salt Lake City",
    "state": "UT",
    "zip": "84115",
    "phone": "(385) 444-8861",
    "fax": null,
    "email": null,
    "website": "http://www.freefood.org/",
    "hours": "Wednesday and Friday 9:00am - 10:00am\r\n                                    \r\n                                    County or Counties Served: Salt Lake",
    "description": null,
    "requirements": null,
    "scraped_at": "2025-11-03T22:07:21.091603",
    "latitude": 40.7596198,
    "longitude": -111.886797,
    "geocoded_address": "Salt Lake City, Salt Lake County, Utah, United States of America",
    "note": "Geocoded to city center (exact address not found)"
  },
  {
    "url": "https://www.foodpantries.org/li/adopt-a-native-elder-program",
    "name": "Adopt-A-Native-Elder Program",
    "address": "328 W Gregson Ave",
    "city": "Salt Lake City",
    "state": "UT",
    "zip": "84115",
    "phone": "(435) 649-0535",
    "fax": null,
    "email": null,
    "website": "http://www.anelder.org",
    "hours": "Wednesday and Friday 9:00am - 10:00am\nGo To Details Page For More Information",
    "description": null,
    "requirements": null,
    "scraped_at": "2025-11-03T22:07:25.677395",
    "latitude": 40.7044995,
    "longitude": -111.864734,
    "geocoded_address": "Gregson Avenue, Sugar House, Salt Lake City, Salt Lake County, Utah, 84106, United States of America"
  },
  {
    "url": "https://www.foodpantries.org/li/utah-food-bank-salt-lake",
    "name": "Utah Food Bank - Salt Lake",
    "address": "3150 South 900 West",
    "city": "Salt Lake City",
    "state": "UT",
    "zip": "84119",
    "phone": "(801) 978-2452",
    "fax": "(801) 978-9565",
    "email": null,
    "website": "http://www.freefood.org/",
    "hours": "Monday - Thursday8:00am - 6:00pmFriday 8:00am - 5:00pmSaturday 8:00am - 1:00pmOffice Hours:Monday - Friday 8:00am - 5:00pmFor more information, please call.\nVolunteering Information:https://www.utahfoodbank.org/give-time \nCounty or Counties Served: Salt Lake",
    "description": null,
    "requirements": null,
    "scraped_at": "2025-11-03T22:07:28.458684",
    "latitude": 40.7259591,
    "longitude": -111.9169442,
    "geocoded_address": "900 West, Glendale, Salt Lake City, Salt Lake County, Utah, 84199, United States of America"
  },
  {
    "url": "https://www.foodpantries.org/li/lds_bishops_storehouse_and_nephi_84648",
    "name": "LDS Bishop's Storehouse and Nephi",
    "address": "575 East 700 North",
    "city": "Nephi",
    "state": "UT",
    "zip": "84648",
    "phone": null,
    "fax": null,
    "email": null,
    "website": "http://www.freefood.org/",
    "hours": "3rd Thurs: 10 am - 1 pm\nGo To Details Page For More Information",
    "description": null,
    "requirements": null,
    "scraped_at": "2025-11-03T22:07:33.416907",
    "latitude": 39.7117081,
    "longitude": -111.8228869,
    "geocoded_address": "North 700 East, Nephi, Juab County, Utah, 84648, United States of America"
  },
  {
    "url": "https://www.foodpantries.org/li/central_utah_food_sharing_and_nephi_84648",
    "name": "Central Utah Food Sharing and Nephi",
    "address": "33 East 100 North",
    "city": "Nephi",
    "state": "UT",
    "zip": "84648",
    "phone": null,
    "fax": null,
    "email": null,
    "website": "http://www.freefood.org/",
    "hours": "3rd Thurs: 10 am - 1 pm\r\n                                    \r\n                                                                        \n* Important: Please call the food pantries to confirm that the hours have not changed. We do our best to provide full information and details, but food pantries often change their hours without notifying us. We do not want you to waste your time visiting a pantry that is not open.",
    "description": null,
    "requirements": null,
    "scraped_at": "2025-11-03T22:07:37.553427",
    "latitude": 39.7102336,
    "longitude": -111.836321,
    "geocoded_address": "Nephi, Juab County, Utah, 84648, United States of America",
    "note": "Geocoded to city center (exact address not found)"
  },
  {
    "url": "https://www.foodpantries.org/li/first_baptist_church_nephi_84648",
    "name": "First Baptist Church - Nephi",
    "address": "65 South Main",
    "city": "Nephi",
    "state": "UT",
    "zip": "84648",
    "phone": null,
    "fax": null,
    "email": null,
    "website": "http://www.freefood.org/",
    "hours": "3rd Thurs: 10 am - 1 pm\nGo To Details Page For More Information",
    "description": null,
    "requirements": null,
    "scraped_at": "2025-11-03T22:07:40.547249",
    "latitude": 39.7102336,
    "longitude": -111.836321,
    "geocoded_address": "Nephi, Juab County, Utah, 84648, United States of America",
    "note": "Geocoded to city center (exact address not found)"
  },
  {
    "url": "https://www.foodpantries.org/li/community_action_services_and_payson_84651",
    "name": "Community Action Services and Payson",
    "address": "439 West Utah Avenue",
    "city": "Payson",
    "state": "UT",
    "zip": "84651",
    "phone": null,
    "fax": null,
    "email": null,
    "website": "http://www.freefood.org/",
    "hours": "Thursday: 1 - 3 pm\r\n                                    \r\n                                                                        \n* Important: Please call the food pantries to confirm that the hours have not changed. We do our best to provide full information and details, but food pantries often change their hours without notifying us. We do not want you to waste your time visiting a pantry that is not open.",
    "description": null,
    "requirements": null,
    "scraped_at": "2025-11-03T22:07:43.746537",
    "latitude": 40.0443989,
    "longitude": -111.7321518,
    "geocoded_address": "Payson, Utah County, Utah, 84651, United States of America",
    "note": "Geocoded to city center (exact address not found)"
  },
  {
    "url": "https://www.foodpantries.org/li/center_of_hope_84054",
    "name": "Center of Hope",
    "address": "18 South 130 East",
    "city": "North Salt Lake",
    "state": "UT",
    "zip": "84054",
    "phone": "(801) 706-3101",
    "fax": null,
    "email": null,
    "website": "http://www.freefood.org/",
    "hours": "The 2nd Saturday of the month10:00am - 2:00pmFor more information, please call. \nCounty or Counties Served: Davis",
    "description": null,
    "requirements": "You must have a CURRENT PICTURE ID FOR EVERY ADULT (18 AND UP) IN THE HOUSEHOLD (it does NOT have to be a state-issued ID) and IDENTIFICATION FOR EVERY CHILD, \nGo To Details Page For More Information",
    "scraped_at": "2025-11-03T22:07:47.360896",
    "latitude": 40.8415119,
    "longitude": -111.9086454,
    "geocoded_address": "18, 130 East, North Salt Lake, Davis County, Utah, 84054, United States of America"
  },
  {
    "url": "https://www.foodpantries.org/li/panguitch_care_and_share_84759",
    "name": "Panguitch Care and Share Food Pantry",
    "address": "81 North 50 West",
    "city": "Panguitch",
    "state": "UT",
    "zip": "84759",
    "phone": "(435) 676-2509",
    "fax": null,
    "email": null,
    "website": "http://www.freefood.org/",
    "hours": "3rd week of the month: Thursday 3:00 pm to 8:00 pmFriday & Saturday: 11:00 am to 4:00 pm\nCounty or Counties Served: Garfield",
    "description": null,
    "requirements": null,
    "scraped_at": "2025-11-03T22:07:49.918914",
    "latitude": 37.8228204,
    "longitude": -112.4357561,
    "geocoded_address": "Panguitch, Garfield County, Utah, 84759, United States of America",
    "note": "Geocoded to city center (exact address not found)"
  },
  {
    "url": "https://www.foodpantries.org/li/tabithas-way",
    "name": "Tabitha\\'s Way",
    "address": "140 North Main Street",
    "city": "Spanish Fork",
    "state": "UT",
    "zip": "84660",
    "phone": null,
    "fax": null,
    "email": null,
    "website": "http://www.freefood.org/",
    "hours": "3rd Sat: 10 am - 2 pm\nGo To Details Page For More Information",
    "description": null,
    "requirements": "Complete and bring with you intake form (pick one up at the pantry) Picture ID Declare your income  Other Services:  Rental Assistance, and Employment Assistance. \nGo To Details Page For More Information",
    "scraped_at": "2025-11-03T22:07:53.437898",
    "latitude": 40.1117169,
    "longitude": -111.654671,
    "geocoded_address": "140, North Main Street, Spanish Fork, Utah County, Utah, 84660, United States of America"
  },
  {
    "url": "https://www.foodpantries.org/li/carbon-county-food-bank",
    "name": "Carbon County Food Bank",
    "address": "75 E 400 S",
    "city": "Price",
    "state": "UT",
    "zip": "84501",
    "phone": "(435) 637-9232",
    "fax": null,
    "email": null,
    "website": "http://www.freefood.org/",
    "hours": "Tuesday and Friday: 12 and 4pm\nGo To Details Page For More Information",
    "description": null,
    "requirements": null,
    "scraped_at": "2025-11-03T22:07:55.924424",
    "latitude": 39.5994095,
    "longitude": -110.810714,
    "geocoded_address": "Price, Carbon County, Utah, 84591, United States of America",
    "note": "Geocoded to city center (exact address not found)"
  },
  {
    "url": "https://www.foodpantries.org/li/lds_bishops_storehouse_and_price_84501",
    "name": "LDS Bishop's Storehouse and Price",
    "address": "270 East 100 South",
    "city": "Price",
    "state": "UT",
    "zip": "84501",
    "phone": "(435) 637-2409",
    "fax": null,
    "email": null,
    "website": "http://www.freefood.org/",
    "hours": "Tuesdays though Thursdays 12:00 pm - 4:00 pm and Friday: 9:00 am- 1:00 pm\nGo To Details Page For More Information",
    "description": null,
    "requirements": null,
    "scraped_at": "2025-11-03T22:07:59.616205",
    "latitude": 39.5994095,
    "longitude": -110.810714,
    "geocoded_address": "Price, Carbon County, Utah, 84591, United States of America",
    "note": "Geocoded to city center (exact address not found)"
  },
  {
    "url": "https://www.foodpantries.org/li/carbon_county_food_bank_84501",
    "name": "Carbon County Food Bank",
    "address": "75 East 400 South",
    "city": "Price",
    "state": "UT",
    "zip": "84501",
    "phone": null,
    "fax": null,
    "email": null,
    "website": "http://www.freefood.org/",
    "hours": "Tuesdays though Thursdays 12:00 pm - 4:00 pm and Friday: 9:00 am- 1:00 pm\r\n                                    \r\n                                                                        \n* Important: Please call the food pantries to confirm that the hours have not changed. We do our best to provide full information and details, but food pantries often change their hours without notifying us. We do not want you to waste your time visiting a pantry that is not open.",
    "description": null,
    "requirements": null,
    "scraped_at": "2025-11-03T22:08:03.360609",
    "latitude": 39.5994095,
    "longitude": -110.810714,
    "geocoded_address": "Price, Carbon County, Utah, 84591, United States of America",
    "note": "Geocoded to city center (exact address not found)"
  },
  {
    "url": "https://www.foodpantries.org/li/rich_county_food_pantry_84064",
    "name": "Rich County Food Pantry",
    "address": "21 North Main Street",
    "city": "Randolph",
    "state": "UT",
    "zip": "84064",
    "phone": null,
    "fax": null,
    "email": null,
    "website": "http://www.freefood.org/",
    "hours": "Monday, Wednesdays and Fridays 11am and 3pm\r\n                                    \r\n                                                                        \n* Important: Please call the food pantries to confirm that the hours have not changed. We do our best to provide full information and details, but food pantries often change their hours without notifying us. We do not want you to waste your time visiting a pantry that is not open.",
    "description": null,
    "requirements": null,
    "scraped_at": "2025-11-03T22:08:07.515717",
    "latitude": 41.6657723,
    "longitude": -111.1848129,
    "geocoded_address": "21, North Main Street, Randolph, Rich County, Utah, 84064, United States of America"
  },
  {
    "url": "https://www.foodpantries.org/li/lds_bishops_storehouse_and_roosevelt_84066",
    "name": "LDS Bishop's Storehouse and Roosevelt",
    "address": "74 State Street",
    "city": "Roosevelt",
    "state": "UT",
    "zip": "84066",
    "phone": "(435) 722-2540",
    "fax": null,
    "email": null,
    "website": "http://www.freefood.org/",
    "hours": "Hours: Monday: 10:00am - 2:00pmMonday: 10:00am - 2:00pm Wednesday: 2:00pm - 6:00pmWednesday: 2:00pm - 6:00pm Friday: 10:00am - 2:00pmFriday\nGo To Details Page For More Information",
    "description": null,
    "requirements": null,
    "scraped_at": "2025-11-03T22:08:10.686253",
    "latitude": 40.2985198,
    "longitude": -109.9919393,
    "geocoded_address": "74, South State Street, Roosevelt, Duchesne County, Utah, 84066, United States of America"
  },
  {
    "url": "https://www.foodpantries.org/li/utah-food-bank",
    "name": "Utah Food Bank",
    "address": "3150 South 900 West",
    "city": "Salt Lake City",
    "state": "UT",
    "zip": "84119",
    "phone": "(801) 978-2452",
    "fax": "(801) 978-9565",
    "email": null,
    "website": "http://www.freefood.org/",
    "hours": "Monday - Friday\r\n 8:00am - 5:00pm\n\r\nDonation Hours:\r\nMonday - Thursday\r\n8:00am - 6:00pm (east side of building)\r\nFriday\r\n8:00am - 5:00pm (east side if building)\r\nSaturday\r\n8:00am - 1:00pm (east side of building)\n\r\nFor more information, please call. \nMission Statement\r\n               Fighting Hunger Statewide\r\n            \nCounty or Counties Served: Salt Lake",
    "description": null,
    "requirements": null,
    "scraped_at": "2025-11-03T22:08:18.244451",
    "latitude": 40.7259591,
    "longitude": -111.9169442,
    "geocoded_address": "900 West, Glendale, Salt Lake City, Salt Lake County, Utah, 84199, United States of America"
  },
  {
    "url": "https://www.foodpantries.org/li/salt-lake-cap-magna-neighborhood-food-center",
    "name": "Utah Community Action Magna",
    "address": "1307 S 900 W",
    "city": "Salt Lake City",
    "state": "UT",
    "zip": "84104",
    "phone": "(801) 977-1122",
    "fax": null,
    "email": null,
    "website": "https://www.utahca.org",
    "hours": "Monday, 10:00am - 1:00pm 6:00pm - 8:00pm Wednesday, Thursday 10:00am - 1:00pm Saturday 9:00am - 12:00pm  For more information, please call.  \nGo To Details Page For More Information",
    "description": null,
    "requirements": "You must have a CURRENT PICTURE ID FOR EVERY ADULT (18 AND UP) IN THE HOUSEHOLD (it does NOT have to be a state-issued ID) and IDENTIFICATION FOR EVERY CHILD, \nGo To Details Page For More Information",
    "scraped_at": "2025-11-03T22:08:20.785828",
    "latitude": 40.7596198,
    "longitude": -111.886797,
    "geocoded_address": "Salt Lake City, Salt Lake County, Utah, United States of America",
    "note": "Geocoded to city center (exact address not found)"
  },
  {
    "url": "https://www.foodpantries.org/li/ut_salt-lake-city_kearns-first-baptist-food-pantry",
    "name": "Kearns Food Pantry at First Baptist Community Church",
    "address": "4445 W 5175 South",
    "city": "Salt Lake City",
    "state": "UT",
    "zip": "84118",
    "phone": "(801) 815-0003",
    "fax": null,
    "email": null,
    "website": "http://www.freefood.org/",
    "hours": "Tuesday: 6:30 pm -7:45 pmWednesday: 11:00 am-2:45 pm (closed for lunch from 12:30 pm -1:00 pm)Thursday: 1:00 pm 2:45 pmFriday: 11:00 am-2:45 pm (closed for lunch from 12:30 pm -1:00 pm)\nVolunteering Information:If you would like to make a food donation, or are interested in volunteering, please contact the director during hours of operation. \nCounty or Counties Served: Salt Lake",
    "description": null,
    "requirements": null,
    "scraped_at": "2025-11-03T22:08:24.673322",
    "latitude": 40.6669591,
    "longitude": -112.0155607,
    "geocoded_address": "Camp Kearns Road, Creekview, Kearns, Salt Lake County, Utah, 84118, United States of America"
  },
  {
    "url": "https://www.foodpantries.org/li/rescue_mission_of_salt_lake_84101",
    "name": "Rescue Mission Of Salt Lake",
    "address": "463 South 400 West",
    "city": "Salt Lake City",
    "state": "UT",
    "zip": "84101",
    "phone": "(801) 355-1302",
    "fax": null,
    "email": null,
    "website": "http://www.freefood.org/",
    "hours": "Monday and Saturday9:30am and 11:30am3:00pm and 4:30pmFor more information, please call. \nVolunteering Information:https://rescuesaltlake.org/volunteer \nCounty or Counties Served: Salt Lake",
    "description": null,
    "requirements": "You must have a CURRENT PICTURE ID FOR EVERY ADULT (18 AND UP) IN THE HOUSEHOLD (it does NOT have to be a state-issued ID) and IDENTIFICATION FOR EVERY CHILD, \nGo To Details Page For More Information",
    "scraped_at": "2025-11-03T22:08:29.771962",
    "latitude": 40.7590168,
    "longitude": -111.9021231,
    "geocoded_address": "Rescue Mission of Salt Lake, 463, 400 West, Granary District, Downtown, Salt Lake City, Salt Lake County, Utah, 84101, United States of America"
  },
  {
    "url": "https://www.foodpantries.org/li/redwood_neighborhood_center_84119",
    "name": "Rivers Bend Northwest",
    "address": "1300 West 300 North",
    "city": "Salt Lake City",
    "state": "UT",
    "zip": "84116",
    "phone": "(385) 468-3015",
    "fax": null,
    "email": null,
    "website": "https://slco.org",
    "hours": "Monday - Friday\r\n11:30am - 12:15pm\n\r\nFor more information, ,please call.",
    "description": null,
    "requirements": "You must have a CURRENT PICTURE ID FOR EVERY ADULT (18 AND UP) IN THE HOUSEHOLD (it does NOT have to be a state-issued ID) and IDENTIFICATION FOR EVERY CHILD, \nGo To Details Page For More Information",
    "scraped_at": "2025-11-03T22:08:32.342358",
    "latitude": 40.7758422,
    "longitude": -111.9273311,
    "geocoded_address": "River's Bend Senior Center, 1300, Clark Avenue, Fairfield, Fairpark, Salt Lake City, Salt Lake County, Utah, 84116, United States of America"
  },
  {
    "url": "https://www.foodpantries.org/li/hildegardes_pantry_84111",
    "name": "Hildegarde's Pantry",
    "address": "231 East 100 South",
    "city": "Salt Lake City",
    "state": "UT",
    "zip": "84111",
    "phone": "(801) 328-2303",
    "fax": null,
    "email": null,
    "website": "http://www.freefood.org/",
    "hours": "Tuesday, Wednesday, and Friday 11:00 am - 1:30 pm Thursday 5:00 pm - 6:30 pm Requirements: You must have a CURRENT PICTURE ID FOR EVERY ADULT (18 AND UP) IN THE HOUSEHOLD (it does NOT have to be a state-issued ID) and IDENTIFICATION FOR EVERY CHILD, SUCH AS BIRTH CERTIFICATE, MEDICAL CARD, SOCIAL SECURITY CARD.  ALL IDENTIFICATION FOR EVERY PERSON IN YOUR HOUSEHOLD MUST BE PRESENTED ON EVERY VISIT.For more information, please call.\nCounty or Counties Served: Salt Lake",
    "description": null,
    "requirements": "You must have a CURRENT PICTURE ID FOR EVERY ADULT (18 AND UP) IN THE HOUSEHOLD (it does NOT have to be a state-issued ID) and IDENTIFICATION FOR EVERY CHILD, SUCH AS BIRTH CERTIFICATE, MEDICAL CARD, SOCIAL SECURITY CARD.  ALL IDENTIFICATION FOR EVERY PERSON IN YOUR HOUSEHOLD MUST BE PRESENTED ON EVERY VISIT.For more information, please call.\nCounty or Counties Served: Salt Lake",
    "scraped_at": "2025-11-03T22:08:35.088679",
    "latitude": 40.7677386,
    "longitude": -111.8842395,
    "geocoded_address": "Cathedral Church of Saint Mark, 231, 100 South, Central City, Salt Lake City, Salt Lake County, Utah, 84111, United States of America"
  },
  {
    "url": "https://www.foodpantries.org/li/church_of_philadelphia_84115",
    "name": "Church of Philadelphia",
    "address": "2358 South Main Street",
    "city": "Salt Lake City",
    "state": "UT",
    "zip": "84115",
    "phone": "(385) 229-1422",
    "fax": null,
    "email": null,
    "website": "http://www.freefood.org/",
    "hours": "Tuesday\r\n10:00am - 4:00pm\n\r\nFor more information, please call. \nCounty or Counties Served: Salt Lake",
    "description": null,
    "requirements": null,
    "scraped_at": "2025-11-03T22:08:37.501752",
    "latitude": 40.7256398,
    "longitude": -111.8911091,
    "geocoded_address": "Main Street, Ballpark, Salt Lake City, Salt Lake County, Utah, 84190, United States of America"
  },
  {
    "url": "https://www.foodpantries.org/li/ccs_salt_lake_city_84101",
    "name": "CCS Salt Lake City",
    "address": "437 W. 200 S.",
    "city": "Salt Lake City",
    "state": "UT",
    "zip": "84101",
    "phone": null,
    "fax": null,
    "email": null,
    "website": "http://ccsutah.org",
    "hours": "Monday and Saturday 9:30am and 11:30am 3:00pm and 4:30pm  For more information, please call.  \nGo To Details Page For More Information",
    "description": null,
    "requirements": "You must have a CURRENT PICTURE ID FOR EVERY ADULT (18 AND UP) IN THE HOUSEHOLD (it does NOT have to be a state-issued ID) and IDENTIFICATION FOR EVERY CHILD, \nGo To Details Page For More Information",
    "scraped_at": "2025-11-03T22:08:41.413000",
    "latitude": 40.7649919,
    "longitude": -111.8969028,
    "geocoded_address": "200 South, Downtown, Salt Lake City, Salt Lake County, Utah, 84101, United States of America"
  },
  {
    "url": "https://www.foodpantries.org/li/the_salvation_army_emergency_family_services_84104",
    "name": "The Salvation Army - Emergency Family Services Food Pantry",
    "address": "438 South 900 West",
    "city": "Salt Lake City",
    "state": "UT",
    "zip": "84104",
    "phone": "(801) 988-4204",
    "fax": "(801) 988-4214",
    "email": null,
    "website": "http://www.freefood.org/",
    "hours": "Tuesdays 10:00am - 12:00pmWednesdays 2:00pm - 4:00pmFridays 2:00pm - 4:00 pmRequirements:Photo ID for all the adults in the household.ID for children (i.e. birth certificate, shot record, Social Security card or Medicaid Card)Proof of address (utility bill, etc).Proof of income (check stub).For more information, please call. \nCounty or Counties Served: Salt Lake",
    "description": null,
    "requirements": "Photo ID for all the adults in the household.ID for children (i.e. birth certificate, shot record, Social Security card or Medicaid Card)Proof of address (utility bill, etc).Proof of income (check stub).For more information, please call. \nCounty or Counties Served: Salt Lake",
    "scraped_at": "2025-11-03T22:08:45.034464",
    "latitude": 40.7596248,
    "longitude": -111.9174399,
    "geocoded_address": "The Salvation Army Salt Lake City, 438, 900 West, Poplar Grove, Salt Lake City, Salt Lake County, Utah, 84104, United States of America"
  },
  {
    "url": "https://www.foodpantries.org/li/st_pauls_episcopal_church_84102",
    "name": "St Paul's Episcopal Church",
    "address": "261 South 900 East",
    "city": "Salt Lake City",
    "state": "UT",
    "zip": "84102",
    "phone": "(801) 322-5869",
    "fax": null,
    "email": null,
    "website": "http://www.freefood.org/",
    "hours": "Saturday9:00am - 1:00pmFor more information, please call. \nCounty or Counties Served: Salt Lake",
    "description": null,
    "requirements": "You must have a CURRENT PICTURE ID FOR EVERY ADULT (18 AND UP) IN THE HOUSEHOLD (it does NOT have to be a state-issued ID) and IDENTIFICATION FOR EVERY CHILD, \nGo To Details Page For More Information",
    "scraped_at": "2025-11-03T22:08:47.484937",
    "latitude": 40.7632985,
    "longitude": -111.8647444,
    "geocoded_address": "Saint Paul's Episcopal Church, 261, 900 East, East Central, Salt Lake City, Salt Lake County, Utah, 84102, United States of America"
  },
  {
    "url": "https://www.foodpantries.org/li/feed-u-food-pantry",
    "name": "Feed U Food Pantry",
    "address": "200 S Central Campus Drive",
    "city": "Salt Lake CIty",
    "state": "UT",
    "zip": "84112",
    "phone": "(801) 581-5888",
    "fax": null,
    "email": null,
    "website": "http://feedu.utah.edu",
    "hours": "Saturday 9:00am - 1:00pm For more information, please call.  \nGo To Details Page For More Information",
    "description": null,
    "requirements": "You must have a CURRENT PICTURE ID FOR EVERY ADULT (18 AND UP) IN THE HOUSEHOLD (it does NOT have to be a state-issued ID) and IDENTIFICATION FOR EVERY CHILD, \nGo To Details Page For More Information",
    "scraped_at": "2025-11-03T22:08:49.818375",
    "latitude": 40.7704098,
    "longitude": -111.8449113,
    "geocoded_address": "Central Campus Drive, Salt Lake City, Salt Lake County, Utah, 84112, United States of America"
  },
  {
    "url": "https://www.foodpantries.org/li/ut_84104_the-concern-center",
    "name": "The Concern Center",
    "address": "1235 W. California Ave.",
    "city": "Salt Lake City",
    "state": "UT",
    "zip": "84104",
    "phone": "(801) 972-5708",
    "fax": null,
    "email": null,
    "website": "https://slba.org",
    "hours": "Monday, 10:00am - 1:00pm6:00pm - 8:00pmWednesday, Thursday10:00am - 1:00pmSaturday9:00am - 12:00pmFor more information, please call. \nCounty or Counties Served: Salt Lake",
    "description": null,
    "requirements": null,
    "scraped_at": "2025-11-03T22:08:54.099049",
    "latitude": 40.7404537,
    "longitude": -111.9374862,
    "geocoded_address": "California Avenue, Glendale, Salt Lake City, Salt Lake County, Utah, 84104, United States of America"
  },
  {
    "url": "https://www.foodpantries.org/li/salt-lake-city-mission-food-pantry-clothing-room",
    "name": "Salt Lake City Mission Food Pantry & Clothing Room",
    "address": "1151 S. Redwood Road",
    "city": "Salt Lake City",
    "state": "UT",
    "zip": "84104",
    "phone": "(801) 355-6310",
    "fax": null,
    "email": null,
    "website": "http://www.freefood.org/",
    "hours": "Monday through Friday11:00 am to 4:00 pmProvides: Food boxes, clothing, school supplies, furniture/household items, and other necessities.For more information, please call. \nVolunteering Information:https://saltlakecitymission.org/outreach-events/volunteer",
    "description": null,
    "requirements": null,
    "scraped_at": "2025-11-03T22:08:57.532963",
    "latitude": 40.744053,
    "longitude": -111.9385293,
    "geocoded_address": "Salt Lake City Mission, 1151 S, Redwood Road, Glendale, Salt Lake City, Salt Lake County, Utah, 84104, United States of America"
  },
  {
    "url": "https://www.foodpantries.org/li/ut_salt-lake-city_crossroads-urban-center-food-pantry",
    "name": "Crossroads Urban Center Food Pantry",
    "address": "347 S 400 East",
    "city": "Salt Lake City",
    "state": "UT",
    "zip": "84111",
    "phone": "(801) 364-7765",
    "fax": null,
    "email": null,
    "website": "http://www.freefood.org/",
    "hours": "Monday to Friday: 9:00 am to 5:00 pm\nCounty or Counties Served: Salt Lake",
    "description": null,
    "requirements": "You must have a CURRENT PICTURE ID FOR EVERY ADULT (18 AND UP) IN THE HOUSEHOLD (it does NOT have to be a state-issued ID) and IDENTIFICATION FOR EVERY CHILD, \nGo To Details Page For More Information",
    "scraped_at": "2025-11-03T22:09:00.262147",
    "latitude": 40.7457211,
    "longitude": -111.8796433,
    "geocoded_address": "400 East, Central City / Liberty-Wells, Liberty Wells, Salt Lake City, Salt Lake County, Utah, 84111, United States of America"
  },
  {
    "url": "https://www.foodpantries.org/li/ut_salt-lake-city_discovery-christian-community-ruths-kitchen",
    "name": "Ruth\u2019s Kitchen at Discovery Christian Community",
    "address": "5929 S 900 East",
    "city": "Salt Lake City",
    "state": "UT",
    "zip": "84121",
    "phone": "(801) 548-6279",
    "fax": null,
    "email": null,
    "website": "http://www.freefood.org/",
    "hours": "Every Tuesday at 12:30 pm - 2:00 pmEvery Thursday at 6:00 pm - 8:00 pmAny donations need to be brought to the back kitchen door, Tuesdays from 10am to 2pm.\nCounty or Counties Served: Salt Lake",
    "description": null,
    "requirements": "You must have a CURRENT PICTURE ID FOR EVERY ADULT (18 AND UP) IN THE HOUSEHOLD (it does NOT have to be a state-issued ID) and IDENTIFICATION FOR EVERY CHILD, \nGo To Details Page For More Information",
    "scraped_at": "2025-11-03T22:09:03.539399",
    "latitude": 40.7496253,
    "longitude": -111.8255948,
    "geocoded_address": "900 South, Sunnyside East, Salt Lake City, Salt Lake County, Utah, 84108, United States of America"
  },
  {
    "url": "https://www.foodpantries.org/li/ut_salt-lake-city_food-distribution-center-crossroads",
    "name": "Westside Food Pantry - Crossroads Urban Center",
    "address": "1358 West Indiana Avenue",
    "city": "Salt Lake City",
    "state": "UT",
    "zip": "84104",
    "phone": "(801) 935-4079",
    "fax": null,
    "email": null,
    "website": "http://www.freefood.org/",
    "hours": "Monday, Tuesday, Thursday, Friday 9:00AM - 5:00PM",
    "description": null,
    "requirements": "You must have a CURRENT PICTURE ID FOR EVERY ADULT (18 AND UP) IN THE HOUSEHOLD (it does NOT have to be a state-issued ID) and IDENTIFICATION FOR EVERY CHILD, \nGo To Details Page For More Information",
    "scraped_at": "2025-11-03T22:09:06.139773",
    "latitude": 40.7596198,
    "longitude": -111.886797,
    "geocoded_address": "Salt Lake City, Salt Lake County, Utah, United States of America",
    "note": "Geocoded to city center (exact address not found)"
  },
  {
    "url": "https://www.foodpantries.org/li/ut_tooele_new-life-christian-fellowship-food-pantry",
    "name": "New Life Christian Fellowship Clothing and Food Pantry",
    "address": "411 E Utah Avenue",
    "city": "Tooele",
    "state": "UT",
    "zip": "84074",
    "phone": "(435) 843-7430",
    "fax": null,
    "email": null,
    "website": "https://www.nlot.org/",
    "hours": "Wednesdays and Fridays 2:00\u202fpm to 4:00\u202fpmClothing closet hours:Wednesday and Friday from 12:00pm to 3:00pmAdditional Services:Monthly Food Delivery for qualifying people, requests must be made each month. Space is limited.ShowersLaundry\nCounty or Counties Served: Tooele",
    "description": null,
    "requirements": null,
    "scraped_at": "2025-11-03T22:09:09.624095",
    "latitude": 40.5344379,
    "longitude": -112.2895712,
    "geocoded_address": "Utah Avenue, Tooele, Tooele County, Utah, 84074, United States of America"
  },
  {
    "url": "https://www.foodpantries.org/li/tooele_county_food_bank_84074",
    "name": "Tooele Community Resource Center - Food Pantry",
    "address": "34 South Main Street",
    "city": "Tooele",
    "state": "UT",
    "zip": "84074",
    "phone": "(435) 566-0224",
    "fax": null,
    "email": null,
    "website": "https://tooelecrc.org",
    "hours": "Monday and Wednesday12:00pmTuesday, Thursday & Friday 8:30am - 12:00pm1:00pm - 4:00pmClosed for lunch at 12:00pm - 1:00pmFor more information, please call. Alternate numbers 435-830-4706, 566-0224-0225\nVolunteering Information:https://tooelecrc.org/volunteer \nCounty or Counties Served: Tooele",
    "description": null,
    "requirements": null,
    "scraped_at": "2025-11-03T22:09:12.027817",
    "latitude": 40.5307776,
    "longitude": -112.29828,
    "geocoded_address": "Tooele, Tooele County, Utah, 84074, United States of America",
    "note": "Geocoded to city center (exact address not found)"
  },
  {
    "url": "https://www.foodpantries.org/li/ashley_valley_food_pantry_84078",
    "name": "Ashley Valley Food Pantry",
    "address": "426 East 200 South",
    "city": "Vernal",
    "state": "UT",
    "zip": "84078",
    "phone": "(435) 789-1014",
    "fax": null,
    "email": null,
    "website": "http://www.freefood.org/",
    "hours": "Monday and Friday 10:00am - 2:00pm Wednesday 2:00pm - 6:00pm\nCounty or Counties Served: Uintah",
    "description": null,
    "requirements": null,
    "scraped_at": "2025-11-03T22:09:15.291629",
    "latitude": 40.4528669,
    "longitude": -109.5368718,
    "geocoded_address": "426, East 200 South, Vernal, Uintah County, Utah, 84078, United States of America"
  },
  {
    "url": "https://www.foodpantries.org/li/wendover_christian_fellowship_84083",
    "name": "Wendover Christian Fellowship",
    "address": "1854 Plateau Way",
    "city": "Wendover",
    "state": "UT",
    "zip": "84083",
    "phone": null,
    "fax": null,
    "email": null,
    "website": "http://www.freefood.org/",
    "hours": "Tuesday, Thursday and Friday: 11 am - 4:30 pm\r\n                                    \r\n                                                                        \n* Important: Please call the food pantries to confirm that the hours have not changed. We do our best to provide full information and details, but food pantries often change their hours without notifying us. We do not want you to waste your time visiting a pantry that is not open.",
    "description": null,
    "requirements": null,
    "scraped_at": "2025-11-03T22:09:17.564854",
    "latitude": 40.7374014,
    "longitude": -114.0304541,
    "geocoded_address": "Wendover, Tooele County, Utah, United States of America",
    "note": "Geocoded to city center (exact address not found)"
  },
  {
    "url": "https://www.foodpantries.org/li/joesephs-pantry",
    "name": "Joeseph's Pantry",
    "address": "1920 Plateau Way",
    "city": "West Wendover",
    "state": "NV",
    "zip": "89883",
    "phone": "(775) 664-3030",
    "fax": null,
    "email": null,
    "website": "http://www.freefood.org/",
    "hours": "Monday, Tuesday, Thursday and Friday\r\n11:00am - 2:00pm\r\nDistribution is held inside the Senior Center\r\nThrift store Hours:\r\nMonday - Saturday\r\n10:00am - 4:00pm\n\r\nCommunity Resource Center \r\nMonday - Friday\n\r\n Senior Center\r\nOpen for Lunch\r\nMonday, Wednesday and Friday\r\n12:00pm\n\r\nFor more information, please call.",
    "description": null,
    "requirements": null,
    "scraped_at": "2025-11-03T22:09:20.822823",
    "latitude": 40.7409656,
    "longitude": -114.0751726,
    "geocoded_address": "West Wendover, Elko County, Nevada, United States of America",
    "note": "Geocoded to city center (exact address not found)"
  },
  {
    "url": "https://www.foodpantries.org/li/granger_food_pantry_84119",
    "name": "Granger Food Pantry",
    "address": "3232 W 4100 South",
    "city": "West Valley",
    "state": "UT",
    "zip": "84119",
    "phone": null,
    "fax": null,
    "email": null,
    "website": "http://www.freefood.org/",
    "hours": "Monday 5:00pm - 6:30pmSaturday10:00am - 12:00pm\r\n                                    \r\n                                    County or Counties Served: Salt Lake",
    "description": null,
    "requirements": null,
    "scraped_at": "2025-11-03T22:09:24.011554",
    "latitude": 40.6834879,
    "longitude": -111.98938,
    "geocoded_address": "4100 West, Country Meadows, West Valley City, Salt Lake County, Utah, 84120, United States of America"
  },
  {
    "url": "https://www.foodpantries.org/li/granger_community_christian_church_84119",
    "name": "Granger Community Christian Church",
    "address": "3232 West 4100 South",
    "city": "West Valley City",
    "state": "UT",
    "zip": "84119",
    "phone": "(801) 968-3301",
    "fax": null,
    "email": null,
    "website": "http://www.freefood.org/",
    "hours": "Monday 5:30pm - 7:00pm  Saturday 10:00am - 12:00pmFor more information, please call. \nCounty or Counties Served: Salt Lake",
    "description": null,
    "requirements": null,
    "scraped_at": "2025-11-03T22:09:26.346981",
    "latitude": 40.6824261,
    "longitude": -111.967966,
    "geocoded_address": "Granger Christian Church, Disciples of Christ, 3232, Cody Brotherson Parkway, West Valley City, Salt Lake County, Utah, 84119, United States of America"
  },
  {
    "url": "https://www.foodpantries.org/li/northwestwestside_neighborhood_center_84116",
    "name": "Utah Community Action",
    "address": "3060 Lester Street",
    "city": "West Valle City",
    "state": "UT",
    "zip": "84119",
    "phone": "(801) 972-6661",
    "fax": null,
    "email": null,
    "website": "https://www.utahca.org",
    "hours": "Tuesday1:00pm - 3:00pmWednesday - Friday8:30am - 11:00am and 1:00pm - 3:00pm\nCounty or Counties Served: Salt Lake",
    "description": null,
    "requirements": null,
    "scraped_at": "2025-11-03T22:09:28.679742"
  }
]