[
  {
    "url": "https://www.foodpantries.org/li/cvoeo_outreach_office_and_alburgh_05440",
    "name": "Cvoeo Outreach Office and Alburgh",
    "address": "22 Lake Street",
    "city": "Alburgh",
    "state": "VT",
    "zip": "05440",
    "phone": "(802) 527-7392",
    "fax": null,
    "email": null,
    "website": "http://www.freefood.org/",
    "hours": "Tuesday 9:00am to 12:00pm  For more information, please call.  \nGo To Details Page For More Information",
    "description": null,
    "requirements": null,
    "scraped_at": "2025-11-03T22:12:48.090134",
    "latitude": 44.9750043,
    "longitude": -73.3026572,
    "geocoded_address": "22, Lake Street, Alburgh, Grand Isle County, Vermont, 05440, United States of America"
  },
  {
    "url": "https://www.foodpantries.org/li/ny_champlain_champlain-village-office-food-pantry",
    "name": "Champlain Village Office Food Pantry",
    "address": "11104 St. Rt. 9",
    "city": "Champlain",
    "state": "NY",
    "zip": "12919",
    "phone": "(518) 298-4152",
    "fax": null,
    "email": null,
    "website": "http://www.freefood.org/",
    "hours": "Tuesday 9:00am to 12:00pm  For more information, please call.  \nGo To Details Page For More Information",
    "description": null,
    "requirements": null,
    "scraped_at": "2025-11-03T22:12:50.548544",
    "latitude": 44.986656,
    "longitude": -73.446693,
    "geocoded_address": "Town of Champlain, Clinton County, New York, United States of America",
    "note": "Geocoded to city center (exact address not found)"
  },
  {
    "url": "https://www.foodpantries.org/li/swanton_community_food_shelf_nativity_parish_center_05488",
    "name": "Swanton Community Food Shelf - Nativity Parish Center",
    "address": "65 Canada Street",
    "city": "Swanton",
    "state": "VT",
    "zip": "05488",
    "phone": "(802) 868-4262",
    "fax": null,
    "email": null,
    "website": "http://www.freefood.org/",
    "hours": "Tuesday 9:00am to 12:00pmFor more information, please call. \nCounty or Counties Served: Franklin",
    "description": null,
    "requirements": null,
    "scraped_at": "2025-11-03T22:12:53.886385",
    "latitude": 44.9217489,
    "longitude": -73.1186932,
    "geocoded_address": "65, Canada Street, Swanton Village, Swanton, Franklin County, Vermont, 05488, United States of America"
  },
  {
    "url": "https://www.foodpantries.org/li/vt_05488_abenaki-nation-of-missisquoi-food-pantry",
    "name": "Abenaki Nation of Missisquoi Food Pantry",
    "address": "100 Grand Ave",
    "city": "Swanton",
    "state": "VT",
    "zip": "05488",
    "phone": "(802) 868-6255",
    "fax": null,
    "email": null,
    "website": "http://www.freefood.org/",
    "hours": "Monday, Wednesday and Friday from 9:00am - 4:00pm\nCounty or Counties Served: Franklin",
    "description": null,
    "requirements": null,
    "scraped_at": "2025-11-03T22:12:55.937199",
    "latitude": 44.9141141,
    "longitude": -73.1167412,
    "geocoded_address": "100, Grand Avenue, Swanton Village, Swanton, Franklin County, Vermont, 05488, United States of America"
  },
  {
    "url": "https://www.foodpantries.org/li/vt_05478_marthas-kitchen",
    "name": "Martha's Kitchen",
    "address": "139 Lake Street",
    "city": "St. Albans",
    "state": "VT",
    "zip": "05478",
    "phone": "(802) 524-9749",
    "fax": null,
    "email": null,
    "website": "http://www.freefood.org/",
    "hours": "Every day of the year. Serving \"grab & go\" meals between 11:00 am - 1:00 pmFor more information, please call. \nVolunteering Information:https://marthascommunitykitchen802.org/volunteer \nCounty or Counties Served: Franklin",
    "description": null,
    "requirements": null,
    "scraped_at": "2025-11-03T22:12:58.140449",
    "latitude": 44.8112594,
    "longitude": -73.0888569,
    "geocoded_address": "139, Lake Street, Saint Albans City, Franklin County, Vermont, 05479, United States of America"
  },
  {
    "url": "https://www.foodpantries.org/li/franklin_grand_isle_community_action_cvoeo_05478",
    "name": "Franklin Grand Isle Community Action/ Cvoeo",
    "address": "5 Lemnah Drive",
    "city": "Saint Albans",
    "state": "VT",
    "zip": "05478",
    "phone": "(802) 527-7392",
    "fax": null,
    "email": null,
    "website": "http://www.freefood.org/",
    "hours": "Every day of the year.  Serving \"grab & go\" meals between 11:00 am - 1:00 pm  For more information, please call.  \nGo To Details Page For More Information",
    "description": null,
    "requirements": null,
    "scraped_at": "2025-11-03T22:13:00.500784",
    "latitude": 44.8046288,
    "longitude": -73.0893064,
    "geocoded_address": "5, Lemnah Drive, Saint Albans City, Franklin County, Vermont, 05479, United States of America"
  },
  {
    "url": "https://www.foodpantries.org/li/champlain_islands_methodist_05458",
    "name": "Champlain Islands Food Shelf (CIFS)",
    "address": "12 Hyde Road",
    "city": "Grand Isle",
    "state": "VT",
    "zip": "05458",
    "phone": "(802) 318-4704",
    "fax": null,
    "email": null,
    "website": "http://www.freefood.org/",
    "hours": "Wednesdays 1:00pm - 4:00pm\n\r\nFor more information, please call.",
    "description": null,
    "requirements": null,
    "scraped_at": "2025-11-03T22:13:03.128341",
    "latitude": 44.7225796,
    "longitude": -73.2955533,
    "geocoded_address": "United Methodist Church, 12, Hyde Road, Grand Isle, Grand Isle County, Vermont, 05458, United States of America"
  },
  {
    "url": "https://www.foodpantries.org/li/vt_05483_sheldon-interfaith-food-shelf",
    "name": "Sheldon Interfaith Food Shelf",
    "address": "52 Church Street",
    "city": "Sheldon",
    "state": "VT",
    "zip": "05483",
    "phone": "(802) 933-4487",
    "fax": null,
    "email": null,
    "website": "http://www.freefood.org/",
    "hours": "Monday 4:00pm - 6:00pmTuesday 10:00am - 1:00pmThursday 4:00 - 7:00pmSaturday 12:00pm - 3:00pm\nVolunteering Information:Contact John Gorton to Volunteer or donate: 802-933-4487 \nCounty or Counties Served: Franklin",
    "description": null,
    "requirements": null,
    "scraped_at": "2025-11-03T22:13:05.469746",
    "latitude": 44.8825702,
    "longitude": -72.9417997,
    "geocoded_address": "52, Church Street, Sheldon, Franklin County, Vermont, 05483, United States of America"
  },
  {
    "url": "https://www.foodpantries.org/li/georgia_food_shelf_05468",
    "name": "Georgia Food Shelf",
    "address": "1697 Ethan Allen Highway",
    "city": "Georgia",
    "state": "VT",
    "zip": "05468",
    "phone": "(802) 524-1799",
    "fax": null,
    "email": null,
    "website": "http://www.freefood.org/",
    "hours": "Last two Wednesdays of the month: 4pm -5pm\r\n                                    \r\n                                                                        \n* Important: Please call the food pantries to confirm that the hours have not changed. We do our best to provide full information and details, but food pantries often change their hours without notifying us. We do not want you to waste your time visiting a pantry that is not open.",
    "description": null,
    "requirements": null,
    "scraped_at": "2025-11-03T22:13:07.915171",
    "latitude": 44.7030094,
    "longitude": -73.1054537,
    "geocoded_address": "Georgia Public Library, 1697, Ethan Allen Highway, Georgia, Franklin County, Vermont, 05454, United States of America"
  },
  {
    "url": "https://www.foodpantries.org/li/vt_fairfax_georgia-food-shelf-food-pantry",
    "name": "Georgia Food Shelf",
    "address": "1697 Ethan Allen Highway",
    "city": "Fairfax",
    "state": "VT",
    "zip": "05454",
    "phone": "(802) 524-1799",
    "fax": null,
    "email": null,
    "website": "http://www.freefood.org/",
    "hours": "Mondays 4:00 pm to 5:00 pm Donations Drop off places:Saturdays at the Food Shelf 9:30am - 10:30am and Mondays 3:00pm - 4:00pm.Drop-offs can also be done at the Georgia Town Library during hours of operation. Donations of cash and checks can be mail to Georgia Food Shelf, C/O Jolly Bates, 3878 Ethan Allen Highway, Georgia, Vt. 05478\nCounty or Counties Served: Chittenden",
    "description": null,
    "requirements": null,
    "scraped_at": "2025-11-03T22:13:10.181537",
    "latitude": 44.6652883,
    "longitude": -73.0087203,
    "geocoded_address": "Fairfax, Franklin County, Vermont, 05454, United States of America",
    "note": "Geocoded to city center (exact address not found)"
  },
  {
    "url": "https://www.foodpantries.org/li/arlington_food_shelf_05250",
    "name": "Arlington Food Shelf",
    "address": "165 Old Mill Road",
    "city": "Arlington",
    "state": "VT",
    "zip": "05250",
    "phone": "(802) 375-6328",
    "fax": null,
    "email": null,
    "website": "http://www.freefood.org/",
    "hours": "First Tuesday of the month 1:30pm - 4:00pmThird Tuesday of the month 3:30pm - 5:30pmService Area:Arlington, East Arlington, Sandgate, and Sunderland.Documentation Required:Proof of ResidenceFor more information, please call the pantry.",
    "description": null,
    "requirements": null,
    "scraped_at": "2025-11-03T22:13:15.054733",
    "latitude": 43.0607855,
    "longitude": -73.1420336,
    "geocoded_address": "165, Old Mill Road, East Arlington, Arlington, Bennington County, Vermont, 05252, United States of America"
  },
  {
    "url": "https://www.foodpantries.org/li/manchester_community_food_cupboard_05255",
    "name": "Manchester Community Food Cupboard",
    "address": "6039 Main Street (Route 7A)",
    "city": "Manchester Center",
    "state": "VT",
    "zip": "05255",
    "phone": "(802) 362-0057",
    "fax": null,
    "email": null,
    "website": "http://www.freefood.org/",
    "hours": "Wednesday\r\n 2:00pm until 4:00pm \r\nThursdays \r\n10:00am until 12:00pm and 2:00pm until 4:00pm\n\r\nFor more information, please call. \nCounty or Counties Served: Bennington",
    "description": null,
    "requirements": null,
    "scraped_at": "2025-11-03T22:13:17.654582",
    "latitude": 43.176909,
    "longitude": -73.0568716,
    "geocoded_address": "Manchester, Bennington County, Vermont, United States of America",
    "note": "Geocoded to city center (exact address not found)"
  },
  {
    "url": "https://www.foodpantries.org/li/salem_first_united_presbyterian_church_food_pantry_12865",
    "name": "Salem Ecumenical Food Pantry",
    "address": "32 East Broadway",
    "city": "Salem",
    "state": "NY",
    "zip": "12865",
    "phone": "(518) 222-5638",
    "fax": null,
    "email": null,
    "website": "http://www.freefood.org/",
    "hours": "Saturdays 9:30am to 11:30am\r\nAppointments can be made for access to provisions on weekdays.\n\r\nFor more information, please call.",
    "description": null,
    "requirements": null,
    "scraped_at": "2025-11-03T22:13:21.408221",
    "latitude": 43.1725266,
    "longitude": -73.3247618,
    "geocoded_address": "St. Paul's Church, 32, East Broadway, Town of Salem, Washington County, New York, 12865, United States of America"
  },
  {
    "url": "https://www.foodpantries.org/li/ny_cambridge_cambridge-seniors-building-food-pantry",
    "name": "Cambridge Senior Center Washington County Meal Site",
    "address": "5 Park Place",
    "city": "Cambridge",
    "state": "NY",
    "zip": "12816",
    "phone": "(518) 677-8592",
    "fax": null,
    "email": null,
    "website": "http://www.freefood.org/",
    "hours": "(Contact them 24 hours before to make a reservation)Monday  Friday 12:00 pmHome-delivered meals:Call the Office for the Aging at 518-746-2420.Thrift Shop Hours and Donations:Monday thru Friday 10:00 AM to 2:00 PM\nCounty or Counties Served: Washington",
    "description": null,
    "requirements": null,
    "scraped_at": "2025-11-03T22:13:24.127979",
    "latitude": 43.0279897,
    "longitude": -73.3768735,
    "geocoded_address": "5, Park Place, Cambridge Green Townhomes, Village of Cambridge, Town of White Creek, Washington County, New York, 12816, United States of America"
  },
  {
    "url": "https://www.foodpantries.org/li/ny_12816_cambridge-food-pantry-cambridge-united-presbyterian-church",
    "name": "Cambridge Food Pantry",
    "address": "59 South Park Street",
    "city": "Cambridge",
    "state": "NY",
    "zip": "12816",
    "phone": "(518) 677-7152",
    "fax": null,
    "email": null,
    "website": "http://www.freefood.org/",
    "hours": "Wednesday 1:00pm - 3:00pmFriday 4:00pm - 6:00pmSaturday 11:00am - 1:00pmMailing address:PO Box 473, Cambridge, NY 12816For more information, please call.\nCounty or Counties Served: Washington",
    "description": null,
    "requirements": null,
    "scraped_at": "2025-11-03T22:13:26.520625",
    "latitude": 43.019256,
    "longitude": -73.3759721,
    "geocoded_address": "59, South Park Street, Cambridge Green Townhomes, Village of Cambridge, Town of White Creek, Washington County, New York, 12816, United States of America"
  },
  {
    "url": "https://www.foodpantries.org/li/saint_john_the_baptist_05257",
    "name": "Saint John The Baptist",
    "address": "5 Houghton Street",
    "city": "North Bennington",
    "state": "VT",
    "zip": "05257",
    "phone": null,
    "fax": null,
    "email": null,
    "website": "http://www.freefood.org/",
    "hours": "Tuesdays 10am-11:30am and Thursday: 3pm -4:30pm\r\n                                    \r\n                                                                        \n* Important: Please call the food pantries to confirm that the hours have not changed. We do our best to provide full information and details, but food pantries often change their hours without notifying us. We do not want you to waste your time visiting a pantry that is not open.",
    "description": null,
    "requirements": null,
    "scraped_at": "2025-11-03T22:13:28.821083",
    "latitude": 42.9302275,
    "longitude": -73.2422874,
    "geocoded_address": "5, Houghton Street, North Bennington Historic District, North Bennington, Bennington, Bennington County, Vermont, 05257, United States of America"
  },
  {
    "url": "https://www.foodpantries.org/li/north_bennington_baptist_church_05257",
    "name": "North Bennington Baptist Church",
    "address": "15 Church Street",
    "city": "North Bennington",
    "state": "VT",
    "zip": "05257",
    "phone": null,
    "fax": null,
    "email": null,
    "website": "http://www.freefood.org/",
    "hours": "Tuesdays 10am-11:30am and Thursday: 3pm -4:30pm\nGo To Details Page For More Information",
    "description": null,
    "requirements": null,
    "scraped_at": "2025-11-03T22:13:31.086348",
    "latitude": 42.930054,
    "longitude": -73.245215,
    "geocoded_address": "15, Church Street, North Bennington Historic District, North Bennington, Bennington, Bennington County, Vermont, 05257, United States of America"
  },
  {
    "url": "https://www.foodpantries.org/li/broc_community_action_in_southwestern_vermont_05201",
    "name": "Broc - Community Action in Southwestern Vermont",
    "address": "332 Orchard Road",
    "city": "Bennington",
    "state": "VT",
    "zip": "05201",
    "phone": "(802) 447-7515",
    "fax": null,
    "email": null,
    "website": "http://broc.org",
    "hours": "Monday - Friday10:00 am - 12:00 pmRutland Community Hours:45 Union StreetMonday - Friday10:00 am - 12:00 pmFriday (Senior Only)2:00 pm - 3:00 pmFor more information, please call.\nCounty or Counties Served: Bennington",
    "description": null,
    "requirements": null,
    "scraped_at": "2025-11-03T22:13:33.286438",
    "latitude": 42.9006271,
    "longitude": -73.2025452,
    "geocoded_address": "332, Orchard Road, Bennington, Bennington County, Vermont, 05257, United States of America"
  },
  {
    "url": "https://www.foodpantries.org/li/vt_05743_the-right-to-food-center-at-slate-valley-cares",
    "name": "The Right to Food Center at Slate Valley Cares Food Pantry",
    "address": "49 Main St",
    "city": "Fair Haven",
    "state": "VT",
    "zip": "05743",
    "phone": "(802) 265-3666",
    "fax": null,
    "email": null,
    "website": "http://www.freefood.org/",
    "hours": "Monday, Tuesday and Thursday 9:00am-2:00pmWednesday and Friday 9:00am-5:00pm",
    "description": null,
    "requirements": null,
    "scraped_at": "2025-11-03T22:13:36.092016",
    "latitude": 43.592701,
    "longitude": -73.2649155,
    "geocoded_address": "49, Main Street, Fair Haven Green Historic District, Fair Haven, Rutland County, Vermont, 05750, United States of America"
  },
  {
    "url": "https://www.foodpantries.org/li/ny_12823_cossayuna-satellite-pantry",
    "name": "Cossayuna Satellite Pantry",
    "address": "21 Bunker Hill Rd",
    "city": "Cossayuna",
    "state": "NY",
    "zip": "12823",
    "phone": "(518) 538-3522",
    "fax": null,
    "email": null,
    "website": "http://www.freefood.org/",
    "hours": "Tuesday3:30pm - 5:30pmFor more information, please call. \nCounty or Counties Served: Washington",
    "description": null,
    "requirements": null,
    "scraped_at": "2025-11-03T22:13:38.443064",
    "latitude": 43.1852552,
    "longitude": -73.4252481,
    "geocoded_address": "21, Bunker Hill Road, Cossayuna, Town of Greenwich, Washington County, New York, 12809, United States of America"
  },
  {
    "url": "https://www.foodpantries.org/li/ascutney_union_church_05030",
    "name": "Ascutney Union Church",
    "address": "5243 Route 5",
    "city": "Ascutney",
    "state": "VT",
    "zip": "05030",
    "phone": "(802) 674-2484",
    "fax": null,
    "email": null,
    "website": "http://www.freefood.org/",
    "hours": "Saturday \r\n9:00am - 10:00am\n\r\nFor more information, please call. \nCounty or Counties Served: Windsor",
    "description": null,
    "requirements": null,
    "scraped_at": "2025-11-03T22:13:42.483443",
    "latitude": 43.4079449,
    "longitude": -72.4072103,
    "geocoded_address": "Ascutney Union Church, 5243, U.S. Route 5, Ascutney, Weathersfield, Windsor County, Vermont, 05030, United States of America"
  },
  {
    "url": "https://www.foodpantries.org/li/saint_francis_of_assisi_05089",
    "name": "The Windsor Community Food Shelf - Trinity Church",
    "address": "44 Main Street",
    "city": "Windsor",
    "state": "VT",
    "zip": "05089",
    "phone": "(802) 674-6781",
    "fax": null,
    "email": null,
    "website": "http://www.freefood.org/",
    "hours": "Tuesday5:30 pm - 6:30 pmWednesday10:30 am - 12:00 pmThursday5:30 pm - 6:30 pmFor more information, please call. \nVolunteering Information:https://stfranciswindsor.org/volunteer \nCounty or Counties Served: Windsor",
    "description": null,
    "requirements": null,
    "scraped_at": "2025-11-03T22:13:44.593984",
    "latitude": 43.4819222,
    "longitude": -72.3857574,
    "geocoded_address": "44, Main Street, Windsor Village Historic District, Windsor, Windsor County, Vermont, 03745, United States of America"
  },
  {
    "url": "https://www.foodpantries.org/li/perkinsville_community_church_05151",
    "name": "Perkinsville Community Church",
    "address": "35 Church Street",
    "city": "Perkinsville",
    "state": "VT",
    "zip": "05151",
    "phone": "(802) 263-9539",
    "fax": null,
    "email": null,
    "website": "http://www.freefood.org/",
    "hours": "Thursday 2:00pm - 3:00pmFor more information, please call. \nCounty or Counties Served: Windsor",
    "description": null,
    "requirements": null,
    "scraped_at": "2025-11-03T22:13:47.632224",
    "latitude": 43.3725445,
    "longitude": -72.5159676,
    "geocoded_address": "Perkinsville community church, 35, Church Street, Perkinsville, Weathersfield, Windsor County, Vermont, 05151, United States of America"
  },
  {
    "url": "https://www.foodpantries.org/li/st_mary_roman_catholic_parish_3743",
    "name": "St Mary Roman Catholic Parish - St. Vicent de Paul Society",
    "address": "32 Pearl Street",
    "city": "Claremont",
    "state": "NH",
    "zip": "03743",
    "phone": "(603) 542-5950",
    "fax": null,
    "email": null,
    "website": "http://www.freefood.org/",
    "hours": "Monday - Friday 9:00m - 1:00pm  Breakfast Hours: Monday - Friday 9:00am-10:00am  Lunch Hours: Monday - Friday 12:00-1:00pm Dinner Hours: \r\nEvery Day 4:00pm - 5:00pm For more information, please call. \r\n \nGo To Details Page For More Information",
    "description": null,
    "requirements": null,
    "scraped_at": "2025-11-03T22:13:49.798919",
    "latitude": 43.3737128,
    "longitude": -72.3423992,
    "geocoded_address": "32, Pearl Street, Lower Village District, Claremont, Sullivan County, New Hampshire, 03743, United States of America"
  },
  {
    "url": "https://www.foodpantries.org/li/claremont_soup_kitchen_and_food_pantry_03743",
    "name": "Claremont Soup Kitchen and Food Pantry",
    "address": "51 Central Street",
    "city": "Claremont",
    "state": "NH",
    "zip": "03743",
    "phone": "(603) 543-3290",
    "fax": null,
    "email": null,
    "website": "http://www.freefood.org/",
    "hours": "Monday - Friday 9:00m - 1:00pmBreakfast Hours:Monday - Friday 9:00am-10:00amLunch Hours:Monday - Friday 12:00-1:00pmDinner Hours:\r\nEvery Day 4:00pm - 5:00pmFor more information, please call.",
    "description": null,
    "requirements": null,
    "scraped_at": "2025-11-03T22:13:52.324577",
    "latitude": 43.3745324,
    "longitude": -72.3438633,
    "geocoded_address": "51, Central Street, Lower Village District, Claremont, Sullivan County, New Hampshire, 03743, United States of America"
  },
  {
    "url": "https://www.foodpantries.org/li/vt_hartland_congregational-church-of-hartland-food-pantry",
    "name": "Hartland Food Shelf at First Congregational Church",
    "address": "10 Station Road",
    "city": "Hartland",
    "state": "VT",
    "zip": "05048",
    "phone": "(802) 436-2224",
    "fax": null,
    "email": null,
    "website": "http://www.freefood.org/",
    "hours": "Friday: 8:00 am to 10:00 amAdditional Services:Hot Breakfast, Bags of Groceries (call to confirm time)Weekend Food BagsHealth Advice, Books,\nCounty or Counties Served: Windsor",
    "description": null,
    "requirements": null,
    "scraped_at": "2025-11-03T22:13:54.550813",
    "latitude": 43.5406511,
    "longitude": -72.3960425,
    "geocoded_address": "10, Station Road, Hartland, Windsor County, Vermont, 05048, United States of America"
  },
  {
    "url": "https://www.foodpantries.org/li/reading_food_shelf_005149",
    "name": "The Reading-West Windsor Food Shelf",
    "address": "3456 Tyson Road",
    "city": "South Reading",
    "state": "VT",
    "zip": "05062",
    "phone": "(802) 952-1068",
    "fax": null,
    "email": null,
    "website": "http://www.freefood.org/",
    "hours": "Monday 2:00pm - 4:00pmThursday 4:00pm - 6:00pmLocation:South Reading, 3.4 miles west of Route 106.For more information, please call. \nVolunteering Information:http://www.rwwfoodshelf.org/html/volunteer.html \nCounty or Counties Served: Windsor",
    "description": null,
    "requirements": null,
    "scraped_at": "2025-11-03T22:13:57.425236",
    "latitude": 43.4761271,
    "longitude": -72.5941228,
    "geocoded_address": "South Reading Schoolhouse, 3456, Tyson Road, South Reading, Reading, Windsor County, Vermont, 05062, United States of America"
  },
  {
    "url": "https://www.foodpantries.org/li/vt_hartland_first-universalist-society-church-food-pantry",
    "name": "First Universalist Society Church Food Pantry",
    "address": "8 Brownsville Road",
    "city": "Hartland",
    "state": "VT",
    "zip": "05048",
    "phone": "(802) 436-2592",
    "fax": null,
    "email": null,
    "website": "http://www.freefood.org/",
    "hours": "Fridays from 8:00am - 10:00amOther Services they provide:Hot Breakfast on Fridays, Bags of Groceries, Health Advice, Books.\nCounty or Counties Served: Windsor",
    "description": null,
    "requirements": null,
    "scraped_at": "2025-11-03T22:13:59.636725",
    "latitude": 43.5458507,
    "longitude": -72.4260463,
    "geocoded_address": "8, Brownsville Road, Hartland Four Corners, Hartland, Windsor County, Vermont, 05048, United States of America"
  },
  {
    "url": "https://www.foodpantries.org/li/congregational_church_of_hartland_05048",
    "name": "Unitarian Universalist Church",
    "address": "8 Brownsville Rd",
    "city": "Hartland",
    "state": "VT",
    "zip": "05049",
    "phone": "(802) 436-2592",
    "fax": null,
    "email": null,
    "website": "http://www.freefood.org/",
    "hours": "Friday8:00am - 10:00amOpen to all and accepting food donations as well. Join us for morning coffee and light breakfast. For more information, please call. \nCounty or Counties Served: Windsor",
    "description": null,
    "requirements": null,
    "scraped_at": "2025-11-03T22:14:01.963456",
    "latitude": 43.5458507,
    "longitude": -72.4260463,
    "geocoded_address": "8, Brownsville Road, Hartland Four Corners, Hartland, Windsor County, Vermont, 05048, United States of America"
  },
  {
    "url": "https://www.foodpantries.org/li/springfield_family_center_05156",
    "name": "Springfield Family Center",
    "address": "365 Summer Street",
    "city": "Springfield",
    "state": "VT",
    "zip": "05156",
    "phone": "(802) 885-3646",
    "fax": null,
    "email": null,
    "website": "http://www.freefood.org/",
    "hours": "Monday, Thursday & Friday, 9:00AM - 11:00AM  Location:  Charlestown Town Hall first floor. \nGo To Details Page For More Information",
    "description": null,
    "requirements": null,
    "scraped_at": "2025-11-03T22:14:05.535747",
    "latitude": 43.2921663,
    "longitude": -72.4664175,
    "geocoded_address": "365, Summer Street, Springfield, Windsor County, Vermont, 05156, United States of America"
  },
  {
    "url": "https://www.foodpantries.org/li/lucas_james_williams_memorial_youth_fund_community_shelf_05441",
    "name": "Lucas James Williams Memorial Youth Fund Community Shelf",
    "address": "38 Waterville Mountain Road",
    "city": "Bakersfield",
    "state": "VT",
    "zip": "05441",
    "phone": "(802) 933-4201",
    "fax": null,
    "email": null,
    "website": "http://www.freefood.org/",
    "hours": "Monday-Friday: by appointment only, 3rd Tuesday of the month: 3pm -4:30pm\r\n                                    \r\n                                                                        \n* Important: Please call the food pantries to confirm that the hours have not changed. We do our best to provide full information and details, but food pantries often change their hours without notifying us. We do not want you to waste your time visiting a pantry that is not open.",
    "description": null,
    "requirements": null,
    "scraped_at": "2025-11-03T22:14:08.472451",
    "latitude": 44.782149,
    "longitude": -72.801583,
    "geocoded_address": "Bakersfield, Franklin County, Vermont, 05441, United States of America",
    "note": "Geocoded to city center (exact address not found)"
  },
  {
    "url": "https://www.foodpantries.org/li/fairfield_community_center_association_05448",
    "name": "Fairfield Community Center Association",
    "address": "123 School Street",
    "city": "East Fairfield",
    "state": "VT",
    "zip": "05448",
    "phone": "(802) 827-3130",
    "fax": null,
    "email": null,
    "website": "http://www.freefood.org/",
    "hours": "Monday: 3pm -5pm Second Friday of the month: 10am-12pm\r\n                                    \r\n                                                                        \n* Important: Please call the food pantries to confirm that the hours have not changed. We do our best to provide full information and details, but food pantries often change their hours without notifying us. We do not want you to waste your time visiting a pantry that is not open.",
    "description": null,
    "requirements": null,
    "scraped_at": "2025-11-03T22:14:12.435564",
    "latitude": 44.7844251,
    "longitude": -72.8592741,
    "geocoded_address": "123, School Street, East Fairfield, Fairfield, Franklin County, Vermont, 05448, United States of America"
  },
  {
    "url": "https://www.foodpantries.org/li/enosburg_food_shelf_05450",
    "name": "Enosburg Food Shelf",
    "address": "342 Main Street",
    "city": "Enosburg",
    "state": "VT",
    "zip": "05450",
    "phone": "(802) 393-5383",
    "fax": null,
    "email": null,
    "website": "http://www.freefood.org/",
    "hours": "Thursday\r\n10:00am - 4:00pm\r\nExcept for Thanksgiving\n\r\nFor more information, please call, alternate number 802-933-4193.\nCounty or Counties Served: Franklin",
    "description": null,
    "requirements": null,
    "scraped_at": "2025-11-03T22:14:14.702769",
    "latitude": 44.9073882,
    "longitude": -72.8047754,
    "geocoded_address": "The Flying Disc, 342, Main Street, Enosburg Falls, Enosburgh, Franklin County, Vermont, 05450, United States of America"
  },
  {
    "url": "https://www.foodpantries.org/li/montgomery_united_methodist_church_05470",
    "name": "Montgomery United Methodist Church",
    "address": "20 Fuller Bridge",
    "city": "Montgomery",
    "state": "VT",
    "zip": "05470",
    "phone": "(802) 326-4651",
    "fax": null,
    "email": null,
    "website": "http://www.freefood.org/",
    "hours": "Open Monday through Friday 9am- 12 pm, except the last 2 Mondays of the month\nGo To Details Page For More Information",
    "description": null,
    "requirements": null,
    "scraped_at": "2025-11-03T22:14:17.156700",
    "latitude": 44.9019077,
    "longitude": -72.6387515,
    "geocoded_address": "Methodist Church, 20, Fuller Bridge Road, Montgomery, Franklin County, Vermont, 05470, United States of America"
  },
  {
    "url": "https://www.foodpantries.org/li/vt-cambridge_food_shelf",
    "name": "Cambridge Food Shelf and Clothing Bank",
    "address": "16 Church Street",
    "city": "Jeffersonville",
    "state": "VT",
    "zip": "05464",
    "phone": "(802) 644-8911",
    "fax": null,
    "email": null,
    "website": "http://www.freefood.org/",
    "hours": "Tuesdays and Fridays 9am to 12pm\nGo To Details Page For More Information",
    "description": null,
    "requirements": null,
    "scraped_at": "2025-11-03T22:14:19.871404",
    "latitude": 44.6440401,
    "longitude": -72.8299194,
    "geocoded_address": "16, Church Street, Jeffersonville, Cambridge, Lamoille County, Vermont, 05464, United States of America"
  },
  {
    "url": "https://www.foodpantries.org/li/cambridge_community_food_shelf_05464",
    "name": "Cambridge Community Food Shelf",
    "address": "16 Church Street",
    "city": "Jeffersonville",
    "state": "VT",
    "zip": "05464",
    "phone": "(802) 644-8911",
    "fax": null,
    "email": null,
    "website": "http://www.freefood.org/",
    "hours": "Monday\r\n 6:00pm - 7:00pm \r\nTuesday\r\n1:00am - 4:00pm",
    "description": null,
    "requirements": null,
    "scraped_at": "2025-11-03T22:14:22.121948",
    "latitude": 44.6440401,
    "longitude": -72.8299194,
    "geocoded_address": "16, Church Street, Jeffersonville, Cambridge, Lamoille County, Vermont, 05464, United States of America"
  },
  {
    "url": "https://www.foodpantries.org/li/johnson_emergency_food_shelf_05656",
    "name": "Johnson Emergency Food Shelf",
    "address": "661 Railroad Street",
    "city": "Johnson",
    "state": "VT",
    "zip": "05656",
    "phone": "(802) 635-9003",
    "fax": null,
    "email": null,
    "website": "http://www.freefood.org/",
    "hours": "Tuesdays and Fridays 9am to 12pm\r\n                                    \r\n                                                                        \n* Important: Please call the food pantries to confirm that the hours have not changed. We do our best to provide full information and details, but food pantries often change their hours without notifying us. We do not want you to waste your time visiting a pantry that is not open.",
    "description": null,
    "requirements": null,
    "scraped_at": "2025-11-03T22:14:24.184907",
    "latitude": 44.6301859,
    "longitude": -72.6918409,
    "geocoded_address": "Johnson Food Shelf, 661, Railroad Street, Johnson, Lamoille County, Vermont, 05656, United States of America"
  },
  {
    "url": "https://www.foodpantries.org/li/johnson-food-shelf",
    "name": "Johnson Food Shelf",
    "address": "661 Railroad Street",
    "city": "Johnson",
    "state": "VT",
    "zip": "05656",
    "phone": "(802) 635-9003",
    "fax": null,
    "email": null,
    "website": "http://www.freefood.org/",
    "hours": "Tuesday and Friday\r\n  9:00am - 12:00pm\r\nWednesday\r\n  4:00pm - 6:00pm\n\r\nTEFAP program, fresh produce, and bakery products anytime.\n\r\nFor more information, please call. \nCounty or Counties Served: Lamoille",
    "description": null,
    "requirements": null,
    "scraped_at": "2025-11-03T22:14:27.012478",
    "latitude": 44.6301859,
    "longitude": -72.6918409,
    "geocoded_address": "Johnson Food Shelf, 661, Railroad Street, Johnson, Lamoille County, Vermont, 05656, United States of America"
  },
  {
    "url": "https://www.foodpantries.org/li/vt_05454_fairfax-food-shelf",
    "name": "Fairfax Food Shelf",
    "address": "12 Buck Hollow Road",
    "city": "Fairfax",
    "state": "VT",
    "zip": "05454",
    "phone": "(802) 849-6588",
    "fax": null,
    "email": null,
    "website": "http://www.freefood.org/",
    "hours": "Wednesday 9:00am - 12:00pmThe 4th Saturday of the month 8:30am - 10:30am Call in. Are of emergency needs.\nCounty or Counties Served: Chittenden",
    "description": null,
    "requirements": null,
    "scraped_at": "2025-11-03T22:14:29.441574",
    "latitude": 44.6742511,
    "longitude": -73.0185361,
    "geocoded_address": "Fairfax Town Offices, 12, Buck Hollow Road, Fairfax, Franklin County, Vermont, 05454, United States of America"
  },
  {
    "url": "https://www.foodpantries.org/li/vermont-foodbank",
    "name": "Vermont Foodbank",
    "address": "33 Parker Rd",
    "city": "Barre",
    "state": "VT",
    "zip": "05641",
    "phone": "(802)477-4114",
    "fax": null,
    "email": null,
    "website": "http://www.freefood.org/",
    "hours": "Tuesday and Thursday 7:30am - 10:30am For more information, please call. \nGo To Details Page For More Information",
    "description": null,
    "requirements": null,
    "scraped_at": "2025-11-03T22:14:31.981888",
    "latitude": 44.1732571,
    "longitude": -72.4826274,
    "geocoded_address": "Vermont Foodbank, 33, Parker Road, Lower Websterville, Barre Town, Washington County, Vermont, 05641, United States of America"
  },
  {
    "url": "https://www.foodpantries.org/li/salvation_army_barre_05641",
    "name": "Salvation Army Barre",
    "address": "25 Keith Avenue",
    "city": "Barre",
    "state": "VT",
    "zip": "05641",
    "phone": "(802) 476-5301",
    "fax": null,
    "email": null,
    "website": "http://www.freefood.org/",
    "hours": "Tuesday, Wednesday, Friday: 10am-1:30pm\r\n                                    \r\n                                                                        \n* Important: Please call the food pantries to confirm that the hours have not changed. We do our best to provide full information and details, but food pantries often change their hours without notifying us. We do not want you to waste your time visiting a pantry that is not open.",
    "description": null,
    "requirements": null,
    "scraped_at": "2025-11-03T22:14:35.560171",
    "latitude": 44.1988399,
    "longitude": -72.5011624,
    "geocoded_address": "25, Keith Avenue, Barre Downtown Historic District, Barre, Washington County, Vermont, 05641, United States of America"
  },
  {
    "url": "https://www.foodpantries.org/li/hedding_united_methodist_church_05641",
    "name": "Hedding United Methodist Church",
    "address": "40 Washington Street",
    "city": "Barre",
    "state": "VT",
    "zip": "05641",
    "phone": "(802) 476-8156",
    "fax": "(802) 476-8147",
    "email": null,
    "website": "http://www.freefood.org/",
    "hours": "Wednesday and Thursday3:00pm - 5:00pmFor more information, please call. \nCounty or Counties Served: Washington",
    "description": null,
    "requirements": null,
    "scraped_at": "2025-11-03T22:14:38.585674",
    "latitude": 44.1972065,
    "longitude": -72.49976,
    "geocoded_address": "40, Washington Street, Barre Downtown Historic District, Barre, Washington County, Vermont, 05641, United States of America"
  },
  {
    "url": "https://www.foodpantries.org/li/central_vermont_community_action_council_05641",
    "name": "Capstone Community Action",
    "address": "20 Gable Place",
    "city": "Barre",
    "state": "VT",
    "zip": "05641",
    "phone": "(802) 479-1053",
    "fax": null,
    "email": null,
    "website": "http://www.freefood.org/",
    "hours": "Monday, Wednesday and Friday9:00am - 12:00pm and 1:00pm - 3:00pmVermonters can now get help. For example, working families who get the Vermont Earned Income Tax Credit can qualify, and monthly benefits average over $200 per month for families with children, saving you lots of money on your grocery bills! You may also be eligible if you're a senior, have a disability or simply have limited resources, or someone who is home bound or homeless.For more information, please call.",
    "description": null,
    "requirements": null,
    "scraped_at": "2025-11-03T22:14:40.945457",
    "latitude": 44.1998265,
    "longitude": -72.5073255,
    "geocoded_address": "20, Gable Place, Barre Downtown Historic District, Barre, Washington County, Vermont, 05641, United States of America"
  },
  {
    "url": "https://www.foodpantries.org/li/barre_baptist_fellowship_05641",
    "name": "Barre Baptist Fellowship",
    "address": "84 Summer Street",
    "city": "Barre",
    "state": "VT",
    "zip": "05641",
    "phone": "(802) 476-5676",
    "fax": null,
    "email": null,
    "website": "http://www.freefood.org/",
    "hours": "Tuesday and Thursday7:30am - 10:30amFor more information, please call. \nCounty or Counties Served: Washington",
    "description": null,
    "requirements": "Must sign in and show identification that proves current residence Pantry Hours:\nGo To Details Page For More Information",
    "scraped_at": "2025-11-03T22:14:43.198570",
    "latitude": 44.2016175,
    "longitude": -72.5049942,
    "geocoded_address": "84, Summer Street, Barre Downtown Historic District, Barre, Washington County, Vermont, 05641, United States of America"
  },
  {
    "url": "https://www.foodpantries.org/li/saint_monica_church_05641",
    "name": "Saint Monica Church",
    "address": "79 Summer Street",
    "city": "Barre",
    "state": "VT",
    "zip": "05641",
    "phone": "(802) 479-3253",
    "fax": "(802) 479-3154",
    "email": null,
    "website": "http://www.freefood.org/",
    "hours": "Wednesday and Friday\r\n 9:00am to 12:00pm\n\r\nFor more information, please call. \nCounty or Counties Served: Washington",
    "description": null,
    "requirements": "Must sign in and show identification that proves current residence Pantry Hours:\nGo To Details Page For More Information",
    "scraped_at": "2025-11-03T22:14:45.586302",
    "latitude": 44.2015059,
    "longitude": -72.503917,
    "geocoded_address": "79, Summer Street, Barre Downtown Historic District, Barre, Washington County, Vermont, 05641, United States of America"
  },
  {
    "url": "https://www.foodpantries.org/li/our_place_drop-in_center_05101",
    "name": "Our Place Drop-in Center Food Pantry and Free Meals",
    "address": "4 Island Street",
    "city": "Bellows Falls",
    "state": "VT",
    "zip": "05101",
    "phone": "(802) 463-2217",
    "fax": null,
    "email": null,
    "website": "http://www.freefood.org/",
    "hours": "Every Monday, Tuesday, Wednesday, and Friday from 9:00 a.m.-4:00 p.m.Food Delivery:Seniors and disabled people from Rockingham to Athens and south to Westminster.Free Meal Service Hours:Breakfast served Monday-Friday 9:30-10:30 a.m.Lunch served Monday-Friday 11:30 a.m.-12:30 p.m.Closed Saturday and Sunday\nCounty or Counties Served: Windham",
    "description": null,
    "requirements": "Document with person/family's street address on it, and that the names and ages of all family members be listed on the intake form.  Food Pantry Hours:  Wednesday 12:30pm - 5:30pm Thursday 11:30am - 4:00pm  Hot\nGo To Details Page For More Information",
    "scraped_at": "2025-11-03T22:14:48.237586",
    "latitude": 43.1350275,
    "longitude": -72.4426688,
    "geocoded_address": "4, Island Street, Bellows Falls Downtown Historic District, Bellows Falls, Rockingham, Windham County, Vermont, 03609, United States of America"
  },
  {
    "url": "https://www.foodpantries.org/li/st_peters_food_pantry_03609",
    "name": "St Peter's Food Pantry",
    "address": "39 Church Street",
    "city": "Walpole",
    "state": "NH",
    "zip": "03609",
    "phone": "(603) 445-5213",
    "fax": null,
    "email": null,
    "website": "http://allsaintsnh.net",
    "hours": "Saturday 11:00am - 11:30amFor more information, please call. \nCounty or Counties Served: Cheshire",
    "description": null,
    "requirements": "Document with person/family's street address on it, and that the names and ages of all family members be listed on the intake form.  Food Pantry Hours:  Wednesday 12:30pm - 5:30pm Thursday 11:30am - 4:00pm  Hot\nGo To Details Page For More Information",
    "scraped_at": "2025-11-03T22:14:50.188610",
    "latitude": 43.1418182,
    "longitude": -72.4489849,
    "geocoded_address": "39, Church Street, North Walpole, Walpole, Cheshire County, New Hampshire, 03609, United States of America"
  },
  {
    "url": "https://www.foodpantries.org/li/nh_charlestown_food-shelf-03603",
    "name": "Charlestown Food Shelf",
    "address": "19 Summer Street",
    "city": "Charlestown",
    "state": "NH",
    "zip": "03603",
    "phone": "(603) 209-6101",
    "fax": null,
    "email": null,
    "website": "http://www.freefood.org/",
    "hours": "Monday, Thursday & Friday, 9:00AM - 11:00AMLocation:Charlestown Town Hall first floor.\nCounty or Counties Served: Sullivan",
    "description": null,
    "requirements": null,
    "scraped_at": "2025-11-03T22:14:52.577494",
    "latitude": 43.2356334,
    "longitude": -72.4238099,
    "geocoded_address": "19, Summer Street, Charlestown Main Street Historic District, Charlestown, Sullivan County, New Hampshire, 03603, United States of America"
  },
  {
    "url": "https://www.foodpantries.org/li/vt_05146-0158_grafton-community-church-food-shelf",
    "name": "Grafton Community Church Food Shelf",
    "address": "55 Main Street",
    "city": "Grafton",
    "state": "VT",
    "zip": "05146",
    "phone": "(802) 843-2346",
    "fax": null,
    "email": null,
    "website": "http://www.freefood.org/",
    "hours": "Thursdays 1:00pm - 4:00pm Fridays 10 :00am - 2:00pm  Thrift Store Hours:  Thursday 1:00pm - 4:00pm Friday 10:00am - 4:00pm Saturday 10:00am - 2:00pm  Service Area:  Chester and Andover \nGo To Details Page For More Information",
    "description": null,
    "requirements": null,
    "scraped_at": "2025-11-03T22:14:54.979068",
    "latitude": 43.1732395,
    "longitude": -72.6094394,
    "geocoded_address": "Grafton Congregational Church and Chapel, 55, Main Street, Grafton, Windham County, Vermont, 05146, United States of America"
  },
  {
    "url": "https://www.foodpantries.org/li/chester-andover_family_center_05143",
    "name": "Chester Andover Family Center - Thrift Shop and Food Shelf",
    "address": "908 VT Rte 103 S",
    "city": "Chester",
    "state": "VT",
    "zip": "05143",
    "phone": "(802) 875-3236",
    "fax": null,
    "email": null,
    "website": "http://www.freefood.org/",
    "hours": "Thursdays 1:00pm - 4:00pmFridays 10 :00am - 2:00pmThrift Store Hours:Thursday 1:00pm - 4:00pmFriday 10:00am - 4:00pmSaturday 10:00am - 2:00pmService Area:Chester and Andover\nMission Statement\r\n               \u201cMaking a difference in our community by providing resources for financial assistance, supplemental, nutritional food, affordable clothing and household goods.\u201d\r\n            \nCounty or Counties Served: Windsor",
    "description": null,
    "requirements": null,
    "scraped_at": "2025-11-03T22:14:58.323365",
    "latitude": 43.2629706,
    "longitude": -72.5945649,
    "geocoded_address": "Chester, Windsor County, Vermont, 05143, United States of America",
    "note": "Geocoded to city center (exact address not found)"
  },
  {
    "url": "https://www.foodpantries.org/li/fall_mountain_food_shelf-_baker_building_03602",
    "name": "Fall Mountain Food Shelf",
    "address": "122 State Highway 12A",
    "city": "Alstead",
    "state": "NH",
    "zip": "03602",
    "phone": "(603) 835-2283",
    "fax": null,
    "email": null,
    "website": "http://www.freefood.org/",
    "hours": "Wednesday, Friday, and Saturday\r\n10:00am - 4:00pm\n\r\nHot Meals Hours:\r\nTuesday and Thursday\r\n8:00am - 1:00pm",
    "description": null,
    "requirements": "Document with person/family's street address on it, and that the names and ages of all family members be listed on the intake form.  Food Pantry Hours:  Wednesday 12:30pm - 5:30pm Thursday 11:30am - 4:00pm  Hot\nGo To Details Page For More Information",
    "scraped_at": "2025-11-03T22:15:02.029847",
    "latitude": 43.1489499,
    "longitude": -72.3612996,
    "geocoded_address": "Alstead, Cheshire County, New Hampshire, United States of America",
    "note": "Geocoded to city center (exact address not found)"
  },
  {
    "url": "https://www.foodpantries.org/li/townshend-community-food-shelf",
    "name": "Townshend Community Food Shelf",
    "address": "46 Common Rd",
    "city": "Townshend",
    "state": "VT",
    "zip": "05353",
    "phone": "(802) 365-4321",
    "fax": null,
    "email": null,
    "website": "http://www.freefood.org/",
    "hours": "Monday \r\n 6:00pm - 7:30pm\n\r\nFor more information, please call. \nCounty or Counties Served: Windham\nArea covered: Townshend, Newfane, Jamaica, Athens, Grafton, Wardsboro, Windham, Brookline",
    "description": null,
    "requirements": null,
    "scraped_at": "2025-11-03T22:15:05.019930",
    "latitude": 43.0469582,
    "longitude": -72.6693055,
    "geocoded_address": "46, Common Road, Townshend, Windham County, Vermont, 05353, United States of America"
  },
  {
    "url": "https://www.foodpantries.org/li/putney_community_center_05346",
    "name": "Putney Foodshelf at Putney Community Center",
    "address": "10 Christian Square",
    "city": "Putney",
    "state": "VT",
    "zip": "05346",
    "phone": "(802) 387-8551",
    "fax": null,
    "email": null,
    "website": "http://www.freefood.org/",
    "hours": "Tuesdays 6\u20137pm\r\nSaturdays 9\u201310am",
    "description": null,
    "requirements": null,
    "scraped_at": "2025-11-03T22:15:07.063182",
    "latitude": 42.9740299,
    "longitude": -72.5206948,
    "geocoded_address": "10, Christian Square, Putney, Windham County, Vermont, 05301, United States of America"
  },
  {
    "url": "https://www.foodpantries.org/li/vt-bible_baptist_food_basket",
    "name": "Bible Baptist Food Basket",
    "address": "1425 Hardwood Hill Rd",
    "city": "Bennington",
    "state": "VT",
    "zip": "05201",
    "phone": "(802) 447-3618",
    "fax": null,
    "email": null,
    "website": "http://bbcvt.weebly.com",
    "hours": "Thursdays: 3:30pm -6:30pm\nGo To Details Page For More Information",
    "description": null,
    "requirements": null,
    "scraped_at": "2025-11-03T22:15:10.844658",
    "latitude": 42.8788667,
    "longitude": -73.1968205,
    "geocoded_address": "Bennington, Bennington County, Vermont, United States of America",
    "note": "Geocoded to city center (exact address not found)"
  },
  {
    "url": "https://www.foodpantries.org/li/sacred_heart_saint_francis_de_sales_parish_center_05201",
    "name": "His Pantry - Sacred Heart St. Francis de Sales Church",
    "address": "238 Main Street",
    "city": "Bennington",
    "state": "VT",
    "zip": "05201",
    "phone": "(802) 442-1720",
    "fax": "(802) 442-3142",
    "email": null,
    "website": "http://www.freefood.org/",
    "hours": "Wednesday 1:00 pm - 3:30 pm Friday 10:00 am - 11:30 amFor more information, please call. \nCounty or Counties Served: Bennington",
    "description": null,
    "requirements": null,
    "scraped_at": "2025-11-03T22:15:13.921418",
    "latitude": 42.8808694,
    "longitude": -73.2016257,
    "geocoded_address": "Church of St. Francis de Sales Parish Center, 238, Main Street, Downtown Bennington Historic District, Bennington, Bennington County, Vermont, 05201, United States of America"
  },
  {
    "url": "https://www.foodpantries.org/li/green_mountain_christian_center_05201",
    "name": "Green Mountain Christian Center",
    "address": "440 Main Street",
    "city": "Bennington",
    "state": "VT",
    "zip": "05201",
    "phone": "(802) 447-7224",
    "fax": null,
    "email": null,
    "website": "http://www.freefood.org/",
    "hours": "Thursdays: 3:30pm -6:30pm\r\n                                    \r\n                                                                        \n* Important: Please call the food pantries to confirm that the hours have not changed. We do our best to provide full information and details, but food pantries often change their hours without notifying us. We do not want you to waste your time visiting a pantry that is not open.",
    "description": null,
    "requirements": null,
    "scraped_at": "2025-11-03T22:15:18.810149",
    "latitude": 42.87852,
    "longitude": -73.1958131,
    "geocoded_address": "Green Mountain Christian Center, 440, Main Street, Downtown Bennington Historic District, Bennington, Bennington County, Vermont, 05201, United States of America"
  },
  {
    "url": "https://www.foodpantries.org/li/vt_bennington_greater-bennington-interfaith-community-servi",
    "name": "Kitchen Cupboard at GBCS",
    "address": "121 Depot Street",
    "city": "Bennington",
    "state": "VT",
    "zip": "05201",
    "phone": "(802) 447-3700",
    "fax": null,
    "email": null,
    "website": "http://www.freefood.org/",
    "hours": "Tuesday 5:30 pm to 7:30pmThursday: 10:00 am to12:00 pmSaturday: 10:00 am to 12:00 pmNotes:They dont require financial information or proof of needGuests make their own choices, within the limits of availabilityMay visit the Kitchen Cupboard once each calendar weekGuests include both individuals and families with children\nCounty or Counties Served: Bennington",
    "description": null,
    "requirements": null,
    "scraped_at": "2025-11-03T22:15:21.506377",
    "latitude": 42.8808793,
    "longitude": -73.1981693,
    "geocoded_address": "121, Depot Street, Downtown Bennington Historic District, Bennington, Bennington County, Vermont, 05201, United States of America"
  },
  {
    "url": "https://www.foodpantries.org/li/the-kitchen-cupboard",
    "name": "GBICS The Kitchen Cupboard",
    "address": "601 Main Street",
    "city": "Bennington",
    "state": "VT",
    "zip": "05201",
    "phone": "(802) 447-3700",
    "fax": "(802) 447-3711",
    "email": null,
    "website": "http://www.freefood.org/",
    "hours": "Thursdays: 3:30pm -6:30pm\nGo To Details Page For More Information",
    "description": null,
    "requirements": null,
    "scraped_at": "2025-11-03T22:15:23.888917",
    "latitude": 42.8776508,
    "longitude": -73.1920403,
    "geocoded_address": "601, Main Street, Downtown Bennington Historic District, Bennington, Bennington County, Vermont, 05201, United States of America"
  },
  {
    "url": "https://www.foodpantries.org/li/bethel_area_food_shelf_05032",
    "name": "Bethel Area Food Shelf",
    "address": "129 Church Street",
    "city": "Bethel",
    "state": "VT",
    "zip": "05032",
    "phone": "(802) 234-5680",
    "fax": null,
    "email": null,
    "website": "http://www.freefood.org/",
    "hours": "Monday12:00pm - 2:00pm Wednesday 4:00pm - 6:00pmFor more information, please call. \nCounty or Counties Served: Windsor",
    "description": null,
    "requirements": null,
    "scraped_at": "2025-11-03T22:15:26.728282",
    "latitude": 43.8313376,
    "longitude": -72.6360913,
    "geocoded_address": "The White Church, 129, Church Street, Bethel, Windsor County, Vermont, 05032, United States of America"
  },
  {
    "url": "https://www.foodpantries.org/li/south-royalton-area-food-shelf",
    "name": "South Royalton Area Food Shelf",
    "address": "2955 Vermont Rt. 14",
    "city": "South Royalton",
    "state": "VT",
    "zip": "05068",
    "phone": "(802) 587-2621",
    "fax": null,
    "email": null,
    "website": "http://www.freefood.org/",
    "hours": "Thursday\r\n 11:30am - 1:30pm\r\n5:00pm - 7:00pm\n\r\nFor more information, please call.",
    "description": null,
    "requirements": null,
    "scraped_at": "2025-11-03T22:15:29.016778",
    "latitude": 43.8023366,
    "longitude": -72.5014353,
    "geocoded_address": "Vermont Route 14, Royalton, Windsor County, Vermont, 05068, United States of America"
  },
  {
    "url": "https://www.foodpantries.org/li/journey_foursquare_church_05068",
    "name": "Journey Foursquare Church",
    "address": "412 South Windsor Street",
    "city": "South Royalton",
    "state": "VT",
    "zip": "05068",
    "phone": null,
    "fax": null,
    "email": null,
    "website": "http://www.freefood.org/",
    "hours": "Thursday: 1pm -3pm\r\n                                    \r\n                                                                        \n* Important: Please call the food pantries to confirm that the hours have not changed. We do our best to provide full information and details, but food pantries often change their hours without notifying us. We do not want you to waste your time visiting a pantry that is not open.",
    "description": null,
    "requirements": null,
    "scraped_at": "2025-11-03T22:15:31.775740",
    "latitude": 43.8166101,
    "longitude": -72.5156409,
    "geocoded_address": "412, South Windsor Street, Royalton, Windsor County, Vermont, 05068, United States of America"
  },
  {
    "url": "https://www.foodpantries.org/li/randolph_area_food_shelf_05060",
    "name": "Randolph Area Food Shelf",
    "address": "12 Prince Street Unit",
    "city": "Randolph",
    "state": "VT",
    "zip": "05060",
    "phone": "(802) 431-0144",
    "fax": null,
    "email": null,
    "website": "http://www.freefood.org/",
    "hours": "Monday , Wednesday and Friday 3:00pm - 5:00pmTuesday 1:00pm - 5:00pmThursday 5:00pm - 7:00pmFor more information, please call.\nCounty or Counties Served: Orange",
    "description": null,
    "requirements": null,
    "scraped_at": "2025-11-03T22:15:34.071760",
    "latitude": 43.9253287,
    "longitude": -72.6659422,
    "geocoded_address": "Randolph, Orange County, Vermont, United States of America",
    "note": "Geocoded to city center (exact address not found)"
  },
  {
    "url": "https://www.foodpantries.org/li/federated_church_of_rochester_05767",
    "name": "Federated Church of Rochester",
    "address": "15 North Main Street",
    "city": "Rochester",
    "state": "VT",
    "zip": "05767",
    "phone": "(802) 767-3012",
    "fax": null,
    "email": null,
    "website": "http://www.freefood.org/",
    "hours": "Last Saturday of the month\r\n 8:30am - 10:00am\r\nOr by appointment\n\r\nApril Sat. 25th\u00a0\u00a0\u00a0\u00a0\u00a0\u00a0\u00a0\u00a0 8:30-10:00\r\nMay Sat. 30th\r\nJune Sat. 27th\r\nJuly Sat. 25th\r\nAug. Sat. 29th\r\nSept. Sat. 26th\r\nOct. Sat. 31st\r\nNov. Sat. 21st\u00a0 ***moved ahead 1 week for Thanksgiving***\r\nDec. Sat. 19th **** moved 1 week ahead for Christmas***\n\r\nFor more information, please call.",
    "description": null,
    "requirements": null,
    "scraped_at": "2025-11-03T22:15:39.563381",
    "latitude": 43.874729,
    "longitude": -72.8088286,
    "geocoded_address": "15, North Main Street, Rochester, Windsor County, Vermont, 05767, United States of America"
  },
  {
    "url": "https://www.foodpantries.org/li/tunbridge_community_food_shelf_05077",
    "name": "Tunbridge Community Food Shelf",
    "address": "Route 110",
    "city": "Tunbridge",
    "state": "VT",
    "zip": "05077",
    "phone": "(802) 889-3736",
    "fax": null,
    "email": null,
    "website": "http://www.freefood.org/",
    "hours": "Friday: 4pm -6pm\r\n                                    \r\n                                                                        \n* Important: Please call the food pantries to confirm that the hours have not changed. We do our best to provide full information and details, but food pantries often change their hours without notifying us. We do not want you to waste your time visiting a pantry that is not open.",
    "description": null,
    "requirements": null,
    "scraped_at": "2025-11-03T22:15:42.922363",
    "latitude": 43.8656957,
    "longitude": -72.4990845,
    "geocoded_address": "110, Vermont Route 110, South Tunbridge, Tunbridge, Orange County, Vermont, 05077, United States of America"
  },
  {
    "url": "https://www.foodpantries.org/li/sharon_congregational_church_05065",
    "name": "Sharon Congregational Church",
    "address": "Route 132",
    "city": "Sharon",
    "state": "VT",
    "zip": "05065",
    "phone": "(802) 763-2007",
    "fax": null,
    "email": null,
    "website": "http://www.freefood.org/",
    "hours": "Tuesday and Thursday\r\n 4:30pm -6:30pm\r\nSaturday\r\n10:00am - 12:00pm\n\r\nFor more information, please call. \nCounty or Counties Served: Windsor",
    "description": null,
    "requirements": null,
    "scraped_at": "2025-11-03T22:15:45.369205",
    "latitude": 43.8014547,
    "longitude": -72.4269999,
    "geocoded_address": "Route 132, Sharon, Windsor County, Vermont, 05065, United States of America"
  },
  {
    "url": "https://www.foodpantries.org/li/oak_chapel_christian_fellowship_005034",
    "name": "Oak Chapel Christian Fellowship",
    "address": "35 Oak Chapel Road",
    "city": "Bridgewater",
    "state": "VT",
    "zip": "00503",
    "phone": null,
    "fax": null,
    "email": null,
    "website": "http://www.freefood.org/",
    "hours": "Monday: 4pm -6pm, Wednesdays 1pm -3pm &Saturday: 10am-12pm\nGo To Details Page For More Information",
    "description": null,
    "requirements": null,
    "scraped_at": "2025-11-03T22:15:48.198177",
    "latitude": 43.6168423,
    "longitude": -72.6591173,
    "geocoded_address": "35, Oak Chapel Road, Bridgewater Center, Bridgewater, Windsor County, Vermont, 05035, United States of America"
  },
  {
    "url": "https://www.foodpantries.org/li/woodstock_community_food_shelf_05091",
    "name": "Woodstock Community Food Shelf",
    "address": "2176 Maxham Meadow Way",
    "city": "Woodstock",
    "state": "VT",
    "zip": "05091",
    "phone": "(802) 457-1185",
    "fax": null,
    "email": null,
    "website": "http://www.freefood.org/",
    "hours": "Monday: 4pm -6pm, Wednesdays 1pm -3pm &Saturday: 10am-12pm\r\n                                    \r\n                                                                        \n* Important: Please call the food pantries to confirm that the hours have not changed. We do our best to provide full information and details, but food pantries often change their hours without notifying us. We do not want you to waste your time visiting a pantry that is not open.",
    "description": null,
    "requirements": null,
    "scraped_at": "2025-11-03T22:15:50.998215",
    "latitude": 43.6317661,
    "longitude": -72.5062834,
    "geocoded_address": "Maxham Meadow Way, Woodstock Village, Woodstock, Windsor County, Vermont, 05091, United States of America"
  },
  {
    "url": "https://www.foodpantries.org/li/strafford_food_shelf_05070",
    "name": "Strafford Food Shelf",
    "address": "216 Vt Route 132",
    "city": "South Strafford",
    "state": "VT",
    "zip": "05070",
    "phone": "(802) 765-4421",
    "fax": null,
    "email": null,
    "website": "http://www.freefood.org/",
    "hours": "Monday-Saturday: 7am-6:30pm and Sunday: 8:30am-1pm\r\n                                    \r\n                                                                        \n* Important: Please call the food pantries to confirm that the hours have not changed. We do our best to provide full information and details, but food pantries often change their hours without notifying us. We do not want you to waste your time visiting a pantry that is not open.",
    "description": null,
    "requirements": null,
    "scraped_at": "2025-11-03T22:15:57.541637",
    "latitude": 43.8352785,
    "longitude": -72.365507,
    "geocoded_address": "South Strafford, Strafford, Orange County, Vermont, 05070, United States of America",
    "note": "Geocoded to city center (exact address not found)"
  },
  {
    "url": "https://www.foodpantries.org/li/central_vermont_community_action_council_05033",
    "name": "Capstone Community Action",
    "address": "22 Whistle Stop Way",
    "city": "Bradford",
    "state": "VT",
    "zip": "05033",
    "phone": "(802) 222-5419",
    "fax": null,
    "email": null,
    "website": "http://www.freefood.org/",
    "hours": "Monday-Friday 8:00 am - 4:30 pmFor more information, please call.\nCounty or Counties Served: Orange",
    "description": null,
    "requirements": "Must sign in and show identification that proves current residence Pantry Hours:\nGo To Details Page For More Information",
    "scraped_at": "2025-11-03T22:16:01.737275",
    "latitude": 43.9812515,
    "longitude": -72.1172208,
    "geocoded_address": "22, Whistle Stop Way, Bradford, Orange County, Vermont, 05033, United States of America"
  },
  {
    "url": "https://www.foodpantries.org/li/bradford_area_interchurch_council_05033",
    "name": "Bradford Area Interchurch Council",
    "address": "178 North Main Street",
    "city": "Bradford",
    "state": "VT",
    "zip": "05033",
    "phone": "(802) 222-4727",
    "fax": null,
    "email": null,
    "website": "http://www.freefood.org/",
    "hours": "Mondays through Thursdays 3pm -4pm and Friday:11am-12pm\r\n                                    \r\n                                                                        \n* Important: Please call the food pantries to confirm that the hours have not changed. We do our best to provide full information and details, but food pantries often change their hours without notifying us. We do not want you to waste your time visiting a pantry that is not open.",
    "description": null,
    "requirements": "Must sign in and show identification that proves current residence Pantry Hours:\nGo To Details Page For More Information",
    "scraped_at": "2025-11-03T22:16:03.702558",
    "latitude": 43.997577,
    "longitude": -72.1264454,
    "geocoded_address": "178, North Main Street, Bradford Historic District, Bradford, Orange County, Vermont, 05033, United States of America"
  },
  {
    "url": "https://www.foodpantries.org/li/newbury_bible_church_05051",
    "name": "Newbury Bible Church",
    "address": "17 Cross Street",
    "city": "Newbury",
    "state": "VT",
    "zip": "05051",
    "phone": "(802) 866-5527",
    "fax": null,
    "email": null,
    "website": "http://www.freefood.org/",
    "hours": "Tuesdays: 11am-1:30pm and Second and last Saturdays: 9am to 12pm\r\n                                    \r\n                                                                        \n* Important: Please call the food pantries to confirm that the hours have not changed. We do our best to provide full information and details, but food pantries often change their hours without notifying us. We do not want you to waste your time visiting a pantry that is not open.",
    "description": null,
    "requirements": "Must sign in and show identification that proves current residence Pantry Hours:\nGo To Details Page For More Information",
    "scraped_at": "2025-11-03T22:16:06.703453",
    "latitude": 44.0802193,
    "longitude": -72.058815,
    "geocoded_address": "17, Cross Street, Bayley Historic District, Newbury Village, Newbury, Orange County, Vermont, 05051, United States of America"
  },
  {
    "url": "https://www.foodpantries.org/li/west_fairlee_community_food_shelf_05083",
    "name": "West Fairlee Community Food Shelf",
    "address": "870 VT Route 113",
    "city": "West Fairlee",
    "state": "VT",
    "zip": "05083",
    "phone": "(802) 333-4857",
    "fax": null,
    "email": null,
    "website": "http://www.freefood.org/",
    "hours": "Wednesday\r\n 3:00pm - 6:00pm\n\r\nFor more information, please call. \nCounty or Counties Served: Orange",
    "description": null,
    "requirements": "Must sign in and show identification that proves current residence Pantry Hours:\nGo To Details Page For More Information",
    "scraped_at": "2025-11-03T22:16:08.652123",
    "latitude": 43.909356,
    "longitude": -72.2629891,
    "geocoded_address": "West Fairlee, Orange County, Vermont, 05083, United States of America",
    "note": "Geocoded to city center (exact address not found)"
  },
  {
    "url": "https://www.foodpantries.org/li/wells_river_congregational_church_05081",
    "name": "Wells River Congregational Church",
    "address": "Route 5",
    "city": "Wells River",
    "state": "VT",
    "zip": "05081",
    "phone": "(802) 757-2261",
    "fax": null,
    "email": null,
    "website": "http://www.freefood.org/",
    "hours": "Tuesdays: 1pm to 2:30 pm\r\n                                    \r\n                                                                        \n* Important: Please call the food pantries to confirm that the hours have not changed. We do our best to provide full information and details, but food pantries often change their hours without notifying us. We do not want you to waste your time visiting a pantry that is not open.",
    "description": null,
    "requirements": "Must sign in and show identification that proves current residence Pantry Hours:\nGo To Details Page For More Information",
    "scraped_at": "2025-11-03T22:16:11.959267",
    "latitude": 44.1540119,
    "longitude": -72.0479066,
    "geocoded_address": "5, Mill Street, Wells River Historic District, Wells River, Newbury, Orange County, Vermont, 05081, United States of America"
  },
  {
    "url": "https://www.foodpantries.org/li/new_hope_united_methodist_church_05076",
    "name": "New Hope United Methodist Church",
    "address": "Route 12r",
    "city": "West Topsham",
    "state": "VT",
    "zip": "05086",
    "phone": "(802) 439-6551",
    "fax": null,
    "email": null,
    "website": "http://www.freefood.org/",
    "hours": "Monday 3:00pm - 4:00pm Friday 5:30pm - 6:30pmFor more information, please call. \nCounty or Counties Served: Orange",
    "description": null,
    "requirements": "Must sign in and show identification that proves current residencePantry Hours: Monday 3:00pm - 4:00pm Friday 5:30pm - 6:30pmFor more information, please call. \nCounty or Counties Served: Orange",
    "scraped_at": "2025-11-03T22:16:16.398879",
    "latitude": 44.100119,
    "longitude": -72.3182074,
    "geocoded_address": "Vermont Route 25, West Topsham, Topsham, Orange County, Vermont, 05086, United States of America"
  },
  {
    "url": "https://www.foodpantries.org/li/nh_03785_good-shepherd-ecumenical-food-pantry",
    "name": "Good Shepherd Ecumenical Food Pantry",
    "address": "65 S Court Street",
    "city": "Woodsville",
    "state": "NH",
    "zip": "03785",
    "phone": "(603) 243-0327",
    "fax": null,
    "email": null,
    "website": "http://www.freefood.org/",
    "hours": "Monday, Tuesday, Thursday 10:00 am - 1:00 pmWednesday 6:00 pm - 7:00 pmFor more information, please call. \nVolunteering Information:Call 603-243-0327 to volunteer.  \nCounty or Counties Served: Grafton",
    "description": null,
    "requirements": "Must sign in and show identification that proves current residence Pantry Hours:\nGo To Details Page For More Information",
    "scraped_at": "2025-11-03T22:16:19.519186",
    "latitude": 44.1476804,
    "longitude": -72.0384811,
    "geocoded_address": "65, South Court Street, Woodsville, Haverhill, Grafton County, New Hampshire, 03785, United States of America"
  },
  {
    "url": "https://www.foodpantries.org/li/thetford_food_shelf_05075",
    "name": "Thetford Food Shelf",
    "address": "3910 Route 113",
    "city": "Thetford Center",
    "state": "VT",
    "zip": "05075",
    "phone": "(802) 785-2922",
    "fax": "(802) 785-2031",
    "email": null,
    "website": "http://www.freefood.org/",
    "hours": "Tuesday and Thursday\r\n10am-12pm \n\r\nAlso available by appointment in an emergency.\u00a0 For more information, please call. Alternative number 612-719-8618.\nCounty or Counties Served: Orange",
    "description": null,
    "requirements": null,
    "scraped_at": "2025-11-03T22:16:21.983079",
    "latitude": 43.8315391,
    "longitude": -72.2467811,
    "geocoded_address": "Thetford Town Hall, 3910, Vermont Route 113, Post Mills, Thetford, Orange County, Vermont, 05075, United States of America"
  },
  {
    "url": "https://www.foodpantries.org/li/united_church_of_chelsea_05038",
    "name": "United Church of Chelsea",
    "address": "13 North Common",
    "city": "Chelsea",
    "state": "VT",
    "zip": "05038",
    "phone": "(802) 685-4874",
    "fax": null,
    "email": null,
    "website": "http://www.freefood.org/",
    "hours": "Monday and Wednesday9:00 am - 4:00 pmFor more information, please call. \nCounty or Counties Served: Orange",
    "description": null,
    "requirements": "Must sign in and show identification that proves current residence Pantry Hours:\nGo To Details Page For More Information",
    "scraped_at": "2025-11-03T22:16:24.295507",
    "latitude": 43.9891592,
    "longitude": -72.4477921,
    "geocoded_address": "Chelsea, Orange County, Vermont, 05038, United States of America",
    "note": "Geocoded to city center (exact address not found)"
  },
  {
    "url": "https://www.foodpantries.org/li/brandon_area_emergency_food_shelf_05733",
    "name": "Brandon Area Emergency Food Shelf",
    "address": "Route 7 And Union Street",
    "city": "Brandon",
    "state": "VT",
    "zip": "05733",
    "phone": "(802) 247-6720",
    "fax": null,
    "email": null,
    "website": "http://www.freefood.org/",
    "hours": "Monday, Wednesday, Friday: 8:30am-9am\r\n                                    \r\n                                                                        \n* Important: Please call the food pantries to confirm that the hours have not changed. We do our best to provide full information and details, but food pantries often change their hours without notifying us. We do not want you to waste your time visiting a pantry that is not open.",
    "description": null,
    "requirements": "Full application for newcomers at time of first visit Brief intake form upon each visit  Food Pantry hours:  Monday - Friday, 10:00am to 3:30pm Closed everyday 12:00pm - 12:30pm, except holid\nGo To Details Page For More Information",
    "scraped_at": "2025-11-03T22:16:28.470130",
    "latitude": 43.7982806,
    "longitude": -73.087913,
    "geocoded_address": "Brandon, Rutland County, Vermont, United States of America",
    "note": "Geocoded to city center (exact address not found)"
  },
  {
    "url": "https://www.foodpantries.org/li/whiting_community_church_05778",
    "name": "Whiting Community Church",
    "address": "7 North Main Street Route 30",
    "city": "Whiting",
    "state": "VT",
    "zip": "05778",
    "phone": "(802) 623-8171",
    "fax": null,
    "email": null,
    "website": "http://www.freefood.org/",
    "hours": "Monday: 1pm -4pm\r\n                                    \r\n                                                                        \n* Important: Please call the food pantries to confirm that the hours have not changed. We do our best to provide full information and details, but food pantries often change their hours without notifying us. We do not want you to waste your time visiting a pantry that is not open.",
    "description": null,
    "requirements": "Full application for newcomers at time of first visit Brief intake form upon each visit  Food Pantry hours:  Monday - Friday, 10:00am to 3:30pm Closed everyday 12:00pm - 12:30pm, except holid\nGo To Details Page For More Information",
    "scraped_at": "2025-11-03T22:16:31.904265",
    "latitude": 43.8641679,
    "longitude": -73.200708,
    "geocoded_address": "Whiting, Addison County, Vermont, 05778, United States of America",
    "note": "Geocoded to city center (exact address not found)"
  },
  {
    "url": "https://www.foodpantries.org/li/castleton_food_shelf_05735",
    "name": "Castleton Food Shelf",
    "address": "504 Main Street",
    "city": "Castleton",
    "state": "VT",
    "zip": "05735",
    "phone": "(802) 468-5072",
    "fax": null,
    "email": null,
    "website": "http://www.freefood.org/",
    "hours": "Tuesday 3pm -5pm By appointment or in an emergency\nGo To Details Page For More Information",
    "description": null,
    "requirements": null,
    "scraped_at": "2025-11-03T22:16:35.158110",
    "latitude": 43.6126585,
    "longitude": -73.1758983,
    "geocoded_address": "504, Main Street, Castleton Village Historic District, Castleton Corners, Castleton, Rutland County, Vermont, 05735, United States of America"
  },
  {
    "url": "https://www.foodpantries.org/li/community_cupboard_the_05701",
    "name": "Rutland Community Cupboard",
    "address": "65 River Street",
    "city": "Rutland",
    "state": "VT",
    "zip": "05701",
    "phone": "(802) 747-6119",
    "fax": null,
    "email": null,
    "website": "http://www.freefood.org/",
    "hours": "Monday, Wednesday and Friday11:00am - 3:00pmTuesday and Thursday4:00pm - 6:00pmFor more information, please call. \nVolunteering Information:https://www.rutlandcommunitycupboard.org/volunteer.html \nCounty or Counties Served: Rutland",
    "description": null,
    "requirements": null,
    "scraped_at": "2025-11-03T22:16:37.766141",
    "latitude": 43.6027775,
    "longitude": -72.9785906,
    "geocoded_address": "Rutland Community Cupboard, 65, River Street, Rutland Downtown Historic District, Rutland City, Rutland County, Vermont, 05702, United States of America"
  },
  {
    "url": "https://www.foodpantries.org/li/hope_john_v._craven_community_services_center_05753",
    "name": "Hope - John V. Craven Community Services Center",
    "address": "282 Boardman Street",
    "city": "Middlebury",
    "state": "VT",
    "zip": "05753",
    "phone": "(802) 388-3608",
    "fax": null,
    "email": null,
    "website": "http://www.freefood.org/",
    "hours": "Food shelf hours Monday-Friday: 9am-3:30pm\r\n                                    \r\n                                                                        \n* Important: Please call the food pantries to confirm that the hours have not changed. We do our best to provide full information and details, but food pantries often change their hours without notifying us. We do not want you to waste your time visiting a pantry that is not open.",
    "description": null,
    "requirements": "Full application for newcomers at time of first visit Brief intake form upon each visit  Food Pantry hours:  Monday - Friday, 10:00am to 3:30pm Closed everyday 12:00pm - 12:30pm, except holid\nGo To Details Page For More Information",
    "scraped_at": "2025-11-03T22:16:40.146067",
    "latitude": 43.9998731,
    "longitude": -73.1438218,
    "geocoded_address": "HOPE Resale Store, 282, Boardman Street, Middlebury, Addison County, Vermont, 05753, United States of America"
  },
  {
    "url": "https://www.foodpantries.org/li/vt-broc_rutland_food_shelf",
    "name": "BROC-Community Action Rutland Food Shelf",
    "address": "45 Union Street",
    "city": "Rutland",
    "state": "VT",
    "zip": "05701",
    "phone": "(802) 775-0878",
    "fax": null,
    "email": null,
    "website": "http://www.broc.org",
    "hours": "Monday \u2013 Friday \u2013 10:00 am \u2013 12:00 pmFriday (for Seniors over 60 only) \u2013 2:00 pm \u2013 3:00 pm Other Services:\u00a0\u00a0\u00a0\u00a0\u00a0\u00a0\u00a0 Community Justice Center\u00a0\u00a0\u00a0\u00a0\u00a0\u00a0\u00a0 Economic Development\u00a0\u00a0\u00a0\u00a0\u00a0\u00a0\u00a0 Food & Nutrition\u00a0\u00a0\u00a0\u00a0\u00a0\u00a0\u00a0 Housing/Fuel/Utility Assistance\u00a0\u00a0\u00a0\u00a0\u00a0\u00a0\u00a0 Home Weatherization\u00a0\u00a0\u00a0\u00a0\u00a0\u00a0\u00a0 Income Tax Assistance\nCounty or Counties Served: Rutland",
    "description": null,
    "requirements": null,
    "scraped_at": "2025-11-03T22:16:42.424186",
    "latitude": 43.6066288,
    "longitude": -72.9827571,
    "geocoded_address": "45, Union Street, Rutland Downtown Historic District, Rutland City, Rutland County, Vermont, 05701, United States of America"
  },
  {
    "url": "https://www.foodpantries.org/li/salvation_army_the_and_rutland_05701",
    "name": "The Salvation Army",
    "address": "22 Wales Street",
    "city": "Rutland",
    "state": "VT",
    "zip": "05701",
    "phone": "(802) 775-5150",
    "fax": null,
    "email": null,
    "website": "http://www.freefood.org/",
    "hours": "Tuesday, Wednesday and Thursday 10:00am -12:00pm and 1:00pm - 3:00pm\r\n                                    \r\n                                    County or Counties Served: Rutland",
    "description": null,
    "requirements": null,
    "scraped_at": "2025-11-03T22:16:44.698006",
    "latitude": 43.6074537,
    "longitude": -72.9773519,
    "geocoded_address": "22, Wales Street, Rutland Downtown Historic District, Rutland City, Rutland County, Vermont, 05701, United States of America"
  },
  {
    "url": "https://www.foodpantries.org/li/vt_05701_parent-child-center-of-rutland-county",
    "name": "Parent Child Center of Rutland County",
    "address": "61 Pleasant Street",
    "city": "Rutland",
    "state": "VT",
    "zip": "05701",
    "phone": "(802) 775-9711",
    "fax": null,
    "email": null,
    "website": "https://rcpcc.org",
    "hours": "Tuesday, Wednesday and Thursday 10:00am \nGo To Details Page For More Information",
    "description": null,
    "requirements": null,
    "scraped_at": "2025-11-03T22:16:47.134300",
    "latitude": 43.6036947,
    "longitude": -72.9741915,
    "geocoded_address": "Parent Child Center of Rutland County, 61, Pleasant Street, Rutland Courthouse Historic District, Rutland City, Rutland County, Vermont, 05701, United States of America"
  },
  {
    "url": "https://www.foodpantries.org/li/addison_county_community_action_cvoeo_05753",
    "name": "Addison County Food Shelf CVOEO",
    "address": "54 Creek Rd",
    "city": "Middlebury",
    "state": "VT",
    "zip": "05753",
    "phone": "(802) 388-2285",
    "fax": null,
    "email": null,
    "website": "http://www.freefood.org/",
    "hours": "Monday - Friday, 10:00am to 3:30pmClosed everyday 12:00pm - 12:30pm, except holidays\nCounty or Counties Served: Addison",
    "description": null,
    "requirements": "Full application for newcomers at time of first visitBrief intake form upon each visitFood Pantry hours:Monday - Friday, 10:00am to 3:30pmClosed everyday 12:00pm - 12:30pm, except holidays\nCounty or Counties Served: Addison",
    "scraped_at": "2025-11-03T22:16:49.396794",
    "latitude": 44.004351,
    "longitude": -73.1608756,
    "geocoded_address": "54, Creek Road, Buttolph Acres, Middlebury, Addison County, Vermont, 05753, United States of America"
  },
  {
    "url": "https://www.foodpantries.org/li/vt_05701_green-mountain-food-pantry",
    "name": "Green Mountain Food Pantry at Rutland SDA Church",
    "address": "158 Stratton RD",
    "city": "Rutland",
    "state": "VT",
    "zip": "05701",
    "phone": "(802) 683-1298",
    "fax": null,
    "email": null,
    "website": "http://www.freefood.org/",
    "hours": "Tuesdays & Fridays 10:00am to 12:00pmNotes:You are allowed to come pick up food once a week.Please bring your own bags.No public rest rooms available.\nVolunteering Information:To volunteer, please call 802-683-1298 \nCounty or Counties Served: Rutland",
    "description": null,
    "requirements": null,
    "scraped_at": "2025-11-03T22:16:51.923007",
    "latitude": 43.6069548,
    "longitude": -72.9558219,
    "geocoded_address": "Seventh Day Adventist Church, 158, Stratton Road, Rutland Town, Rutland City, Rutland County, Vermont, 05701, United States of America"
  },
  {
    "url": "https://www.foodpantries.org/li/vt-brattleboro_area_dropin_center",
    "name": "Foodworks Food Pantry",
    "address": "141 Canal Street",
    "city": "Brattleboro",
    "state": "VT",
    "zip": "05301",
    "phone": "(802) 490-2412",
    "fax": null,
    "email": null,
    "website": "http://www.freefood.org/",
    "hours": "Monday 12:00pm - 3:00pmTuesday 10:00am - 1:00pm (Seniors ONLY 10:00am - 12:00pm)Wednesday 3:00pm - 6:00pmThursday 10:00am - 1:00pmFriday 12:00pm - 3:00pmLast Saturday of the month 9:00am - 12:00pmDonations:Non-expired and unopened food:Monday  Friday 9:00am - 4:00pm at the rear door of Foodworks.Perishable items:Call 802-490-2412 to schedule a drop off.For more information, please call. \nCounty or Counties Served: Windham",
    "description": null,
    "requirements": "Need ID and proof of income and residence in Richmond, Winchester, Ashuelot or Hinsdale.  For more information, please call . \nGo To Details Page For More Information",
    "scraped_at": "2025-11-03T22:16:54.020951",
    "latitude": 42.8478574,
    "longitude": -72.5619326,
    "geocoded_address": "Food Works Community Foodshelf, 141, Canal Street, Brattleboro Downtown Historic District, Fairview Village, Brattleboro, Windham County, Vermont, 05301, United States of America"
  },
  {
    "url": "https://www.foodpantries.org/li/agape_christian_fellowship_05301",
    "name": "Agape Christian Fellowship",
    "address": "30 Canal Street",
    "city": "Brattleboro",
    "state": "VT",
    "zip": "05301",
    "phone": "(802) 254-9547",
    "fax": null,
    "email": null,
    "website": "http://www.freefood.org/",
    "hours": "Thursday: 6:30pm -8pm\r\n                                    \r\n                                                                        \n* Important: Please call the food pantries to confirm that the hours have not changed. We do our best to provide full information and details, but food pantries often change their hours without notifying us. We do not want you to waste your time visiting a pantry that is not open.",
    "description": null,
    "requirements": "Need ID and proof of income and residence in Richmond, Winchester, Ashuelot or Hinsdale.  For more information, please call . \nGo To Details Page For More Information",
    "scraped_at": "2025-11-03T22:16:56.291861",
    "latitude": 42.8497016,
    "longitude": -72.5586373,
    "geocoded_address": "30, Canal Street, Brattleboro Downtown Historic District, Fairview Village, Brattleboro, Windham County, Vermont, 05304, United States of America"
  },
  {
    "url": "https://www.foodpantries.org/li/guilford_food_pantry_05301",
    "name": "Guilford Food Pantry",
    "address": "3490 Guilford Center Road",
    "city": "Brattleboro",
    "state": "VT",
    "zip": "05301",
    "phone": "(802) 254-2240",
    "fax": null,
    "email": null,
    "website": "http://www.freefood.org/",
    "hours": "2nd and 4th Thursday: 5pm -6:30pm\r\n                                    \r\n                                                                        \n* Important: Please call the food pantries to confirm that the hours have not changed. We do our best to provide full information and details, but food pantries often change their hours without notifying us. We do not want you to waste your time visiting a pantry that is not open.",
    "description": null,
    "requirements": "Need ID and proof of income and residence in Richmond, Winchester, Ashuelot or Hinsdale.  For more information, please call . \nGo To Details Page For More Information",
    "scraped_at": "2025-11-03T22:16:58.423941",
    "latitude": 42.8507588,
    "longitude": -72.5572913,
    "geocoded_address": "Brattleboro, Windham County, Vermont, United States of America",
    "note": "Geocoded to city center (exact address not found)"
  },
  {
    "url": "https://www.foodpantries.org/li/vt_05301_st-brigids-kitchen-and-pantry",
    "name": "St Brigids Kitchen and Pantry",
    "address": "38 Walnut Street",
    "city": "Brattleboto",
    "state": "VT",
    "zip": "05301",
    "phone": "(802) 254-6800",
    "fax": null,
    "email": null,
    "website": "http://www.freefood.org/",
    "hours": "Monday, Wednesday, Thursday, Saturday 9:30am - 10:30am, and, 12:30pm - 2pmDINING ROOM HOURS:Monday, Wednesday, Thursday, Saturday 11:30am - 12:30pmCommunity service hours at this location are available.For more information, please call. Alternate number 802-558-6072\nCounty or Counties Served: Windham",
    "description": null,
    "requirements": "Need ID and proof of income and residence in Richmond, Winchester, Ashuelot or Hinsdale.  For more information, please call . \nGo To Details Page For More Information",
    "scraped_at": "2025-11-03T22:17:01.577940"
  },
  {
    "url": "https://www.foodpantries.org/li/guilford-cares-food-pantry",
    "name": "Guilford Cares Food Pantry",
    "address": "93 March Davis Drive",
    "city": "guilford",
    "state": "VT",
    "zip": "05301",
    "phone": null,
    "fax": null,
    "email": null,
    "website": "http://www.freefood.org/",
    "hours": "Second and fourth Thursday: 5pm -6:30pm\nGo To Details Page For More Information",
    "description": null,
    "requirements": "Need ID and proof of income and residence in Richmond, Winchester, Ashuelot or Hinsdale.  For more information, please call . \nGo To Details Page For More Information",
    "scraped_at": "2025-11-03T22:17:04.810133",
    "latitude": 42.8182957,
    "longitude": -72.5933576,
    "geocoded_address": "93, March Davis Drive, Guilford, Windham County, Vermont, 05301, United States of America"
  },
  {
    "url": "https://www.foodpantries.org/li/guilford-food-pantry",
    "name": "Guilford Food Pantry",
    "address": "151 Guilford Center Road",
    "city": "Guilford",
    "state": "VT",
    "zip": "05301",
    "phone": null,
    "fax": null,
    "email": null,
    "website": "http://www.freefood.org/",
    "hours": "Second and fourth Thursday: 5pm -6:30pm\nGo To Details Page For More Information",
    "description": null,
    "requirements": "Need ID and proof of income and residence in Richmond, Winchester, Ashuelot or Hinsdale.  For more information, please call . \nGo To Details Page For More Information",
    "scraped_at": "2025-11-03T22:17:07.607763",
    "latitude": 42.81542,
    "longitude": -72.5781354,
    "geocoded_address": "151, Guilford Center Road, Guilford Center, Guilford, Windham County, Vermont, 05301, United States of America"
  },
  {
    "url": "https://www.foodpantries.org/li/guilford_cares_05301",
    "name": "Guilford Cares",
    "address": "679 Weatherhead Hollow Road",
    "city": "Guilford",
    "state": "VT",
    "zip": "05301",
    "phone": "(802) 254-2240",
    "fax": null,
    "email": null,
    "website": "http://www.freefood.org/",
    "hours": "Second and fourth Thursday: 5pm -6:30pm\r\n                                    \r\n                                                                        \n* Important: Please call the food pantries to confirm that the hours have not changed. We do our best to provide full information and details, but food pantries often change their hours without notifying us. We do not want you to waste your time visiting a pantry that is not open.",
    "description": null,
    "requirements": "Need ID and proof of income and residence in Richmond, Winchester, Ashuelot or Hinsdale.  For more information, please call . \nGo To Details Page For More Information",
    "scraped_at": "2025-11-03T22:17:11.093615",
    "latitude": 42.7916604,
    "longitude": -72.5982556,
    "geocoded_address": "679, Weatherhead Hollow Road, Leyden, Guilford, Windham County, Vermont, 05301, United States of America"
  },
  {
    "url": "https://www.foodpantries.org/li/joans_food_pantry_asbury_methodist_church_3443",
    "name": "Joan's Food Pantry - Asbury Methodist Church",
    "address": "532 Route 63",
    "city": "Chesterfield",
    "state": "NH",
    "zip": "03443",
    "phone": "(603) 762-0764",
    "fax": null,
    "email": null,
    "website": "http://www.freefood.org/",
    "hours": "Saturdays 9:00am - 12:00pmFor more information, please call.\nCounty or Counties Served: Cheshire",
    "description": null,
    "requirements": "Need ID and proof of income and residence in Richmond, Winchester, Ashuelot or Hinsdale.  For more information, please call . \nGo To Details Page For More Information",
    "scraped_at": "2025-11-03T22:17:13.315327",
    "latitude": 42.973484,
    "longitude": -72.45663,
    "geocoded_address": "532, Route 63, Westmoreland, Cheshire County, New Hampshire, 03467, United States of America"
  },
  {
    "url": "https://www.foodpantries.org/li/vt_vernon_advent-christian-church-food-pantry",
    "name": "Advent Christian Church Bread of Life Food Pantry",
    "address": "4554 Fort Bridgman Road",
    "city": "Vernon",
    "state": "VT",
    "zip": "05354",
    "phone": "(802) 257-2341",
    "fax": null,
    "email": null,
    "website": "http://www.freefood.org/",
    "hours": "Second & fourth Saturday each month from 10:00am to 1:00pm  Donations:  Checks made out to the Northfield Food Pantry, mail to P.O. Box 103, Northfield, MA 01360. \nGo To Details Page For More Information",
    "description": null,
    "requirements": "Need ID and proof of income and residence in Richmond, Winchester, Ashuelot or Hinsdale.  For more information, please call . \nGo To Details Page For More Information",
    "scraped_at": "2025-11-03T22:17:15.370494",
    "latitude": 42.727753,
    "longitude": -72.4658177,
    "geocoded_address": "4554, Fort Bridgman Road, South Vernon, Vernon, Windham County, Vermont, 05354, United States of America"
  },
  {
    "url": "https://www.foodpantries.org/li/united_church_food_pantry_03470",
    "name": "Food Pantry at The United Church of Winchester",
    "address": "99 Main street",
    "city": "Winchester",
    "state": "NH",
    "zip": "03470",
    "phone": "(603) 499-3245",
    "fax": null,
    "email": null,
    "website": "http://www.freefood.org/",
    "hours": "Wednesdays 6:00 pm - 7:00 pmThis is for emergency need only. Requirements: Need ID and proof of income and residence in Richmond, Winchester, Ashuelot or Hinsdale.For more information, please call. \nCounty or Counties Served: Cheshire",
    "description": null,
    "requirements": "Need ID and proof of income and residence in Richmond, Winchester, Ashuelot or Hinsdale.For more information, please call. \nCounty or Counties Served: Cheshire",
    "scraped_at": "2025-11-03T22:17:17.711863",
    "latitude": 42.772098,
    "longitude": -72.384444,
    "geocoded_address": "99, Main Street, Winchester, Cheshire County, New Hampshire, 03470, United States of America"
  },
  {
    "url": "https://www.foodpantries.org/li/ma_01360_northfield-regional-food-pantry",
    "name": "Northfield Regional Food Pantry",
    "address": "115 Main St",
    "city": "Northfield",
    "state": "MA",
    "zip": "01360",
    "phone": "(413) 225-3038",
    "fax": null,
    "email": null,
    "website": "http://www.freefood.org/",
    "hours": "Second & fourth Saturday each month from 10:00am to 1:00pmDonations:Checks made out to the Northfield Food Pantry, mail to P.O. Box 103, Northfield, MA 01360.\nVolunteering Information:Contact pantry manager \nCounty or Counties Served: Franklin",
    "description": null,
    "requirements": "Need ID and proof of income and residence in Richmond, Winchester, Ashuelot or Hinsdale.  For more information, please call . \nGo To Details Page For More Information",
    "scraped_at": "2025-11-03T22:17:20.549293",
    "latitude": 42.69972,
    "longitude": -72.4532695,
    "geocoded_address": "Dickinson Memorial Library, 115, Main Street, Northfield, Franklin County, Massachusetts, 01360, United States of America"
  },
  {
    "url": "https://www.foodpantries.org/li/vt-black_river_good_neighbor",
    "name": "Black River Good Neighbor",
    "address": "37B Main Street\r\n            Ludlow, VT -  0514\r\n            Phone: (802) 228-3663\n\n\nWebsite\n\nFacebook\n\nTwitter Address\nInstagram URL\n\n\n\nUser Questions and Answers\r\n     Help our users find out more about Black River Good Neighbor.\nAnswer a question below ONLY IF you know the answer to help people who want more information on Black River Good Neighbor.\n\n\n\n\nHow do I volunteer?\n\n\n\nAnswer\n\n\n\n\n\n\n\n\nDo you know if I can get food delivered to me?\n\n\n\nAnswer\n\n\n\n\n\n\n\n\nDo I need to make an appointment?\n\n\n\nAnswer\n\n\n\n\n\n\n\n\nHow do I make a donation?\n\n\n\nAnswer\n\n\n\n\n\n\n\n\nCan I do my community service hours at this location?\n\n\n\nAnswer\n\n\n\n\n\n\n\n\nWhat type of documentation do I need to apply for food?\n\n\n\nAnswer\n\n\n\n\n\n\n\nBe The First To Make A Review\n\n\nYour opinion matters. Leave A Review Or Edit This Listing for Black River Good Neighbor.\nDo not request help here. Contact the Pantry directly.\n\n\n\n\n\n\n\n\n\n Name (required) \n\n\n\n eMail (will not be published) (required) \n\n\n\n Comment (required)\n\n\n\n\n\n\nSubmit\n\n\n\n\n\n\nPantry Details, hours, photos, information: Black River Good Neighbor\n\n\n* Important: Please call the food pantries to confirm that the hours have not changed. We do our best to provide full information and details, but food pantries often change their hours without notifying us. We do not want you to waste your time visiting a pantry that is not open.\n\nDonations And Volunteers\r\n            Please contact us directly by phone to donate and/or volunteer.\r\n            \nNeed More Information\r\n            We always need more information on our pantries. If you know of any details, volunteer information, website, hours or more description information about\r\n            Black River Good Neighbor please add a comment below with information. We will then display this for all visitors on this page.\r\n            \n\n\n\n\n\n\n\n\n\nNearby Area Listings \n\nThe Reading-West Windsor Food Shelf \n\n\n\n\n\n\nView Website and Full Address",
    "city": "South Reading",
    "state": "VT",
    "zip": "05062",
    "phone": "(802) 228-3663",
    "fax": null,
    "email": null,
    "website": "http://www.brgn.org",
    "hours": "Monday 2:00pm - 4:00pm Thursday 4:00pm - 6:00pm  Location:  South Reading, 3.4 miles west of Route 106.  For more information, please call.  \nGo To Details Page For More Information",
    "description": null,
    "requirements": null,
    "scraped_at": "2025-11-03T22:17:24.594121",
    "latitude": 43.4751233,
    "longitude": -72.5892678,
    "geocoded_address": "South Reading, Reading, Windsor County, Vermont, 05062, United States of America",
    "note": "Geocoded to city center (exact address not found)"
  },
  {
    "url": "https://www.foodpantries.org/li/black_river_good_neighbor_services_05149",
    "name": "Black River Good Neighbor Services",
    "address": "37B Main Street",
    "city": "Ludlow",
    "state": "VT",
    "zip": "05149",
    "phone": "(802) 228-3663",
    "fax": null,
    "email": null,
    "website": "http://www.freefood.org/",
    "hours": "Monday-Friday: 10am-3:30pm and Saturday by appointment only\r\n                                    \r\n                                                                        \n* Important: Please call the food pantries to confirm that the hours have not changed. We do our best to provide full information and details, but food pantries often change their hours without notifying us. We do not want you to waste your time visiting a pantry that is not open.",
    "description": null,
    "requirements": null,
    "scraped_at": "2025-11-03T22:17:28.184925",
    "latitude": 43.3961041,
    "longitude": -72.6995803,
    "geocoded_address": "Main Street, Ludlow Village, Ludlow, Windsor County, Vermont, 05149, United States of America"
  },
  {
    "url": "https://www.foodpantries.org/li/vt_05443_have-a-heart-food-shelf",
    "name": "Have-A-Heart Food Shelf",
    "address": "11 School St",
    "city": "Bristol",
    "state": "VT",
    "zip": "05443",
    "phone": "(802) 233-3561",
    "fax": null,
    "email": null,
    "website": "http://www.freefood.org/",
    "hours": "Every Sunday from 2:30 to 3PM year round.  Food is a combination of donations from area grocery stores and produce from New Community Project's gardens.  Open to all. \nGo To Details Page For More Information",
    "description": null,
    "requirements": "Full application for newcomers at time of first visit Brief intake form upon each visit  Food Pantry hours:  Monday - Friday, 10:00am to 3:30pm Closed everyday 12:00pm - 12:30pm, except holid\nGo To Details Page For More Information",
    "scraped_at": "2025-11-03T22:17:30.821358",
    "latitude": 44.1342886,
    "longitude": -73.0804947,
    "geocoded_address": "St. Ambrose Rectory, 11, School Street, Bristol Downtown Historic District, Bristol, Addison County, Vermont, 05443, United States of America"
  },
  {
    "url": "https://www.foodpantries.org/li/vt_05487_new-community-project-food-share",
    "name": "New Community Project Food Share",
    "address": "2806 VT Rte. 116",
    "city": "Starksboro",
    "state": "VT",
    "zip": "05487",
    "phone": "(802) 434-2333",
    "fax": null,
    "email": null,
    "website": "http://www.freefood.org/",
    "hours": "Every Sunday from 2:30 to 3PM year round. Food is a combination of donations from area grocery stores and produce from New Community Project's gardens. Open to all. \nVolunteering Information:Contact program coordinator Pete Antos-Ketcham \nCounty or Counties Served: Addison",
    "description": null,
    "requirements": null,
    "scraped_at": "2025-11-03T22:17:33.434987",
    "latitude": 44.2273281,
    "longitude": -73.0568483,
    "geocoded_address": "Starksboro, Addison County, Vermont, 05487, United States of America",
    "note": "Geocoded to city center (exact address not found)"
  },
  {
    "url": "https://www.foodpantries.org/li/victory_baptist_church_05491",
    "name": "Victory Baptist Church",
    "address": "862 US Route 7",
    "city": "Vergennes",
    "state": "VT",
    "zip": "05491",
    "phone": "(802) 877-3393",
    "fax": null,
    "email": null,
    "website": "https://victoryvt.org",
    "hours": "Monday - Friday 8:30am - 3:30pmFor more information, please call.\nCounty or Counties Served: Addison",
    "description": null,
    "requirements": "Full application for newcomers at time of first visit Brief intake form upon each visit  Food Pantry hours:  Monday - Friday, 10:00am to 3:30pm Closed everyday 12:00pm - 12:30pm, except holid\nGo To Details Page For More Information",
    "scraped_at": "2025-11-03T22:17:36.434788",
    "latitude": 44.1681052,
    "longitude": -73.2518037,
    "geocoded_address": "Vergennes, Addison County, Vermont, United States of America",
    "note": "Geocoded to city center (exact address not found)"
  },
  {
    "url": "https://www.foodpantries.org/li/vergennes_community_food_shelf_congregational_church_of_ve_05491",
    "name": "Vergennes Community Food Shelf - Congregational Church",
    "address": "30 South Water Street",
    "city": "Vergennes",
    "state": "VT",
    "zip": "05491",
    "phone": "(802) 877-2435",
    "fax": null,
    "email": null,
    "website": "http://www.freefood.org/",
    "hours": "Tuesday and Thursday\r\n2:00pm - 4:00pm \r\nSaturday\r\n8:00am - 10:00am\n\r\nFor more information, please call. \nCounty or Counties Served: Addison",
    "description": null,
    "requirements": "Full application for newcomers at time of first visit Brief intake form upon each visit  Food Pantry hours:  Monday - Friday, 10:00am to 3:30pm Closed everyday 12:00pm - 12:30pm, except holid\nGo To Details Page For More Information",
    "scraped_at": "2025-11-03T22:17:39.463087",
    "latitude": 44.1658843,
    "longitude": -73.2534949,
    "geocoded_address": "Vergennes Congregational Church, 30, South Water Street, Vergennes, Addison County, Vermont, 05491, United States of America"
  },
  {
    "url": "https://www.foodpantries.org/li/vt_middlebury_charter-house-coalition",
    "name": "Charter House Coalition Community Meals Program",
    "address": "27 North Pleasant Street",
    "city": "Middlebury",
    "state": "VT",
    "zip": "05753",
    "phone": "(802) 989-8621",
    "fax": null,
    "email": null,
    "website": "https://chcvt.org/",
    "hours": "Lunch Saturday to Thursday\u00a0 11:45am-12:15pmDinner Saturday to Thursday\u00a0 5:30pm-6:15pmSupper Friday 4:30pm-5:00pm\nVolunteering Information:https://chcvt.org/want-to-get-involved/volunteer/ \nCounty or Counties Served: Addison",
    "description": null,
    "requirements": "Full application for newcomers at time of first visit Brief intake form upon each visit  Food Pantry hours:  Monday - Friday, 10:00am to 3:30pm Closed everyday 12:00pm - 12:30pm, except holid\nGo To Details Page For More Information",
    "scraped_at": "2025-11-03T22:17:41.607850",
    "latitude": 44.015169,
    "longitude": -73.1665916,
    "geocoded_address": "Charter House Coalition, 27, North Pleasant Street, Middlebury Village Historic District, Middlebury, Addison County, Vermont, 05753, United States of America"
  },
  {
    "url": "https://www.foodpantries.org/li/vt_middlebury_congregational-church-of-middlebury-food-pant",
    "name": "Congregational Church of Middlebury Free Community Suppers",
    "address": "2 Main Street",
    "city": "Middlebury",
    "state": "VT",
    "zip": "05753",
    "phone": "(802) 989-9746",
    "fax": null,
    "email": null,
    "website": "http://www.freefood.org/",
    "hours": "Every Friday Evening 5:00 to 5:30 p.m. The volunteers also prepare take-out hot meals from 5:00 to 5:30 p.m with dining-in opportunities. \nCounty or Counties Served: Addison",
    "description": null,
    "requirements": "Full application for newcomers at time of first visit Brief intake form upon each visit  Food Pantry hours:  Monday - Friday, 10:00am to 3:30pm Closed everyday 12:00pm - 12:30pm, except holid\nGo To Details Page For More Information",
    "scraped_at": "2025-11-03T22:17:44.004729",
    "latitude": 44.0152385,
    "longitude": -73.1672933,
    "geocoded_address": "Congregational Church of Middlebury, 2, Main Street, Middlebury Village Historic District, Middlebury, Addison County, Vermont, 05753, United States of America"
  },
  {
    "url": "https://www.foodpantries.org/li/mad_river_valley_interfaith_council_05673",
    "name": "Mad River Valley Community Pantry - Evergreen Senior Center",
    "address": "5308 Main Street",
    "city": "Waitsfield",
    "state": "VT",
    "zip": "05673",
    "phone": "(802) 496-8853",
    "fax": null,
    "email": null,
    "website": "http://www.freefood.org/",
    "hours": null,
    "description": null,
    "requirements": null,
    "scraped_at": "2025-11-03T22:17:46.543891",
    "latitude": 44.1826995,
    "longitude": -72.839103,
    "geocoded_address": "5308, Main Street, Irasville, Waitsfield, Washington County, Vermont, 05673, United States of America"
  },
  {
    "url": "https://www.foodpantries.org/li/vt_hinesburg_hinesburg-community-resource-center-food-pant",
    "name": "Hinesburg Community Resource Center & Hinesburg Food Shelf",
    "address": "51 Ballards Corner Road",
    "city": "Hinesburg",
    "state": "VT",
    "zip": "05461",
    "phone": "(802) 482-4946",
    "fax": null,
    "email": null,
    "website": "http://www.freefood.org/",
    "hours": "Tuesday: 5:30 pm to 7:30pmFriday: 10:00 am to 12:00 pm\nVolunteering Information:http://www.hinesburgresource.org/how-to-help.html \nCounty or Counties Served: Chittenden",
    "description": null,
    "requirements": null,
    "scraped_at": "2025-11-03T22:17:48.850951",
    "latitude": 44.3412872,
    "longitude": -73.1191292,
    "geocoded_address": "51, Ballards Corner Road, Hinesburg, Chittenden County, Vermont, 05461, United States of America"
  },
  {
    "url": "https://www.foodpantries.org/li/sara_holbrook_community_center_05401",
    "name": "Sara Holbrook Community Center",
    "address": "66 North Avenue",
    "city": "Burlington",
    "state": "VT",
    "zip": "05408",
    "phone": "(802) 862-6342",
    "fax": null,
    "email": null,
    "website": "http://www.freefood.org/",
    "hours": "Schedule an appointmentFor more information, please call and dial ext. 121.\nVolunteering Information:https://www.saraholbrookcc.org/volunteer \nCounty or Counties Served: Chittenden",
    "description": null,
    "requirements": null,
    "scraped_at": "2025-11-03T22:17:51.646140",
    "latitude": 44.523205,
    "longitude": -73.2655257,
    "geocoded_address": "66, North Avenue, New North End, Burlington, Chittenden County, Vermont, 05408, United States of America"
  },
  {
    "url": "https://www.foodpantries.org/li/salvation_army_burlington_05401",
    "name": "Salvation Army Burlington",
    "address": "64 Main Street",
    "city": "Burlington",
    "state": "VT",
    "zip": "05401",
    "phone": "(802) 864-6991",
    "fax": null,
    "email": null,
    "website": "http://www.freefood.org/",
    "hours": "Monday-Friday: 9am to 12pm\r\n                                    \r\n                                                                        \n* Important: Please call the food pantries to confirm that the hours have not changed. We do our best to provide full information and details, but food pantries often change their hours without notifying us. We do not want you to waste your time visiting a pantry that is not open.",
    "description": null,
    "requirements": null,
    "scraped_at": "2025-11-03T22:17:54.279917",
    "latitude": 44.4760844,
    "longitude": -73.2168602,
    "geocoded_address": "Salvation Army, 64, Main Street, Downtown, Burlington, Chittenden County, Vermont, 05401, United States of America"
  },
  {
    "url": "https://www.foodpantries.org/li/chittenden_emergency_food_shelf_05401",
    "name": "Chittenden Emergency Food Shelf",
    "address": "228 North Winooski Avenue",
    "city": "Burlington",
    "state": "VT",
    "zip": "05401",
    "phone": "(802) 658-7939",
    "fax": "(802) 860-3663",
    "email": null,
    "website": "http://www.freefood.org/",
    "hours": "Monday through Friday\r\n 9:00am - 4:00pm\n\r\nHot Meals Hours:\r\nMonday - Friday\r\n6:30am - 9:30am\r\nSunday\r\n8:30am - 11:00am\nCounty or Counties Served: Chittenden",
    "description": null,
    "requirements": null,
    "scraped_at": "2025-11-03T22:17:58.689081",
    "latitude": 44.486264,
    "longitude": -73.2093159,
    "geocoded_address": "Chittenden Emergency Food Shelf, 228, North Winooski Avenue, Old North End, Burlington, Chittenden County, Vermont, 05401, United States of America"
  },
  {
    "url": "https://www.foodpantries.org/li/joint_urban_ministry_project_05401",
    "name": "Joint Urban Ministry Project",
    "address": "38 South Winooski Avenue",
    "city": "Burlington",
    "state": "VT",
    "zip": "05401",
    "phone": "(802) 862-4501",
    "fax": null,
    "email": null,
    "website": "http://www.jumpvt.org",
    "hours": "Monday-Friday\r\n8:30am - 12:00pm\r\nSummer\r\n  9:00am to 12:00pm\n\r\nFor more information, please call. \nCounty or Counties Served: Chittenden",
    "description": null,
    "requirements": null,
    "scraped_at": "2025-11-03T22:18:01.019426",
    "latitude": 44.4795529,
    "longitude": -73.2102859,
    "geocoded_address": "First Congregational Church, 38, South Winooski Avenue, Downtown, Burlington, Chittenden County, Vermont, 05401, United States of America"
  },
  {
    "url": "https://www.foodpantries.org/li/vt_05408_north-end-food-pantry",
    "name": "North End Food Pantry - Heineberg Community Center",
    "address": "14 Heineberg Rd",
    "city": "Burlington",
    "state": "VT",
    "zip": "05408",
    "phone": "(802) 862-7300",
    "fax": null,
    "email": null,
    "website": "http://www.freefood.org/",
    "hours": "Saturday and Sunday9:00 am - 11:00 am In the case of a food emergency, we can be contacted at the email tlfleury@aol.comClothingLocation:1416 North Ave, Burlington, VTWe regret that we are not able to make food deliveries.For more information, please call. \nVolunteering Information:https://newnorthender.com/volunteerburlington \nCounty or Counties Served: Chittenden",
    "description": null,
    "requirements": null,
    "scraped_at": "2025-11-03T22:18:03.180389",
    "latitude": 44.5100947,
    "longitude": -73.2479842,
    "geocoded_address": "14, Heineberg Road, New North End, Burlington, Chittenden County, Vermont, 05408, United States of America"
  },
  {
    "url": "https://www.foodpantries.org/li/vt_05401_east-ave-little-free-pantry",
    "name": "East Ave Little Free Pantry",
    "address": "166 East Ave",
    "city": "Burlington",
    "state": "VT",
    "zip": "05401",
    "phone": "(802) 272-2829",
    "fax": null,
    "email": null,
    "website": "http://www.freefood.org/",
    "hours": "2nd and 4th Saturday of the month \r\n9:30am - 12:00pm \r\n2nd and 4th Wednesday \r\n2:30am - 4:00pm \r\n \r\nFor more information, please call.",
    "description": null,
    "requirements": null,
    "scraped_at": "2025-11-03T22:18:05.908124",
    "latitude": 44.477553,
    "longitude": -73.191335,
    "geocoded_address": "166, East Avenue, Burlington, Chittenden County, Vermont, 05401, United States of America"
  },
  {
    "url": "https://www.foodpantries.org/li/Vt_Faith_In_Action_Northern_Communities_Partnership,_Inc.",
    "name": "Faith In Action Northern Communities Partnership, Inc.",
    "address": "3339 Main St",
    "city": "Cabot",
    "state": "VT",
    "zip": "05647",
    "phone": "(802) 563-3322",
    "fax": null,
    "email": null,
    "website": "http://fiancp.org",
    "hours": "The 3rd Saturday of every month \r\n 9:00am - 11:00am \r\nThe 4th Wednesday of the month \r\n5:00pm - 6:30pm \r\n \r\nFor more information, please call.",
    "description": null,
    "requirements": null,
    "scraped_at": "2025-11-03T22:18:09.666327",
    "latitude": 44.405518,
    "longitude": -72.3088259,
    "geocoded_address": "Green Mountain Lodge #68, 3339, Main Street, Cabot, Washington County, Vermont, 05647, United States of America"
  },
  {
    "url": "https://www.foodpantries.org/li/woodbury__calais_food_shelf_05681",
    "name": "Woodbury - Calais Food Shelf",
    "address": "49 Valley Lake Road",
    "city": "Woodbury",
    "state": "VT",
    "zip": "05681",
    "phone": "(802) 456-7024",
    "fax": null,
    "email": null,
    "website": "http://www.freefood.org/",
    "hours": "The 3rd Saturday of every month\r\n 9:00am - 11:00am\r\nThe 4th Wednesday of the month\r\n5:00pm - 6:30pm\n\r\nFor more information, please call. \nCounty or Counties Served: Washington",
    "description": null,
    "requirements": null,
    "scraped_at": "2025-11-03T22:18:16.110270",
    "latitude": 44.44072,
    "longitude": -72.4159181,
    "geocoded_address": "49, Valley Lake Road, Woodbury, Washington County, Vermont, 05650, United States of America"
  },
  {
    "url": "https://www.foodpantries.org/li/danville_ecumenical_community_center_05828",
    "name": "Danville Ecumenical Community Center",
    "address": "29 Hill Street",
    "city": "Danville",
    "state": "VT",
    "zip": "05828",
    "phone": "(802) 684-2515",
    "fax": null,
    "email": null,
    "website": "http://www.freefood.org/",
    "hours": "Monday and Friday\r\n 10:00am - 4:00pm\r\nWednesday\r\n10:00am - 1:00pm\n\r\nFor more information, please call. \nCounty or Counties Served: Caledonia",
    "description": null,
    "requirements": null,
    "scraped_at": "2025-11-03T22:18:18.357784",
    "latitude": 44.4118989,
    "longitude": -72.140473,
    "geocoded_address": "29, Hill Street, Danville, Caledonia County, Vermont, 05828, United States of America"
  },
  {
    "url": "https://www.foodpantries.org/li/hardwick_area_food_pantry_05843",
    "name": "Hardwick Area Food Pantry",
    "address": "39 West Church Street",
    "city": "Hardwick",
    "state": "VT",
    "zip": "05843",
    "phone": "(802) 472-5940",
    "fax": null,
    "email": null,
    "website": "http://www.freefood.org/",
    "hours": "Monday\r\n12:00pm - 2:00pm\r\nThursday and Saturday\r\n9:00am - 11:00am\n\r\nFor more information, please call. \nCounty or Counties Served: Caledonia",
    "description": null,
    "requirements": null,
    "scraped_at": "2025-11-03T22:18:21.344494",
    "latitude": 44.5059225,
    "longitude": -72.3658189,
    "geocoded_address": "39, West Church Street, Downtown Hardwick Village Historic District, Hardwick, Caledonia County, Vermont, 05843, United States of America"
  },
  {
    "url": "https://www.foodpantries.org/li/worcester_food_shelf__community_kitchen_05682",
    "name": "Worcester Food Shelf / Community Kitchen",
    "address": "20 Worcester Village Rd",
    "city": "Worcester",
    "state": "VT",
    "zip": "05682",
    "phone": "(802) 371-8168",
    "fax": null,
    "email": null,
    "website": "http://www.freefood.org/",
    "hours": "Wednesdays 1:00pm - 2:00pm Third Saturday or the month: 11:00am - 1:00pm\nCounty or Counties Served: Washington",
    "description": null,
    "requirements": null,
    "scraped_at": "2025-11-03T22:18:25.021467",
    "latitude": 44.3723154,
    "longitude": -72.5500928,
    "geocoded_address": "20, Worcester Village Road, Worcester, Washington County, Vermont, 05682, United States of America"
  },
  {
    "url": "https://www.foodpantries.org/li/vt_east-montpelier_old-brick-church-food-shelf",
    "name": "Old Brick Church Food Shelf / Food Pantry",
    "address": "60 Church Street",
    "city": "East Montpelier",
    "state": "VT",
    "zip": "05651",
    "phone": "(802) 223-1232",
    "fax": null,
    "email": null,
    "website": "http://www.freefood.org/",
    "hours": "2nd and 4th Tuesdays of the month from 2:00 \u2013 5:00 p.m. Notes:Always open for anyone who attends this church.\nCounty or Counties Served: Washington",
    "description": null,
    "requirements": null,
    "scraped_at": "2025-11-03T22:18:27.375741",
    "latitude": 44.2715266,
    "longitude": -72.4857574,
    "geocoded_address": "East Montpelier, Washington County, Vermont, United States of America",
    "note": "Geocoded to city center (exact address not found)"
  },
  {
    "url": "https://www.foodpantries.org/li/kingdom_community_services_05819",
    "name": "Kingdom Community Services",
    "address": "36 Steeple Place",
    "city": "Saint Johnsbury",
    "state": "VT",
    "zip": "05819",
    "phone": "(802) 751-8581",
    "fax": null,
    "email": null,
    "website": "http://www.freefood.org/",
    "hours": "Canaan: Monday-Friday: 8am-4pm. Island Pond: Tuesdays: 9am-2:30pm. Saint Johnsbury: Monday-Friday: 8am-4:30pm. Newport: Monday-Friday: 8am-4:30pm\nGo To Details Page For More Information",
    "description": null,
    "requirements": null,
    "scraped_at": "2025-11-03T22:18:32.990979",
    "latitude": 44.4212237,
    "longitude": -72.020599,
    "geocoded_address": "36, Steeple Place, Saint Johnsbury Main Street Historic District, Saint Johnsbury, Caledonia County, Vermont, 05819, United States of America"
  },
  {
    "url": "https://www.foodpantries.org/li/northeast_kingdom_community_action_05819",
    "name": "Northeast Kingdom Community Action",
    "address": "115 Lincoln Street",
    "city": "Saint Johnsbury",
    "state": "VT",
    "zip": "05819",
    "phone": "(888) 748-6040",
    "fax": null,
    "email": null,
    "website": "http://www.freefood.org/",
    "hours": "Monday-Friday: 8am-4pm. Island Pond: Tuesdays: 9am-2:30pm. Saint Johnsbury: Monday-Friday: 8am-4:30pm. Newport: Monday-Friday: 8am-4:30pm",
    "description": null,
    "requirements": null,
    "scraped_at": "2025-11-03T22:18:34.944467",
    "latitude": 44.4199878,
    "longitude": -71.9991585,
    "geocoded_address": "Northeast Kingdom Community Action Parent/Child Center, 115, Lincoln Street, Saint Johnsbury, Caledonia County, Vermont, 05819, United States of America"
  },
  {
    "url": "https://www.foodpantries.org/li/nekca__st.johnsbury_005819",
    "name": "NEKCA - St.Johnsbury",
    "address": "115 Lincoln Street",
    "city": "Saint Johnsbury",
    "state": "VT",
    "zip": "05819",
    "phone": "(802) 748-6040",
    "fax": null,
    "email": null,
    "website": "http://www.freefood.org/",
    "hours": "Monday and Friday \r\n 10:00am - 4:00pm \r\nWednesday \r\n10:00am - 1:00pm \r\n \r\nFor more information, please call.",
    "description": null,
    "requirements": null,
    "scraped_at": "2025-11-03T22:18:37.298849",
    "latitude": 44.4199878,
    "longitude": -71.9991585,
    "geocoded_address": "Northeast Kingdom Community Action Parent/Child Center, 115, Lincoln Street, Saint Johnsbury, Caledonia County, Vermont, 05819, United States of America"
  },
  {
    "url": "https://www.foodpantries.org/li/montpelier_food_pantry_registration_site_05602",
    "name": "Montpelier Food Pantry",
    "address": "137 Main Street",
    "city": "Montpelier",
    "state": "VT",
    "zip": "05602",
    "phone": "(802) 375-5369",
    "fax": null,
    "email": null,
    "website": "http://www.freefood.org/",
    "hours": "Tuesday, Wednesday, Thursday: 9am-2pm\nGo To Details Page For More Information",
    "description": null,
    "requirements": null,
    "scraped_at": "2025-11-03T22:18:39.495275",
    "latitude": 44.261357,
    "longitude": -72.5733634,
    "geocoded_address": "Trinity United Methodist Church, 137, Main Street, Montpelier Historic District, Montpelier, Washington County, Vermont, 05602, United States of America"
  },
  {
    "url": "https://www.foodpantries.org/li/northeast_kingdom_community_action_05903",
    "name": "Northeast Kingdom Community Action",
    "address": "217 Gail Street",
    "city": "Canaan",
    "state": "VT",
    "zip": "05903",
    "phone": "(802) 266-7134",
    "fax": null,
    "email": null,
    "website": "http://www.freefood.org/",
    "hours": "Monday-Friday: 8am-4pm. Island Pond: Tuesdays: 9am-2:30pm. Saint Johnsbury: Monday-Friday: 8am-4:30pm. Newport: Monday-Friday: 8am-4:30pm",
    "description": null,
    "requirements": null,
    "scraped_at": "2025-11-03T22:18:42.489802",
    "latitude": 44.9961753,
    "longitude": -71.5382942,
    "geocoded_address": "Canaan, Essex County, Vermont, United States of America",
    "note": "Geocoded to city center (exact address not found)"
  },
  {
    "url": "https://www.foodpantries.org/li/colebrook_area_food_pantry_03576",
    "name": "Colebrook Area Food Pantry",
    "address": "55 Pleasant Street",
    "city": "Colebrook",
    "state": "NH",
    "zip": "03576",
    "phone": null,
    "fax": null,
    "email": null,
    "website": "http://www.freefood.org/",
    "hours": "Monday, Tuesday and Thursday10:00am - 2:00pm\r\n                                    \r\n                                    County or Counties Served: Coos",
    "description": null,
    "requirements": null,
    "scraped_at": "2025-11-03T22:18:45.901398",
    "latitude": 44.893645,
    "longitude": -71.4910025,
    "geocoded_address": "55, Pleasant Street, Colebrook, Co\u00f6s County, New Hampshire, 03576, United States of America"
  },
  {
    "url": "https://www.foodpantries.org/li/first_congregational_church_of_island_pond_05846",
    "name": "First Congregational Church of Island Pond",
    "address": "21 Middle Street",
    "city": "Island Pond",
    "state": "VT",
    "zip": "05846",
    "phone": "(802) 723-5037",
    "fax": null,
    "email": null,
    "website": "http://www.freefood.org/",
    "hours": "Monday - Wednesday 5:00pm - 6:30pm with appointmentFor more information, please call. \nCounty or Counties Served: Essex",
    "description": null,
    "requirements": null,
    "scraped_at": "2025-11-03T22:18:47.926715",
    "latitude": 44.8167741,
    "longitude": -71.8815818,
    "geocoded_address": "21, Middle Street, Island Pond Historic District, Island Pond, Brighton, Essex County, Vermont, 05846, United States of America"
  },
  {
    "url": "https://www.foodpantries.org/li/northeast_kingdom_community_action_05846",
    "name": "Northeast Kingdom Community Action",
    "address": "62 Cross Street",
    "city": "Island Pond",
    "state": "VT",
    "zip": "05846",
    "phone": null,
    "fax": null,
    "email": null,
    "website": "http://www.freefood.org/",
    "hours": "Monday-Friday: 8am-4pm. Island Pond: Tuesdays: 9am-2:30pm. Saint Johnsbury: Monday-Friday: 8am-4:30pm. Newport: Monday-Friday: 8am-4:30pm",
    "description": null,
    "requirements": null,
    "scraped_at": "2025-11-03T22:18:50.319621",
    "latitude": 44.8140302,
    "longitude": -71.8814303,
    "geocoded_address": "Ace Hardware, 62, Cross Street, Island Pond Historic District, Island Pond, Brighton, Essex County, Vermont, 05846, United States of America"
  },
  {
    "url": "https://www.foodpantries.org/li/st_francis_xavier_3582",
    "name": "St Francis Xavier Food Pantry",
    "address": "11 State Street",
    "city": "Groveton",
    "state": "NH",
    "zip": "03582",
    "phone": "(603) 636-2486",
    "fax": null,
    "email": null,
    "website": "http://www.freefood.org/",
    "hours": "Wednesday 9:30am - 12:00pmThursday 1:00pm - 3:00pmFriday 1:00pm - 2:30pmFor more information, please call. \nCounty or Counties Served: Coos",
    "description": null,
    "requirements": null,
    "scraped_at": "2025-11-03T22:18:52.500437",
    "latitude": 44.5987825,
    "longitude": -71.5119276,
    "geocoded_address": "11, State Street, Groveton, Northumberland, Co\u00f6s County, New Hampshire, 03582, United States of America"
  },
  {
    "url": "https://www.foodpantries.org/li/groveton_food_pantry_03582",
    "name": "Saint Francis Xavier Church - Food Pantry",
    "address": "11 State Street",
    "city": "Groveton",
    "state": "NH",
    "zip": "03582",
    "phone": "(603) 636-1047",
    "fax": null,
    "email": null,
    "website": "http://www.freefood.org/",
    "hours": "Wednesday 9:30am - 12pmFor more information, please call. \nCounty or Counties Served: Coos",
    "description": null,
    "requirements": null,
    "scraped_at": "2025-11-03T22:18:54.719755",
    "latitude": 44.5987825,
    "longitude": -71.5119276,
    "geocoded_address": "11, State Street, Groveton, Northumberland, Co\u00f6s County, New Hampshire, 03582, United States of America"
  },
  {
    "url": "https://www.foodpantries.org/li/poultney_emergency_food_shelf_the_stonebridge_05764",
    "name": "Poultney Emergency Food Shelf - The Stonebridge",
    "address": "66 Beaman Street",
    "city": "Poultney",
    "state": "VT",
    "zip": "05764",
    "phone": "(802) 287-9558",
    "fax": null,
    "email": null,
    "website": "http://www.freefood.org/",
    "hours": "Tuesday 3pm -5pmBy appointment or in an emergency\r\n                                    \r\n                                    County or Counties Served: Rutland",
    "description": null,
    "requirements": null,
    "scraped_at": "2025-11-03T22:18:56.800691",
    "latitude": 43.517907,
    "longitude": -73.2324744,
    "geocoded_address": "66, Beaman Street, Poultney Main Street Historic District, Poultney Village, Poultney, Rutland County, Vermont, 05764, United States of America"
  },
  {
    "url": "https://www.foodpantries.org/li/granville_ecumenical_food_pantry_12832",
    "name": "Granville Ecumenical Food Pantry",
    "address": "3 Morrison Ave",
    "city": "Granville",
    "state": "NY",
    "zip": "12832",
    "phone": "(518) 642-1262",
    "fax": null,
    "email": null,
    "website": "http://www.freefood.org/",
    "hours": "Monday - Friday 9:00am - 3:30pmFor more information, please call. \nCounty or Counties Served: Washington",
    "description": null,
    "requirements": null,
    "scraped_at": "2025-11-03T22:19:00.797530",
    "latitude": 43.4046163,
    "longitude": -73.2644692,
    "geocoded_address": "All Saints Roman Catholic Church, 3, Morrison Avenue, Village of Granville, Town of Granville, Washington County, New York, 12832, United States of America"
  },
  {
    "url": "https://www.foodpantries.org/li/charlotte_food_shelf_and_assistance_charlotte_congregation_05445",
    "name": "Charlotte Food Shelf and Assistance - Charlotte Congregation",
    "address": "421 Church Hill Road",
    "city": "Charlotte",
    "state": "VT",
    "zip": "05445",
    "phone": "(802) 425-3252",
    "fax": null,
    "email": null,
    "website": "http://www.freefood.org/",
    "hours": "2nd and 4th Thursday: 7:30am-9am\r\n                                    \r\n                                                                        \n* Important: Please call the food pantries to confirm that the hours have not changed. We do our best to provide full information and details, but food pantries often change their hours without notifying us. We do not want you to waste your time visiting a pantry that is not open.",
    "description": null,
    "requirements": null,
    "scraped_at": "2025-11-03T22:19:04.560790",
    "latitude": 44.3147774,
    "longitude": -73.2401352,
    "geocoded_address": "421, Church Hill Road, Charlotte Center Historic District, Charlotte, Chittenden County, Vermont, 05445, United States of America"
  },
  {
    "url": "https://www.foodpantries.org/li/shelburne_ecumenicial_food_shelf_005482",
    "name": "Shelburne Ecumenicial Food Shelf",
    "address": "5420 Shelburne Road",
    "city": "Shelburne",
    "state": "VT",
    "zip": "00548",
    "phone": null,
    "fax": null,
    "email": null,
    "website": "http://www.freefood.org/",
    "hours": "Third Wednesday of the month: 9am-10am\r\n                                    \r\n                                                                        \n* Important: Please call the food pantries to confirm that the hours have not changed. We do our best to provide full information and details, but food pantries often change their hours without notifying us. We do not want you to waste your time visiting a pantry that is not open.",
    "description": null,
    "requirements": null,
    "scraped_at": "2025-11-03T22:19:07.161010",
    "latitude": 44.3786378,
    "longitude": -73.2290538,
    "geocoded_address": "5420, Shelburne Road, Shelburne Village Historic District, Shelburne, Chittenden County, Vermont, 05482, United States of America"
  },
  {
    "url": "https://www.foodpantries.org/li/shelburne-food-shelf",
    "name": "Shelburne Food Shelf",
    "address": "5420 Shelburne Rd",
    "city": "Shelburne",
    "state": "VT",
    "zip": "05482",
    "phone": "(802) 662-3313",
    "fax": null,
    "email": null,
    "website": "http://www.freefood.org/",
    "hours": "The second and fourth Tuesday of every month 9:00 am - 11:00 am The second and fourth Thursday of every month5:00 pm - 7:00 pmFor more information, please call. \nVolunteering Information:http://www.shelburnefoodshelf.org/volunteer-.html \nCounty or Counties Served: Chittenden",
    "description": null,
    "requirements": null,
    "scraped_at": "2025-11-03T22:19:10.185185",
    "latitude": 44.3786378,
    "longitude": -73.2290538,
    "geocoded_address": "5420, Shelburne Road, Shelburne Village Historic District, Shelburne, Chittenden County, Vermont, 05482, United States of America"
  },
  {
    "url": "https://www.foodpantries.org/li/vt_05403_south-burlington-food-shelf",
    "name": "South Burlington Food Shelf",
    "address": "356 Dorset Street",
    "city": "South Burlington",
    "state": "VT",
    "zip": "05403",
    "phone": "(802) 858-5267",
    "fax": null,
    "email": null,
    "website": "http://www.freefood.org/",
    "hours": "Thursday 9:30  11:30 AM Donations Only:Thursday 4:30 pm - 6:30 pmFriday 8:00 am - 10:00 amSaturday 8:00 am  10:00 amFor more information, please call. \nVolunteering Information:https://www.southburlingtonfoodshelf.org/volunteer \nCounty or Counties Served: Chittenden",
    "description": null,
    "requirements": null,
    "scraped_at": "2025-11-03T22:19:12.623049",
    "latitude": 44.4593851,
    "longitude": -73.1794814,
    "geocoded_address": "South Burlington Food Shelf, 356, Dorset Street, South Burlington, Chittenden County, Vermont, 05403, United States of America"
  },
  {
    "url": "https://www.foodpantries.org/li/vt_05495_williston-community-food-shelf",
    "name": "Williston Community Food Shelf",
    "address": "401 Cornerstone Dr.",
    "city": "Williston",
    "state": "VT",
    "zip": "05495",
    "phone": "(802) 735-6303",
    "fax": null,
    "email": null,
    "website": "http://www.freefood.org/",
    "hours": "Monday through Thursday from 9:00am - 5:30pm. How to make an Appointment: Call (802) 878-6982 x1 or send them an email or click \"contact us\" on their website to set u\nGo To Details Page For More Information",
    "description": null,
    "requirements": null,
    "scraped_at": "2025-11-03T22:19:14.807081",
    "latitude": 44.4468148,
    "longitude": -73.1022293,
    "geocoded_address": "Cornerstone Drive, Taft Corners, Williston, Chittenden County, Vermont, 15495, United States of America"
  },
  {
    "url": "https://www.foodpantries.org/li/vt-websterville_baptist_church",
    "name": "Websterville Baptist Church",
    "address": "143 Church Hill Road",
    "city": "Websterville",
    "state": "VT",
    "zip": "05678",
    "phone": null,
    "fax": null,
    "email": null,
    "website": "http://www.wbcsvt.org/",
    "hours": "Tuesday and Thursday 7:30am - 10:30am For more information, please call. \nGo To Details Page For More Information",
    "description": null,
    "requirements": "Must sign in and show identification that proves current residence Pantry Hours:\nGo To Details Page For More Information",
    "scraped_at": "2025-11-03T22:19:17.382645",
    "latitude": 44.1529583,
    "longitude": -72.4742934,
    "geocoded_address": "Websterville Baptist Christian School, 143, Church Hill Road, Barre Town, Washington County, Vermont, 05678, United States of America"
  },
  {
    "url": "https://www.foodpantries.org/li/websterville_food_shelf_websterville_baptist_church_05678",
    "name": "Websterville Food Shelf - Websterville Baptist Church",
    "address": "143 Church Hill Road",
    "city": "Websterville",
    "state": "VT",
    "zip": "05678",
    "phone": "(802) 479-0141",
    "fax": "(802) 476-7834",
    "email": null,
    "website": "http://www.freefood.org/",
    "hours": "Tuesday and Thursday 7:30am - 10:30am For more information, please call. \nGo To Details Page For More Information",
    "description": null,
    "requirements": "Must sign in and show identification that proves current residence Pantry Hours:\nGo To Details Page For More Information",
    "scraped_at": "2025-11-03T22:19:20.747741",
    "latitude": 44.1529583,
    "longitude": -72.4742934,
    "geocoded_address": "Websterville Baptist Christian School, 143, Church Hill Road, Barre Town, Washington County, Vermont, 05678, United States of America"
  },
  {
    "url": "https://www.foodpantries.org/li/neighbors-pantry",
    "name": "Neighbors Pantry",
    "address": "2051 North Main Street",
    "city": "Londonderry",
    "state": "VT",
    "zip": "05148",
    "phone": "(802) 824-6453",
    "fax": null,
    "email": null,
    "website": "http://www.freefood.org/",
    "hours": "The 3rd Friday of each month 1:00pm - 4:00pmOperated by the Second Congregational Church in Londonderry, VT. For more information, please call. \nCounty or Counties Served: Windham",
    "description": null,
    "requirements": null,
    "scraped_at": "2025-11-03T22:19:23.017049",
    "latitude": 43.2290353,
    "longitude": -72.8122265,
    "geocoded_address": "Second Congregational Church, 2051, North Main Street, Londonderry, Windham County, Vermont, 05148, United States of America"
  },
  {
    "url": "https://www.foodpantries.org/li/colchester-community-food-shelf",
    "name": "Colchester Community Food Shelf",
    "address": "245 Main Street",
    "city": "Colchester",
    "state": "VT",
    "zip": "05446",
    "phone": "(802) 879-2444",
    "fax": null,
    "email": null,
    "website": "http://www.freefood.org/",
    "hours": "Wednesdays ONLY from 12:00pm to 6:00pmRequirements and Eligibility:For Colchester residents onlyProof of residence with first visitApproved forms of proof of residency:Utility bill with current address, lease agreement, mortgage paperwork, NOT A Driver's license.Clients may shop once per month.\nCounty or Counties Served: Chittenden",
    "description": null,
    "requirements": null,
    "scraped_at": "2025-11-03T22:19:25.253019",
    "latitude": 44.5487921,
    "longitude": -73.16075,
    "geocoded_address": "245, Main Street, Colchester, Chittenden County, Vermont, 05446, United States of America"
  },
  {
    "url": "https://www.foodpantries.org/li/vt_essex-junction_essex-chips-food-pantry",
    "name": "Essex CHIPS Food Pantry",
    "address": "2 Lincoln Street",
    "city": "Essex Junction",
    "state": "VT",
    "zip": "05452",
    "phone": "(802) 878-6982",
    "fax": null,
    "email": null,
    "website": "http://www.freefood.org/",
    "hours": "Monday through Thursday from 9:00am - 5:30pm.How to make an Appointment:Call (802) 878-6982 x1 or send them an email or click \"contact us\" on their website to set up an appointment.Additional Services:Clothing, toiletries, and school supplies.\nCounty or Counties Served: Chittenden",
    "description": null,
    "requirements": null,
    "scraped_at": "2025-11-03T22:19:27.658694",
    "latitude": 44.4909351,
    "longitude": -73.1114141,
    "geocoded_address": "2, Lincoln Street, Essex Junction, Chittenden County, Vermont, 05452, United States of America"
  },
  {
    "url": "https://www.foodpantries.org/li/winooski_emergency_food_shelf_05404",
    "name": "Winooski Emergency Food Shelf",
    "address": "24 West Allen Street",
    "city": "Winooski",
    "state": "VT",
    "zip": "05404",
    "phone": "(802) 655-7371",
    "fax": null,
    "email": null,
    "website": "http://www.freefood.org/",
    "hours": "2nd and 4th Saturday of the month\r\n9:30am - 12:00pm\r\n2nd and 4th Wednesday\r\n2:30am - 4:00pm\n\r\nFor more information, please call. \nCounty or Counties Served: Chittenden",
    "description": null,
    "requirements": null,
    "scraped_at": "2025-11-03T22:19:30.082376",
    "latitude": 44.4912364,
    "longitude": -73.1874251,
    "geocoded_address": "Methodist Episcopal Church of Winooski, 24, West Allen Street, Winooski Falls Mill District, Winooski, Chittenden County, Vermont, 05404, United States of America"
  },
  {
    "url": "https://www.foodpantries.org/li/heavenly_food_pantry_005452",
    "name": "The Heavenly Food Pantry at the First Congregational Church",
    "address": "1 Church Street",
    "city": "Essex Junction",
    "state": "VT",
    "zip": "05452",
    "phone": "(802) 878-5745",
    "fax": "(802) 872-8236",
    "email": null,
    "website": "http://www.fccej.org",
    "hours": "2nd Monday of the month \u2013 5:30-7:30 p.m.4th Thursday of the month \u2013 3:00-6:00 p.m. (3rd Thursday for November and December)Requirements:ID for each member of the household and utility billFor more information, please call. \nVolunteering Information:https://www.fccej.org/v5/serving-others/heavenly-food-pantry/#volunteer \nCounty or Counties Served: Chittenden",
    "description": null,
    "requirements": "ID for each member of the household and utility billFor more information, please call. \nVolunteering Information:https://www.fccej.org/v5/serving-others/heavenly-food-pantry/#volunteer \nCounty or Counties Served: Chittenden",
    "scraped_at": "2025-11-03T22:19:32.291357",
    "latitude": 44.4917768,
    "longitude": -73.1081308,
    "geocoded_address": "First Congregational Church, 1, Church Street, Essex Junction, Chittenden County, Vermont, 05452, United States of America"
  },
  {
    "url": "https://www.foodpantries.org/li/aunt-dots-place",
    "name": "Aunt Dot's Place",
    "address": "51 Center Road",
    "city": "Essex Junction",
    "state": "VT",
    "zip": "05452",
    "phone": "(802) 857-8208",
    "fax": null,
    "email": null,
    "website": "http://www.freefood.org/",
    "hours": "Saturday9:00am - 11:00am  We will extend our hours to include Tuesdays from 6:00-7:30 PM and Thursdays from 9:00-11:00 AM soon.  We are open to residents of Essex Junction and Town, Westford, Jericho and Underhill.\r\n                                    \r\n                                    County or Counties Served: Chittenden",
    "description": null,
    "requirements": null,
    "scraped_at": "2025-11-03T22:19:35.189974",
    "latitude": 44.4906817,
    "longitude": -73.11136,
    "geocoded_address": "Essex Junction, Chittenden County, Vermont, United States of America",
    "note": "Geocoded to city center (exact address not found)"
  },
  {
    "url": "https://www.foodpantries.org/li/danby_food_shelf_05739",
    "name": "Danby Food Shelf",
    "address": "130 Brook Road",
    "city": "Danby",
    "state": "VT",
    "zip": "05739",
    "phone": "(802) 293-5136",
    "fax": null,
    "email": null,
    "website": "http://www.freefood.org/",
    "hours": "Mondays through Thursdays 9am to 12pm and 1pm -4pm\r\n                                    \r\n                                                                        \n* Important: Please call the food pantries to confirm that the hours have not changed. We do our best to provide full information and details, but food pantries often change their hours without notifying us. We do not want you to waste your time visiting a pantry that is not open.",
    "description": null,
    "requirements": null,
    "scraped_at": "2025-11-03T22:19:39.068649",
    "latitude": 43.3466971,
    "longitude": -72.9990838,
    "geocoded_address": "130, Brook Road, Danby Village Historic District, Danby, Rutland County, Vermont, 05739, United States of America"
  },
  {
    "url": "https://www.foodpantries.org/li/pawlet_community_church_05761",
    "name": "Pawlet Community Church",
    "address": "38 Route 133",
    "city": "Pawlet",
    "state": "VT",
    "zip": "05761",
    "phone": "(802) 325-3022",
    "fax": null,
    "email": null,
    "website": "http://www.freefood.org/",
    "hours": "Fourth Friday: 9am-11am (January through October), Third Friday: 9am-11am (November and December)\r\n                                    \r\n                                                                        \n* Important: Please call the food pantries to confirm that the hours have not changed. We do our best to provide full information and details, but food pantries often change their hours without notifying us. We do not want you to waste your time visiting a pantry that is not open.",
    "description": null,
    "requirements": null,
    "scraped_at": "2025-11-03T22:19:41.436054",
    "latitude": 43.3466905,
    "longitude": -73.1765152,
    "geocoded_address": "Pawlet Community Church, 38, Vermont Route 133, Pawlet, Rutland County, Vermont, 05761, United States of America"
  },
  {
    "url": "https://www.foodpantries.org/li/lyndon_area_emergency_food_shelf_saint_peters_mission_05851",
    "name": "Lyndon Area Emergency Food Shelf - Saint Peter's Mission",
    "address": "51 Elm Street",
    "city": "Lyndonville",
    "state": "VT",
    "zip": "05851",
    "phone": "(802) 626-5705",
    "fax": null,
    "email": null,
    "website": "http://www.freefood.org/",
    "hours": "Wednesdays 1:30pm -4pm\r\n                                    \r\n                                                                        \n* Important: Please call the food pantries to confirm that the hours have not changed. We do our best to provide full information and details, but food pantries often change their hours without notifying us. We do not want you to waste your time visiting a pantry that is not open.",
    "description": null,
    "requirements": null,
    "scraped_at": "2025-11-03T22:19:44.077828",
    "latitude": 44.5347421,
    "longitude": -72.0046032,
    "geocoded_address": "51, Elm Street, Lyndon Center, Lyndonville, Lyndon, Caledonia County, Vermont, 05850, United States of America"
  },
  {
    "url": "https://www.foodpantries.org/li/helping_other_people_everyday_05851",
    "name": "Helping Other People Everyday - HOPE",
    "address": "101 Depot Street",
    "city": "Lyndonville",
    "state": "VT",
    "zip": "05851",
    "phone": "(802) 626-3228",
    "fax": null,
    "email": null,
    "website": "http://www.freefood.org/",
    "hours": "Wednesdays 1:30pm -4pm\nGo To Details Page For More Information",
    "description": null,
    "requirements": null,
    "scraped_at": "2025-11-03T22:19:46.502363",
    "latitude": 44.5349508,
    "longitude": -72.0031394,
    "geocoded_address": "101, Depot Street, Lyndon Center, Lyndonville, Lyndon, Caledonia County, Vermont, 05850, United States of America"
  },
  {
    "url": "https://www.foodpantries.org/li/sheffield_food_pantry_05866",
    "name": "Sheffield Food Pantry",
    "address": "Route 122",
    "city": "Sheffield",
    "state": "VT",
    "zip": "05866",
    "phone": "(802) 745-7491",
    "fax": null,
    "email": null,
    "website": "http://www.freefood.org/",
    "hours": "First Monday of the month: 9:30am-2pm\r\n                                    \r\n                                                                        \n* Important: Please call the food pantries to confirm that the hours have not changed. We do our best to provide full information and details, but food pantries often change their hours without notifying us. We do not want you to waste your time visiting a pantry that is not open.",
    "description": null,
    "requirements": null,
    "scraped_at": "2025-11-03T22:19:48.653075",
    "latitude": 44.5961771,
    "longitude": -72.1035401,
    "geocoded_address": "Vermont Route 122, Sheffield, Caledonia County, Vermont, 05866, United States of America"
  },
  {
    "url": "https://www.foodpantries.org/li/duxbury_elfs_shelf_05676",
    "name": "Duxbury Elf's Shelf at Green Mountain Community Alliance church",
    "address": "4987 VT Route 100",
    "city": "Duxbury",
    "state": "VT",
    "zip": "05676",
    "phone": "(802) 371-9906",
    "fax": null,
    "email": null,
    "website": "http://www.freefood.org/",
    "hours": "Friday 7:00am - 10:00amLocation:Basement of the Green Mountain Community Alliance church .For more information, please call.\nCounty or Counties Served: Washington",
    "description": null,
    "requirements": null,
    "scraped_at": "2025-11-03T22:19:52.488657",
    "latitude": 44.3143775,
    "longitude": -72.7634351,
    "geocoded_address": "4987, Vermont Route 100, South Duxbury, Duxbury, Washington County, Vermont, 05676, United States of America"
  },
  {
    "url": "https://www.foodpantries.org/li/food-works-at-two-rivers-center",
    "name": "Food Works at Two Rivers Center",
    "address": "64 Main Street",
    "city": "Montpelier",
    "state": "VT",
    "zip": "05602",
    "phone": null,
    "fax": null,
    "email": null,
    "website": "http://www.freefood.org/",
    "hours": "Tuesday, Wednesday, Thursday: 9am-2pm\nGo To Details Page For More Information",
    "description": null,
    "requirements": null,
    "scraped_at": "2025-11-03T22:19:56.382371",
    "latitude": 44.2596952,
    "longitude": -72.5760835,
    "geocoded_address": "64, Main Street, Montpelier Historic District, Montpelier, Washington County, Vermont, 05602, United States of America"
  },
  {
    "url": "https://www.foodpantries.org/li/christ_church_of_montpelier_05602",
    "name": "Christ Church of Montpelier",
    "address": "64 State Street",
    "city": "Montpelier",
    "state": "VT",
    "zip": "05602",
    "phone": null,
    "fax": null,
    "email": null,
    "website": "http://www.freefood.org/",
    "hours": "Tuesday, Wednesday, Thursday: 9am-2pm\r\n                                    \r\n                                                                        \n* Important: Please call the food pantries to confirm that the hours have not changed. We do our best to provide full information and details, but food pantries often change their hours without notifying us. We do not want you to waste your time visiting a pantry that is not open.",
    "description": null,
    "requirements": null,
    "scraped_at": "2025-11-03T22:19:58.845635",
    "latitude": 44.2601926,
    "longitude": -72.5776856,
    "geocoded_address": "Christ Episcopal Church, 64, State Street, Montpelier Historic District, Montpelier, Washington County, Vermont, 05602, United States of America"
  },
  {
    "url": "https://www.foodpantries.org/li/essex_centerjericho-underhill_ecumenical_ministries_05465",
    "name": "Essex Jericho Underhill Food Shelf",
    "address": "273 Route 15",
    "city": "Jericho",
    "state": "VT",
    "zip": "05465",
    "phone": "(802) 899-3932",
    "fax": null,
    "email": null,
    "website": "http://www.freefood.org/",
    "hours": "The 3rd Saturday of the month9:00 am-11:00 amFor more information, please call. Alternate number 802-878-5997\nCounty or Counties Served: Chittenden",
    "description": null,
    "requirements": null,
    "scraped_at": "2025-11-03T22:20:00.821322",
    "latitude": 44.5121621,
    "longitude": -72.9575802,
    "geocoded_address": "Good Shepherd Lutheran Church, 273, Vermont Route 15, Jericho, Chittenden County, Vermont, 05465, United States of America"
  },
  {
    "url": "https://www.foodpantries.org/li/hague_community_center_12836",
    "name": "Hague Community Center",
    "address": "9793 Graphite Mountain Road",
    "city": "Hague",
    "state": "NY",
    "zip": "12836",
    "phone": "(518) 543-6161",
    "fax": null,
    "email": null,
    "website": "http://www.freefood.org/",
    "hours": "1st and 3rd Wednesday of the month1:00pm - 2:00pmOr by appointmentRequirements: ID. Serves residents of Hague in Warren County. For more information, please call. \nCounty or Counties Served: Warren",
    "description": null,
    "requirements": "ID. Serves residents of Hague in Warren County. For more information, please call. \nCounty or Counties Served: Warren",
    "scraped_at": "2025-11-03T22:20:03.835818",
    "latitude": 43.7489366,
    "longitude": -73.5017738,
    "geocoded_address": "Town of Hague, 9793, Graphite Mountain Road, Town of Hague, Warren County, New York, 12836, United States of America"
  },
  {
    "url": "https://www.foodpantries.org/li/cornerstone_bible_church_food_pantry_12827",
    "name": "Cornerstone Bible Church Food Pantry",
    "address": "59 County Route 16",
    "city": "Fort Ann",
    "state": "NY",
    "zip": "12827",
    "phone": "(518) 639-4009",
    "fax": null,
    "email": null,
    "website": "http://www.freefood.org/",
    "hours": "3rd Saturday of the month9:00pm - 11:00pmFor more information, please call. \nCounty or Counties Served: Washington",
    "description": null,
    "requirements": null,
    "scraped_at": "2025-11-03T22:20:05.910571",
    "latitude": 43.4143073,
    "longitude": -73.4879808,
    "geocoded_address": "Town of Fort Ann, Washington County, New York, United States of America",
    "note": "Geocoded to city center (exact address not found)"
  },
  {
    "url": "https://www.foodpantries.org/li/westford_food_shelf_05494",
    "name": "Westford Food Shelf",
    "address": "1 White Church Lane",
    "city": "Westford",
    "state": "VT",
    "zip": "05494",
    "phone": null,
    "fax": null,
    "email": null,
    "website": "http://www.freefood.org/",
    "hours": "Third Saturday of the month: 8am-10am\r\n                                    \r\n                                                                        \n* Important: Please call the food pantries to confirm that the hours have not changed. We do our best to provide full information and details, but food pantries often change their hours without notifying us. We do not want you to waste your time visiting a pantry that is not open.",
    "description": null,
    "requirements": null,
    "scraped_at": "2025-11-03T22:20:10.127949",
    "latitude": 44.6112299,
    "longitude": -73.0128672,
    "geocoded_address": "White Church Lane, Westford, Chittenden County, Vermont, 05494, United States of America"
  },
  {
    "url": "https://www.foodpantries.org/li/saint_anns_church_05468",
    "name": "Saint Ann's Church",
    "address": "41 Main Street",
    "city": "Milton",
    "state": "VT",
    "zip": "05468",
    "phone": "(802) 893-2487",
    "fax": null,
    "email": null,
    "website": "http://www.freefood.org/",
    "hours": "Monday-Friday: 10am-2:30pm\r\n                                    \r\n                                    County or Counties Served: Chittenden",
    "description": null,
    "requirements": null,
    "scraped_at": "2025-11-03T22:20:16.665982",
    "latitude": 44.638931,
    "longitude": -73.1086822,
    "geocoded_address": "Saint Ann Church, 41, Main Street, Milton, Chittenden County, Vermont, 05468, United States of America"
  },
  {
    "url": "https://www.foodpantries.org/li/milton_family_community_center_05468",
    "name": "Milton Family Community Center Food Pantry",
    "address": "23 Villemaire Lane",
    "city": "Milton",
    "state": "VT",
    "zip": "05468",
    "phone": "(802) 893-1457",
    "fax": null,
    "email": null,
    "website": "http://www.freefood.org/",
    "hours": "Monday - Friday 9:30am - 2:00pmFood Pick up arrangements:Call 802-893-1457 to make special pick up arrangements if needed.Additional Programs Available:Unity CenterEmployment OpportunitiesEarly Childcare ProgramsMilton After School Kids (MASK)Home VisitsPlay GroupSupport GroupsLearning TogetherConcrete SupportsWelcome Baby\nCounty or Counties Served: Chittenden",
    "description": null,
    "requirements": null,
    "scraped_at": "2025-11-03T22:20:20.934670",
    "latitude": 44.6303955,
    "longitude": -73.1159608,
    "geocoded_address": "Milton, Chittenden County, Vermont, 05468, United States of America",
    "note": "Geocoded to city center (exact address not found)"
  },
  {
    "url": "https://www.foodpantries.org/li/jamaicawardsboro_community_food_pantry_05355",
    "name": "Jamaica/Wardsboro Community Food Pantry",
    "address": "134 Main Street",
    "city": "Wardsboro",
    "state": "VT",
    "zip": "05355",
    "phone": "(802) 874-7234",
    "fax": null,
    "email": null,
    "website": "http://www.freefood.org/",
    "hours": "Open 6:30 - 8 PM",
    "description": null,
    "requirements": null,
    "scraped_at": "2025-11-03T22:20:24.409311",
    "latitude": 43.0426018,
    "longitude": -72.7898064,
    "geocoded_address": "134, Main Street, Wardsboro, Windham County, Vermont, 05355, United States of America"
  },
  {
    "url": "https://www.foodpantries.org/li/vt-bradleys_community_food_shelf",
    "name": "Bradley''s Community Food Shelf",
    "address": "197 Harrel Street",
    "city": "Morrisville",
    "state": "VT",
    "zip": "05661",
    "phone": "(802) 888-7993",
    "fax": null,
    "email": null,
    "website": "http://www.freefood.org/",
    "hours": "Monday-Friday: 7:30am-2pm\nGo To Details Page For More Information",
    "description": null,
    "requirements": null,
    "scraped_at": "2025-11-03T22:20:26.685915",
    "latitude": 44.5693361,
    "longitude": -72.5933264,
    "geocoded_address": "197, Harrel Street, Morristown, Lamoille County, Vermont, 05661, United States of America"
  },
  {
    "url": "https://www.foodpantries.org/li/lamoille_community_food_share_05661",
    "name": "Lamoille Community Food Share",
    "address": "197 Harrell Street",
    "city": "Morrisville",
    "state": "VT",
    "zip": "05661",
    "phone": "(802) 888-6550",
    "fax": null,
    "email": null,
    "website": "http://www.freefood.org/",
    "hours": "Monday-Friday 9:00am-11:30am Saturday:9:30am - 11:00am\r\n                                    \r\n                                    County or Counties Served: Lamoille",
    "description": null,
    "requirements": null,
    "scraped_at": "2025-11-03T22:20:28.890755",
    "latitude": 44.5615499,
    "longitude": -72.5982955,
    "geocoded_address": "Morristown, Lamoille County, Vermont, 05661, United States of America",
    "note": "Geocoded to city center (exact address not found)"
  },
  {
    "url": "https://www.foodpantries.org/li/lamoille_community_connections_05661",
    "name": "Lamoille Community Connections",
    "address": "72 Harrel Street",
    "city": "Morrisville",
    "state": "VT",
    "zip": "05661",
    "phone": "(802) 888-5026",
    "fax": null,
    "email": null,
    "website": "http://www.freefood.org/",
    "hours": "Monday-Friday: 7:30am-2pm\r\n                                    \r\n                                                                        \n* Important: Please call the food pantries to confirm that the hours have not changed. We do our best to provide full information and details, but food pantries often change their hours without notifying us. We do not want you to waste your time visiting a pantry that is not open.",
    "description": null,
    "requirements": null,
    "scraped_at": "2025-11-03T22:20:32.122951",
    "latitude": 44.5682587,
    "longitude": -72.5958865,
    "geocoded_address": "72, Harrel Street, Morristown, Lamoille County, Vermont, 05661, United States of America"
  },
  {
    "url": "https://www.foodpantries.org/li/valley_bible_church_05001",
    "name": "Valley Bible Church",
    "address": "851 Fairview Terrace",
    "city": "White River Junction",
    "state": "VT",
    "zip": "05001",
    "phone": null,
    "fax": null,
    "email": null,
    "website": "http://www.freefood.org/",
    "hours": "First and third Thursday: 1pm -3pm and Second and fourth Thursday: 6pm -7pm\r\n                                    \r\n                                                                        \n* Important: Please call the food pantries to confirm that the hours have not changed. We do our best to provide full information and details, but food pantries often change their hours without notifying us. We do not want you to waste your time visiting a pantry that is not open.",
    "description": null,
    "requirements": null,
    "scraped_at": "2025-11-03T22:20:34.424322",
    "latitude": 43.6461576,
    "longitude": -72.3307832,
    "geocoded_address": "Valley Bible Church, 851, Fairview Terrace, White River Junction, Hartford, Windsor County, Vermont, 05001, United States of America"
  },
  {
    "url": "https://www.foodpantries.org/li/vt_05001_sharing-caring-food-program",
    "name": "Sharing & Caring Food Program",
    "address": "106 Gates Street",
    "city": "White River Jct.",
    "state": "VT",
    "zip": "05001",
    "phone": "(603) 327-5075",
    "fax": null,
    "email": null,
    "website": "http://www.freefood.org/",
    "hours": "First and third Thursday: 1pm -3pm and Second and fourth Thursday: 6pm -7pm\nGo To Details Page For More Information",
    "description": null,
    "requirements": null,
    "scraped_at": "2025-11-03T22:20:37.044987"
  },
  {
    "url": "https://www.foodpantries.org/li/upper_valley_haven_05001",
    "name": "Upper Valley Haven",
    "address": "713 Hartford Avenue",
    "city": "White River Junction",
    "state": "VT",
    "zip": "05001",
    "phone": "(802) 295-6500",
    "fax": null,
    "email": null,
    "website": "http://www.freefood.org/",
    "hours": "Monday-Friday: 8:30am-4pm\r\n                                    \r\n                                                                        \n* Important: Please call the food pantries to confirm that the hours have not changed. We do our best to provide full information and details, but food pantries often change their hours without notifying us. We do not want you to waste your time visiting a pantry that is not open.",
    "description": null,
    "requirements": null,
    "scraped_at": "2025-11-03T22:20:40.926024",
    "latitude": 43.6584575,
    "longitude": -72.314282,
    "geocoded_address": "Upper Valley Haven, 713, Hartford Avenue, White River Junction, Hartford, Windsor County, Vermont, 05001, United States of America"
  },
  {
    "url": "https://www.foodpantries.org/li/upper_valley_haven_005001",
    "name": "Upper Valley Haven",
    "address": "745 Hartford Avenue",
    "city": "White River Jct",
    "state": "VT",
    "zip": "00500",
    "phone": "(802) 295-6500",
    "fax": null,
    "email": null,
    "website": "http://www.freefood.org/",
    "hours": "Mondays through Fridays 8 am - 4 pm\r\n                                    \r\n                                                                        \n* Important: Please call the food pantries to confirm that the hours have not changed. We do our best to provide full information and details, but food pantries often change their hours without notifying us. We do not want you to waste your time visiting a pantry that is not open.",
    "description": null,
    "requirements": null,
    "scraped_at": "2025-11-03T22:20:43.274046"
  },
  {
    "url": "https://www.foodpantries.org/li/listen_community_services_03766",
    "name": "LISTEN Community Services",
    "address": "60 Hanover Street",
    "city": "Lebanon",
    "state": "NH",
    "zip": "03766",
    "phone": "(603) 448-4553",
    "fax": null,
    "email": null,
    "website": "http://www.listencs.org",
    "hours": "Monday, Wednesday, Friday 10:00am - 12:30pmTuesday and Thursday 1:00pm - 3:30pmFor more information, please call. \nCounty or Counties Served: Grafton",
    "description": null,
    "requirements": null,
    "scraped_at": "2025-11-03T22:20:46.620774",
    "latitude": 43.6445819,
    "longitude": -72.2542168,
    "geocoded_address": "60, Hanover Street, Lebanon, Grafton County, New Hampshire, 03766, United States of America"
  },
  {
    "url": "https://www.foodpantries.org/li/wellspring_food_pantry_03784",
    "name": "Wellspring Food Pantry",
    "address": "407 North Main Street",
    "city": "West Lebanon",
    "state": "NH",
    "zip": "03784",
    "phone": "(603) 643-2700",
    "fax": null,
    "email": null,
    "website": "http://www.freefood.org/",
    "hours": "Saturday9:00pm - 10:00pmFor more information, please call. \nCounty or Counties Served: Grafton",
    "description": null,
    "requirements": null,
    "scraped_at": "2025-11-03T22:20:49.078555",
    "latitude": 43.6862923,
    "longitude": -72.2937199,
    "geocoded_address": "Wellspring Worship Center, 407, North Main Street, East Wilder, Lebanon, Grafton County, New Hampshire, 03784, United States of America"
  },
  {
    "url": "https://www.foodpantries.org/li/nh_lebanon_first-baptist-church-food-pantry",
    "name": "Lebanon First Baptist Church Food Pantry",
    "address": "11 School St.",
    "city": "Lebanon",
    "state": "NH",
    "zip": "03766",
    "phone": "(603) 448-5618",
    "fax": null,
    "email": null,
    "website": "http://www.freefood.org/",
    "hours": "By appointment   For more information, please call.  \nGo To Details Page For More Information",
    "description": null,
    "requirements": null,
    "scraped_at": "2025-11-03T22:20:52.022756",
    "latitude": 43.641454,
    "longitude": -72.250141,
    "geocoded_address": "11, School Street, Lebanon, Grafton County, New Hampshire, 03766, United States of America"
  },
  {
    "url": "https://www.foodpantries.org/li/richmond_food_shelf_and_thrift_store_05477",
    "name": "Richmond Food Shelf and Thrift Store",
    "address": "58 Bridge Street",
    "city": "Richmond",
    "state": "VT",
    "zip": "05477",
    "phone": "(802) 578-4283",
    "fax": null,
    "email": null,
    "website": "http://www.freefood.org/",
    "hours": "Tuesday \r\n 10:00am - 4:00pm\r\nWednesday\r\n1:00pm - 6:00pm\r\n Thursday\r\n1:00am - 6:00pm \r\nFriday\r\n Saturday\r\n 10:00am - 1:00pm\n\r\nFor more information, please call. \nCounty or Counties Served: Chittenden",
    "description": null,
    "requirements": null,
    "scraped_at": "2025-11-03T22:20:54.333153",
    "latitude": 44.4048703,
    "longitude": -72.9934593,
    "geocoded_address": "58, Bridge Street, Richmond, Chittenden County, Vermont, 05477, United States of America"
  },
  {
    "url": "https://www.foodpantries.org/li/orleans_federated_church_05860",
    "name": "Orleans Community Food Shelf at Orleans Federated Church",
    "address": "24 School Street",
    "city": "Orleans",
    "state": "VT",
    "zip": "05860",
    "phone": "(802) 754-6486",
    "fax": null,
    "email": null,
    "website": "http://www.freefood.org/",
    "hours": "EACH MONDAY from 8:30-10:30 amAdditional Food Service:Emergency food assistance is available through their Blessing Box, 24/7 located outside the church's main doors.Notes:Prepacked bag distribution in the parking lotAll are welcomeNo paperwork or verification required.\nCounty or Counties Served: Orleans",
    "description": null,
    "requirements": null,
    "scraped_at": "2025-11-03T22:20:56.819930",
    "latitude": 44.7492985,
    "longitude": -72.1781595,
    "geocoded_address": "24, School Street, Crystal Lake Falls Historic District, Barton, Orleans County, Vermont, 05822, United States of America"
  },
  {
    "url": "https://www.foodpantries.org/li/gilman__lunenburg_food_shelf_05906",
    "name": "Gilman / Lunenburg Food Shelf",
    "address": "9 West Main Street",
    "city": "Lunenburg",
    "state": "VT",
    "zip": "05906",
    "phone": "(802) 892-5959",
    "fax": null,
    "email": null,
    "website": "http://www.freefood.org/",
    "hours": "Mondays through Thursdays 8am-12pm and 1pm -3pm\r\n                                    \r\n                                                                        \n* Important: Please call the food pantries to confirm that the hours have not changed. We do our best to provide full information and details, but food pantries often change their hours without notifying us. We do not want you to waste your time visiting a pantry that is not open.",
    "description": null,
    "requirements": null,
    "scraped_at": "2025-11-03T22:20:59.122246",
    "latitude": 44.462901,
    "longitude": -71.6826915,
    "geocoded_address": "Lunenburg Post Office, 9, West Main Street, Lunenburg, Essex County, Vermont, 05906, United States of America"
  },
  {
    "url": "https://www.foodpantries.org/li/jay_food_shelf_05859",
    "name": "Jay Food Shelf",
    "address": "1036 VT Route 242",
    "city": "Jay",
    "state": "VT",
    "zip": "05859",
    "phone": "(802) 988-2996",
    "fax": null,
    "email": null,
    "website": "http://www.freefood.org/",
    "hours": "Mondays through Thursdays 7am-4pm and Thursday: 9am to 12pm\r\n                                    \r\n                                                                        \n* Important: Please call the food pantries to confirm that the hours have not changed. We do our best to provide full information and details, but food pantries often change their hours without notifying us. We do not want you to waste your time visiting a pantry that is not open.",
    "description": null,
    "requirements": null,
    "scraped_at": "2025-11-03T22:21:01.614183",
    "latitude": 44.9481252,
    "longitude": -72.4381452,
    "geocoded_address": "Jay, Orleans County, Vermont, 05859, United States of America",
    "note": "Geocoded to city center (exact address not found)"
  },
  {
    "url": "https://www.foodpantries.org/li/christ_united_methodist_church_3584",
    "name": "Christ United Methodist Church",
    "address": "135 Main Street",
    "city": "Lancaster",
    "state": "NH",
    "zip": "03584",
    "phone": "(603) 788-2734",
    "fax": null,
    "email": null,
    "website": "http://www.umc.org",
    "hours": "Monday, Wednesday and Friday 1:00pm - 3:00pmFor more information, please call.\nCounty or Counties Served: Coos",
    "description": null,
    "requirements": null,
    "scraped_at": "2025-11-03T22:21:05.472821",
    "latitude": 44.4913649,
    "longitude": -71.5700926,
    "geocoded_address": "135, Main Street, Lancaster, Co\u00f6s County, New Hampshire, 03584, United States of America"
  },
  {
    "url": "https://www.foodpantries.org/li/lancaster_umc_food_pantry_03584",
    "name": "Lancaster UMC Food Pantry",
    "address": "918 W Ave.",
    "city": "Lancaster",
    "state": "CA",
    "zip": "93534",
    "phone": "(661) 942-0419",
    "fax": "(661) 945-7023",
    "email": null,
    "website": "http://www.freefood.org/",
    "hours": "Monday or Thursday 12:00 pm - 1:00 pmFor more information, please call.\nMission Statement\r\n               The mission of Lancaster United Methodist Church is to make disciples of Jesus Christ for the transformation of the world.\r\n            \nCounty or Counties Served: Coos",
    "description": null,
    "requirements": null,
    "scraped_at": "2025-11-03T22:21:09.776212",
    "latitude": 34.6981064,
    "longitude": -118.1366153,
    "geocoded_address": "Lancaster, Los Angeles County, California, United States of America",
    "note": "Geocoded to city center (exact address not found)"
  },
  {
    "url": "https://www.foodpantries.org/li/friends-n-neighbors_food_pantry_03598",
    "name": "Friends-n-Neighbors Food Pantry",
    "address": "38 Kings Square",
    "city": "Whitefield",
    "state": "NH",
    "zip": "03598",
    "phone": "(603) 837-9044",
    "fax": null,
    "email": null,
    "website": "http://www.freefood.org/",
    "hours": "Tuesday11:00am - 1:00pmThursday3:00pm - 5:00pmThose in need are allowed to come twice a month.For more information, please call.\nCounty or Counties Served: Coos",
    "description": null,
    "requirements": null,
    "scraped_at": "2025-11-03T22:21:13.430651",
    "latitude": 44.3731286,
    "longitude": -71.6119661,
    "geocoded_address": "Whitefield, Co\u00f6s County, New Hampshire, United States of America",
    "note": "Geocoded to city center (exact address not found)"
  },
  {
    "url": "https://www.foodpantries.org/li/st_matthew_roman_catholic_church_3598",
    "name": "St Matthew Roman Catholic Church",
    "address": "9 Jefferson Road",
    "city": "Whitefield",
    "state": "NH",
    "zip": "03598",
    "phone": "(603) 788-2083",
    "fax": null,
    "email": null,
    "website": "http://www.freefood.org/",
    "hours": "Monday 6:30pm - 7:30pm 1st and 2nd Friday 8:30am - 9:30am F or more information, please call.  \nGo To Details Page For More Information",
    "description": null,
    "requirements": null,
    "scraped_at": "2025-11-03T22:21:16.804246",
    "latitude": 44.373053,
    "longitude": -71.6094627,
    "geocoded_address": "9, Jefferson Road, Whitefield, Co\u00f6s County, New Hampshire, 03598, United States of America"
  },
  {
    "url": "https://www.foodpantries.org/li/community_baptist_church_3598",
    "name": "Community Baptist Church",
    "address": "27 Jefferson Road",
    "city": "Whitefield",
    "state": "NH",
    "zip": "03598",
    "phone": "(603) 837-2469",
    "fax": null,
    "email": null,
    "website": "http://www.freefood.org/",
    "hours": "Monday 6:30pm - 7:30pm 1st and 2nd Friday 8:30am - 9:30amFor more information, please call. \nCounty or Counties Served: Coos",
    "description": null,
    "requirements": null,
    "scraped_at": "2025-11-03T22:21:19.156059",
    "latitude": 44.3732482,
    "longitude": -71.6088714,
    "geocoded_address": "Community Baptist Church, 27, Jefferson Road, Whitefield, Co\u00f6s County, New Hampshire, 03598, United States of America"
  },
  {
    "url": "https://www.foodpantries.org/li/helping_hands_food_pantry_03574",
    "name": "Helping Hands Food Pantry",
    "address": "475 Whitefield Road",
    "city": "Bethlehem",
    "state": "NH",
    "zip": "03574",
    "phone": null,
    "fax": null,
    "email": null,
    "website": "http://www.freefood.org/",
    "hours": "Monday 9:00am - 12:00pm Wednesdays 4:30pm - 6:30pm\r\n                                    \r\n                                    County or Counties Served: Grafton",
    "description": null,
    "requirements": null,
    "scraped_at": "2025-11-03T22:21:21.424333",
    "latitude": 44.3201481,
    "longitude": -71.7094047,
    "geocoded_address": "475, Whitefield Road, Bethlehem, Grafton County, New Hampshire, 03574, United States of America"
  },
  {
    "url": "https://www.foodpantries.org/li/white_mountain_christian_church_food_pantry_03561",
    "name": "Elevate Church",
    "address": "70 Redington Street",
    "city": "Littleton",
    "state": "NH",
    "zip": "03561",
    "phone": "(603) 444-6517",
    "fax": null,
    "email": null,
    "website": "http://www.freefood.org/",
    "hours": "Monday - Wednesday \r\n10:00am - 12:00pm \r\n \r\n Bring proof of need and identification to register for assistance. Fresh produce & baked goods available daily. \r\n \r\nFor more information, please call.",
    "description": null,
    "requirements": null,
    "scraped_at": "2025-11-03T22:21:23.746904",
    "latitude": 44.3059612,
    "longitude": -71.7511841,
    "geocoded_address": "70, Redington Street, Apthorp, Littleton, Grafton County, New Hampshire, 03561, United States of America"
  },
  {
    "url": "https://www.foodpantries.org/li/the-littleton-food-pantry",
    "name": "Elavate Church",
    "address": "70 Redington Street",
    "city": "Littleton",
    "state": "NH",
    "zip": "03561",
    "phone": "(603) 444-6517",
    "fax": null,
    "email": null,
    "website": "http://www.freefood.org/",
    "hours": "Monday - Wednesday \r\n10:00am - 12:00pm\n\r\n Bring proof of need and identification to register for assistance. Fresh produce & baked goods available daily.\n\r\nFor more information, please call. \nCounty or Counties Served: Grafton",
    "description": null,
    "requirements": null,
    "scraped_at": "2025-11-03T22:21:25.817860",
    "latitude": 44.3059612,
    "longitude": -71.7511841,
    "geocoded_address": "70, Redington Street, Apthorp, Littleton, Grafton County, New Hampshire, 03561, United States of America"
  },
  {
    "url": "https://www.foodpantries.org/li/all_saints_church_food_pantry_03561",
    "name": "All Saints Church Food Pantry",
    "address": "35 School Street",
    "city": "Littleton",
    "state": "NH",
    "zip": "03561",
    "phone": "(603) 444-3414",
    "fax": null,
    "email": null,
    "website": "http://www.allsts.org",
    "hours": "Tuesday, Thursday and Saturday\r\n 9:00am - 10:00am\n\r\nFor more information, please call. \nCounty or Counties Served: Grafton",
    "description": null,
    "requirements": null,
    "scraped_at": "2025-11-03T22:21:28.049254",
    "latitude": 44.3079089,
    "longitude": -71.7739407,
    "geocoded_address": "All Saints Episcopal Church, 35, School Street, Littleton, Grafton County, New Hampshire, 03561, United States of America"
  },
  {
    "url": "https://www.foodpantries.org/li/ny_12928_cphc-food-pantry",
    "name": "Food Pantry at Crown Point Health Center CPHC",
    "address": "2679 Main Street",
    "city": "Crown Point",
    "state": "NY",
    "zip": "12928",
    "phone": "(518) 585-3761",
    "fax": null,
    "email": null,
    "website": "http://www.freefood.org/",
    "hours": "Monday to Friday from 9:00am - 3:00pm\nCounty or Counties Served: Essex",
    "description": null,
    "requirements": "Full application for newcomers at time of first visit Brief intake form upon each visit  Food Pantry hours:  Monday - Friday, 10:00am to 3:30pm Closed everyday 12:00pm - 12:30pm, except holid\nGo To Details Page For More Information",
    "scraped_at": "2025-11-03T22:21:30.117705",
    "latitude": 43.950563,
    "longitude": -73.43708,
    "geocoded_address": "Town of Crown Point, Essex County, New York, 12928, United States of America",
    "note": "Geocoded to city center (exact address not found)"
  },
  {
    "url": "https://www.foodpantries.org/li/bermma_food_shelf_site_05476",
    "name": "Bermma Food Shelf Site",
    "address": "13 River Street",
    "city": "Richford",
    "state": "VT",
    "zip": "05476",
    "phone": "(802) 848-3673",
    "fax": null,
    "email": null,
    "website": "http://www.freefood.org/",
    "hours": "Open Monday through Friday 9am- 12 pm, except the last 2 Mondays of the month\r\n                                    \r\n                                                                        \n* Important: Please call the food pantries to confirm that the hours have not changed. We do our best to provide full information and details, but food pantries often change their hours without notifying us. We do not want you to waste your time visiting a pantry that is not open.",
    "description": null,
    "requirements": null,
    "scraped_at": "2025-11-03T22:21:35.016665",
    "latitude": 44.9969526,
    "longitude": -72.6713058,
    "geocoded_address": "13, River Street, Downtown Richford Historic District, Richford, Franklin County, Vermont, 05476, United States of America"
  },
  {
    "url": "https://www.foodpantries.org/li/cvoeo_outreach_office_and_richford_05476",
    "name": "Cvoeo Outreach Office and Richford",
    "address": "River Street",
    "city": "Richford",
    "state": "VT",
    "zip": "05476",
    "phone": "(802) 527-7392",
    "fax": null,
    "email": null,
    "website": "http://www.freefood.org/",
    "hours": "Open Monday through Friday 9am- 12 pm, except the last 2 Mondays of the month\nGo To Details Page For More Information",
    "description": null,
    "requirements": null,
    "scraped_at": "2025-11-03T22:21:37.228156",
    "latitude": 44.997295,
    "longitude": -72.6723961,
    "geocoded_address": "River Street, Downtown Richford Historic District, Richford, Franklin County, Vermont, 05476, United States of America"
  },
  {
    "url": "https://www.foodpantries.org/li/community_emergency_relief_volunteers_05664",
    "name": "Community Emergency Relief Volunteers",
    "address": "31 Dog River Drive",
    "city": "Northfield Falls",
    "state": "VT",
    "zip": "05664",
    "phone": "(802) 485-4293",
    "fax": null,
    "email": null,
    "website": "http://www.freefood.org/",
    "hours": "Monday: 5:30pm -6:30pm, Wednesdays 9am-10am and Saturday: 9am-11am\r\n                                    \r\n                                                                        \n* Important: Please call the food pantries to confirm that the hours have not changed. We do our best to provide full information and details, but food pantries often change their hours without notifying us. We do not want you to waste your time visiting a pantry that is not open.",
    "description": null,
    "requirements": null,
    "scraped_at": "2025-11-03T22:21:39.382141",
    "latitude": 44.1720871,
    "longitude": -72.6503207,
    "geocoded_address": "Northfield Falls, Northfield, Washington County, Vermont, 05664, United States of America",
    "note": "Geocoded to city center (exact address not found)"
  },
  {
    "url": "https://www.foodpantries.org/li/cerv",
    "name": "Community Emergency Relief Volunteers (CERV) Food Pantry",
    "address": "31 Dog River Drive",
    "city": "Northfield Falls",
    "state": "VT",
    "zip": "05663",
    "phone": "(802) 485-4293",
    "fax": null,
    "email": null,
    "website": "http://www.freefood.org/",
    "hours": "Monday 5:30pm - 6:30pmSaturday 9:00am - 11:00amAreas covered:Northfield, Northfield falls, Riverton, Little Northfield and Roxbury.Donation:Financial DonationsCERVP.O. Box 41North Falls, VT 0566For more information, please call. \nCounty or Counties Served: Washington",
    "description": null,
    "requirements": null,
    "scraped_at": "2025-11-03T22:21:45.038637",
    "latitude": 44.1720871,
    "longitude": -72.6503207,
    "geocoded_address": "Northfield Falls, Northfield, Washington County, Vermont, 05664, United States of America",
    "note": "Geocoded to city center (exact address not found)"
  },
  {
    "url": "https://www.foodpantries.org/li/waterbury_area_food_shelf_05676",
    "name": "Waterbury Area Food Shelf",
    "address": "57 South Main Street",
    "city": "Waterbury",
    "state": "VT",
    "zip": "05676",
    "phone": "(802) 244-1561",
    "fax": null,
    "email": null,
    "website": "http://www.freefood.org/",
    "hours": "Monday, Friday\r\n10:00am - 12:00pm \r\nWednesday\r\n3:00pm - 5:00pm\r\nFor more information, please call.",
    "description": null,
    "requirements": null,
    "scraped_at": "2025-11-03T22:21:48.977180",
    "latitude": 44.3359345,
    "longitude": -72.7549633,
    "geocoded_address": "57, South Main Street, Waterbury Village Historic District, Mill Village, Waterbury, Washington County, Vermont, 05676, United States of America"
  },
  {
    "url": "https://www.foodpantries.org/li/good_neighbor_food_pantry_community_church_of_christ_03580",
    "name": "Good Neighbor Food Pantry - Community Church of Christ",
    "address": "44 Church St",
    "city": "Franconia",
    "state": "NH",
    "zip": "03580",
    "phone": null,
    "fax": null,
    "email": null,
    "website": "http://www.freefood.org/",
    "hours": "Tuesdays from 1:00 PM to 4:00 PM.\r\n                                    \r\n                                                                        \n* Important: Please call the food pantries to confirm that the hours have not changed. We do our best to provide full information and details, but food pantries often change their hours without notifying us. We do not want you to waste your time visiting a pantry that is not open.",
    "description": null,
    "requirements": null,
    "scraped_at": "2025-11-03T22:21:51.285307",
    "latitude": 44.2273919,
    "longitude": -71.7478468,
    "geocoded_address": "Franconia, Grafton County, New Hampshire, 03580, United States of America",
    "note": "Geocoded to city center (exact address not found)"
  },
  {
    "url": "https://www.foodpantries.org/li/saint_marks_episcopal_church_05855",
    "name": "Saint Mark's Episcopal Church",
    "address": "44 Second Street",
    "city": "Newport",
    "state": "VT",
    "zip": "05855",
    "phone": "(802) 334-7365",
    "fax": null,
    "email": null,
    "website": "http://www.freefood.org/",
    "hours": "Mondays through Thursdays 9am-2pm\r\n                                    \r\n                                                                        \n* Important: Please call the food pantries to confirm that the hours have not changed. We do our best to provide full information and details, but food pantries often change their hours without notifying us. We do not want you to waste your time visiting a pantry that is not open.",
    "description": null,
    "requirements": null,
    "scraped_at": "2025-11-03T22:21:55.026949",
    "latitude": 44.9347086,
    "longitude": -72.2100488,
    "geocoded_address": "44, Second Street, Newport City, Orleans County, Vermont, 05855, United States of America"
  },
  {
    "url": "https://www.foodpantries.org/li/northeast_kingdom_community_action_05855",
    "name": "Northeast Kingdom Community Action",
    "address": "70 Main Street",
    "city": "Newport",
    "state": "VT",
    "zip": "05855",
    "phone": "(800) 639-4065",
    "fax": null,
    "email": null,
    "website": "http://www.freefood.org/",
    "hours": "Monday-Friday: 8am-4:30pm, Canaan: Monday-Friday: 8am-4pm. Island Pond: Tuesdays: 9am-2:30pm. Saint Johnsbury: Monday-Friday: 8am-4:30pm",
    "description": null,
    "requirements": null,
    "scraped_at": "2025-11-03T22:21:57.473182",
    "latitude": 44.9365631,
    "longitude": -72.2078046,
    "geocoded_address": "70, Main Street, Newport City, Orleans County, Vermont, 05855, United States of America"
  },
  {
    "url": "https://www.foodpantries.org/li/hoosick-area-church-associatin-food-pantry",
    "name": "Hoosick Area Church Associatin Food Pantry",
    "address": "26 John Street",
    "city": "Hoosick Falls",
    "state": "NY",
    "zip": "12090",
    "phone": "(518) 686-5163",
    "fax": null,
    "email": null,
    "website": "http://www.freefood.org/",
    "hours": "Monday, Tuesday and Thursday 9:00am-2:00pm Wednesday and Friday 9:00am-5:00pm\nGo To Details Page For More Information",
    "description": null,
    "requirements": null,
    "scraped_at": "2025-11-03T22:22:00.784885",
    "latitude": 42.9018051,
    "longitude": -73.3523205,
    "geocoded_address": "26, John Street, Village of Hoosick Falls, Town of Hoosick, Rensselaer County, New York, 12090, United States of America"
  },
  {
    "url": "https://www.foodpantries.org/li/roxbury_union_congregational_church_05669",
    "name": "Roxbury Union Congregational Church",
    "address": "1664 Roxbury Rd",
    "city": "Roxbury",
    "state": "VT",
    "zip": "05669",
    "phone": "(802) 485-7840",
    "fax": "(802) 485-9160",
    "email": null,
    "website": "https://roxburyvt.org",
    "hours": "Wednesday\r\n 1pm -4:30pm\r\nOr by appointment in emergency\n\r\nFor more information, please call.",
    "description": null,
    "requirements": null,
    "scraped_at": "2025-11-03T22:22:03.113635",
    "latitude": 44.0910097,
    "longitude": -72.7342046,
    "geocoded_address": "Roxbury Town Clerk, 1664, Roxbury Road, Roxbury, Washington County, Vermont, 05669, United States of America"
  },
  {
    "url": "https://www.foodpantries.org/li/nh_03561_little-free-pantry-littleton-nh",
    "name": "Little Free Pantry - Littleton, NH",
    "address": "189 Main Street",
    "city": "Littleton",
    "state": "NH",
    "zip": "03561",
    "phone": "(603) 444-3376",
    "fax": "(603) 444-6589",
    "email": null,
    "website": "http://www.freefood.org/",
    "hours": "Tuesday, Thursday and Saturday \r\n 9:00am - 10:00am \r\n \r\nFor more information, please call.",
    "description": null,
    "requirements": null,
    "scraped_at": "2025-11-03T22:22:05.861087",
    "latitude": 44.3074037,
    "longitude": -71.7772957,
    "geocoded_address": "First Congregational Church, 189, Main Street, Littleton, Grafton County, New Hampshire, 03561, United States of America"
  },
  {
    "url": "https://www.foodpantries.org/li/tri-county_community_action_program_3561",
    "name": "Tri-county Community Action Program",
    "address": "101 Cottage Street",
    "city": "Littleton",
    "state": "NH",
    "zip": "03561",
    "phone": "(800) 552-4617",
    "fax": null,
    "email": null,
    "website": "http://www.tccap.org",
    "hours": "Monday through Friday8:00am - 4:00pmFor more information, please call. \nCounty or Counties Served: Grafton",
    "description": null,
    "requirements": null,
    "scraped_at": "2025-11-03T22:22:08.071419",
    "latitude": 44.3035387,
    "longitude": -71.7689908,
    "geocoded_address": "101, Cottage Street, Littleton, Grafton County, New Hampshire, 03561, United States of America"
  },
  {
    "url": "https://www.foodpantries.org/li/Vt_Deerfield_Valley_Food_Pantry",
    "name": "Deerfield Valley Food Pantry",
    "address": "7 Church St",
    "city": "Wilmington",
    "state": "VT",
    "zip": "05363",
    "phone": "(802) 464-0148",
    "fax": null,
    "email": null,
    "website": "http://www.freefood.org/",
    "hours": "Last Wednesday of every month 6:30pm -8:00pm  Location:  Methodist Church Vestry on Main Street.  Donations location:   Wardsboro Town Office, Methodist Church, Stratton Town Office and We\nGo To Details Page For More Information",
    "description": null,
    "requirements": null,
    "scraped_at": "2025-11-03T22:22:10.436485",
    "latitude": 42.8676078,
    "longitude": -72.8711478,
    "geocoded_address": "7, Church Street, Wilmington Village Historic District, Wilmington, Windham County, Vermont, 05363, United States of America"
  },
  {
    "url": "https://www.foodpantries.org/li/first_baptist_church_3766",
    "name": "First Baptist Church",
    "address": "16 Kimball Street",
    "city": "Lebanon",
    "state": "NH",
    "zip": "03766",
    "phone": "(603) 448-5618",
    "fax": null,
    "email": null,
    "website": "http://www.freefood.org/",
    "hours": "By appointmentFor more information, please call. \nCounty or Counties Served: Grafton",
    "description": null,
    "requirements": null,
    "scraped_at": "2025-11-03T22:22:13.115874",
    "latitude": 43.6402086,
    "longitude": -72.2466548,
    "geocoded_address": "16, Kimball Street, Lebanon, Grafton County, New Hampshire, 03766, United States of America"
  }
]