[
  {
    "url": "https://www.foodpantries.org/li/multi-cap_ansted_25812",
    "name": "Multi-CAP - Ansted",
    "address": "132 East Main St",
    "city": "Ansted",
    "state": "WV",
    "zip": "25812",
    "phone": "(304) 658-5805",
    "fax": null,
    "email": null,
    "website": "http://www.freefood.org/",
    "hours": "Fourth Thursday of each month from 10:00 am until 12:00 pm Except November and December those are the Thursdays before Thanksgiving and Christmas.\nGo To Details Page For More Information",
    "description": null,
    "requirements": null,
    "scraped_at": "2025-11-02T19:05:46.233900",
    "latitude": 38.1342508,
    "longitude": -81.0962137,
    "geocoded_address": "132, East Main Street, Ansted, Fayette County, West Virginia, 25812, United States of America"
  },
  {
    "url": "https://www.foodpantries.org/li/wv_fayetteville_fayetteville-food-pantry",
    "name": "United Methodist Church of Fayetteville Food Pantry",
    "address": "120 High Street",
    "city": "Fayetteville",
    "state": "WV",
    "zip": "25840",
    "phone": "(304) 574-0187",
    "fax": null,
    "email": null,
    "website": "http://www.freefood.org/",
    "hours": "Fourth Thursday of each month from 10:00 am until 12:00 pmExcept November and December those are the Thursdays before Thanksgiving and Christmas.\r\n                                    \r\n                                    County or Counties Served: Fayette",
    "description": null,
    "requirements": null,
    "scraped_at": "2025-11-02T19:05:48.647141",
    "latitude": 38.0549388,
    "longitude": -81.1089376,
    "geocoded_address": "120, High Street, Fayetteville, Fayette County, West Virginia, 25840, United States of America"
  },
  {
    "url": "https://www.foodpantries.org/li/capital_resource_agency_montgomery_25136",
    "name": "Capital Resource Agency - Montgomery",
    "address": "514 5th Avenue",
    "city": "Montgomery",
    "state": "WV",
    "zip": "25136",
    "phone": "(304) 442-2018",
    "fax": null,
    "email": null,
    "website": "http://www.freefood.org/",
    "hours": "Monday through Friday 8:00 am - 12:00 pm and 1:00 pm - 4:00 pmFor more information, please call.\nCounty or Counties Served: Fayette",
    "description": null,
    "requirements": "ID \r\nReferral from the Drop In Center \r\nAdditional Services: \r\nService Center \r\nEmergency \nGo To Details Page For More Information",
    "scraped_at": "2025-11-02T19:05:52.026804",
    "latitude": 38.182191,
    "longitude": -81.3257165,
    "geocoded_address": "514, 5th Avenue, West Montgomery, Montgomery, Fayette County, West Virginia, 25136, United States of America"
  },
  {
    "url": "https://www.foodpantries.org/li/wv_danese_food-distribution-center-lords-blessing-fo",
    "name": "Lord's Blessing Food Pantry",
    "address": "13048 Stanaford Road",
    "city": "Danese",
    "state": "WV",
    "zip": "25831",
    "phone": "(304) 860-5716",
    "fax": null,
    "email": null,
    "website": "http://www.freefood.org/",
    "hours": "Fourth Thursday of each month from 10:00 am until 12:00 pm Except November and December those are the Thursdays before Thanksgiving and Christmas.\nGo To Details Page For More Information",
    "description": null,
    "requirements": null,
    "scraped_at": "2025-11-02T19:05:55.732206",
    "latitude": 37.9441451,
    "longitude": -80.910442,
    "geocoded_address": "Stanaford Road, Kathryn, Fayette County, West Virginia, United States of America"
  },
  {
    "url": "https://www.foodpantries.org/li/lords-blessing-food-pantry-layland-baptist-church",
    "name": "Lords Blessing Food Pantry    Layland Baptist Church",
    "address": "13048  Stanaford Road",
    "city": "Layland",
    "state": "WV",
    "zip": "25864",
    "phone": "(304) 860-5716",
    "fax": null,
    "email": null,
    "website": "http://www.freefood.org/",
    "hours": "Fourth Thursday of each month from 10:00 am until 12:00 pm Except November and December those are the Thursdays before Thanksgiving and Christmas.\nGo To Details Page For More Information",
    "description": null,
    "requirements": null,
    "scraped_at": "2025-11-02T19:05:57.710777",
    "latitude": 37.9441451,
    "longitude": -80.910442,
    "geocoded_address": "Stanaford Road, Kathryn, Fayette County, West Virginia, United States of America"
  },
  {
    "url": "https://www.foodpantries.org/li/good_shepherd_mission_25067",
    "name": "Good Shepherd Mission",
    "address": "1013 First Avenue",
    "city": "East Bank",
    "state": "WV",
    "zip": "25067",
    "phone": "(304) 595-6002",
    "fax": null,
    "email": null,
    "website": "http://www.freefood.org/",
    "hours": "10:00am - 4:00pm\r\n                                    \r\n                                                                        \n* Important: Please call the food pantries to confirm that the hours have not changed. We do our best to provide full information and details, but food pantries often change their hours without notifying us. We do not want you to waste your time visiting a pantry that is not open.",
    "description": null,
    "requirements": "ID \r\nReferral from the Drop In Center \r\nAdditional Services: \r\nService Center \r\nEmergency \nGo To Details Page For More Information",
    "scraped_at": "2025-11-02T19:06:00.336182",
    "latitude": 38.2178998,
    "longitude": -81.4427934,
    "geocoded_address": "East Bank, Kanawha County, West Virginia, 25067, United States of America",
    "note": "Geocoded to city center (exact address not found)"
  },
  {
    "url": "https://www.foodpantries.org/li/raleigh_county_community_action_association_inc_25801",
    "name": "Raleigh County Community Action Association Inc",
    "address": "299 Grey Flats Road",
    "city": "Beckley",
    "state": "WV",
    "zip": "25801",
    "phone": "(304) 252-6396",
    "fax": null,
    "email": null,
    "website": "http://www.freefood.org/",
    "hours": "Monday, Wednesday, Thursday, Friday, Saturday, the 4th Tuesday of the month \r\n11:00am\u00a0 to 1:00pm \r\nThe 3rd Sunday of the month \r\n4:00pm - 6:00pm \r\nThe 4th Sunday of the moth \r\n11:00am - 1:00pm \r\nFor more information, please call.",
    "description": null,
    "requirements": null,
    "scraped_at": "2025-11-02T19:06:03.316949",
    "latitude": 37.779196,
    "longitude": -81.158545,
    "geocoded_address": "299, Grey Flats Road, Johnstown, Beckley, Raleigh County, West Virginia, 25801, United States of America"
  },
  {
    "url": "https://www.foodpantries.org/li/wv_25801_the-carpenters-corner",
    "name": "The Carpenter's Corner",
    "address": "104 Prince Street",
    "city": "Beckley",
    "state": "WV",
    "zip": "25801",
    "phone": "(304) 929-2649",
    "fax": null,
    "email": null,
    "website": "http://www.freefood.org/",
    "hours": "Monday, Wednesday, Thursday, Friday, Saturday, the 4th Tuesday of the month\r\n11:00am\u00a0 to 1:00pm \r\nThe 3rd Sunday of the month\r\n4:00pm - 6:00pm\r\nThe 4th Sunday of the moth\r\n11:00am - 1:00pm\r\nFor more information, please call.",
    "description": null,
    "requirements": null,
    "scraped_at": "2025-11-02T19:06:05.170565",
    "latitude": 37.778407,
    "longitude": -81.1891934,
    "geocoded_address": "104, East Prince Street, Beckley, Raleigh County, West Virginia, 25801, United States of America"
  },
  {
    "url": "https://www.foodpantries.org/li/wv_beckley_first-christian-church-food-pantry",
    "name": "First Christian Church Food Bags and Warm Meal",
    "address": "119 N. Fayette Street",
    "city": "Beckley",
    "state": "WV",
    "zip": "25801",
    "phone": "(304) 252-8597",
    "fax": null,
    "email": null,
    "website": "http://www.freefood.org/",
    "hours": "Monday, Wednesday, Thursday, Friday, Saturday, the 4th Tuesday of the month \r\n11:00am\u00a0 to 1:00pm \r\nThe 3rd Sunday of the month \r\n4:00pm - 6:00pm \r\nThe 4th Sunday of the moth \r\n11:00am - 1:00pm \r\nFor more information, please call.",
    "description": null,
    "requirements": null,
    "scraped_at": "2025-11-02T19:06:07.223769",
    "latitude": 37.7777878,
    "longitude": -81.1889508,
    "geocoded_address": "119, North Fayette Street, Beckley, Raleigh County, West Virginia, 25801, United States of America"
  },
  {
    "url": "https://www.foodpantries.org/li/salvation_army_beckley_25801",
    "name": "Salvation Army - Beckley",
    "address": "312 South Fayette Street",
    "city": "Beckley",
    "state": "WV",
    "zip": "25802",
    "phone": "(304) 253-9541",
    "fax": null,
    "email": null,
    "website": "http://www.freefood.org/",
    "hours": "Tuesday to Friday: 9:00 am to 12:00 pm \nGo To Details Page For More Information",
    "description": null,
    "requirements": null,
    "scraped_at": "2025-11-02T19:06:09.234370",
    "latitude": 37.7759675,
    "longitude": -81.1882211,
    "geocoded_address": "312, South Fayette Street, Beckley, Raleigh County, West Virginia, 25801, United States of America"
  },
  {
    "url": "https://www.foodpantries.org/li/crosslight-of-hope",
    "name": "Crosslight of Hope",
    "address": "33483 Huntington Road",
    "city": "Ashton",
    "state": "WV",
    "zip": "25503",
    "phone": "(304) 576-2971",
    "fax": "(304) 576-2970",
    "email": null,
    "website": "http://www.freefood.org/",
    "hours": "Monday and Tuesday 9:00am to 5:00pmClosed the first Monday and last Tuesday of every monthThere is a qualification process for food and furniture, but clothing is open to anyone in need. Come shop with us! For more information, please call.",
    "description": null,
    "requirements": null,
    "scraped_at": "2025-11-02T19:06:11.365872",
    "latitude": 38.5987219,
    "longitude": -82.1749907,
    "geocoded_address": "Huntington Road, Glenwood, Mason County, West Virginia, United States of America"
  },
  {
    "url": "https://www.foodpantries.org/li/oh_45631_nazarene-family-life-center",
    "name": "Nazarene Family LIfe Center",
    "address": "1110 1st Ave.",
    "city": "Gallipolis",
    "state": "OH",
    "zip": "45631",
    "phone": "(740) 446-4911",
    "fax": null,
    "email": null,
    "website": "http://www.freefood.org/",
    "hours": "Monday 10:00am - 4:00pm   Requirements: Bring photo ID & proof of residency.  For more information, please call.   \nGo To Details Page For More Information",
    "description": null,
    "requirements": "Bring photo ID & proof of residency.  For more information, please call.   \nGo To Details Page For More Information",
    "scraped_at": "2025-11-02T19:06:13.609881",
    "latitude": 38.8150896,
    "longitude": -82.1932019,
    "geocoded_address": "1110, 1st Avenue, Gallipolis, Gallia County, Ohio, 45631, United States of America"
  },
  {
    "url": "https://www.foodpantries.org/li/salt-light-food-pantry",
    "name": "Salt & Light Food Pantry",
    "address": "10822 Winfield Rd.",
    "city": "Winfield",
    "state": "WV",
    "zip": "25213",
    "phone": "(304) 586-2180",
    "fax": null,
    "email": null,
    "website": "http://www.freefood.org/",
    "hours": "the 2nd and 4th Saturday each month \r\nFor more informati\nGo To Details Page For More Information",
    "description": null,
    "requirements": null,
    "scraped_at": "2025-11-02T19:06:15.555353",
    "latitude": 38.5280095,
    "longitude": -81.9029483,
    "geocoded_address": "Winfield Road, Winfield Acres, Winfield, Putnam County, West Virginia, 25168, United States of America"
  },
  {
    "url": "https://www.foodpantries.org/li/wv_25526_calvary-baptist-cupboard",
    "name": "Calvary Food Pantry at Calvary Baptist Church",
    "address": "3653 teays valley road",
    "city": "Hurricane",
    "state": "WV",
    "zip": "25526",
    "phone": "(304) 982-2261",
    "fax": null,
    "email": null,
    "website": "https://cbcwv.com/",
    "hours": "Last Saturday of every month from 9:00am to 11:00am or until  food is gone.Available to anyone who needs assistance with consistent meals.\nVolunteering Information:Contact David coyner at 304 982 2261 \nCounty or Counties Served: Putnam",
    "description": null,
    "requirements": null,
    "scraped_at": "2025-11-02T19:06:17.645727",
    "latitude": 38.4451718,
    "longitude": -81.9745128,
    "geocoded_address": "3653, Teays Valley Road, Englewood Estates, Hurricane, Putnam County, West Virginia, 25526, United States of America"
  },
  {
    "url": "https://www.foodpantries.org/li/capital_resource_agency_putnam_county_25526",
    "name": "Capital Resource Agency - Putnam County",
    "address": "3545 Teays Valley Rd",
    "city": "Hurricane",
    "state": "WV",
    "zip": "25526",
    "phone": "(304) 397-4036",
    "fax": null,
    "email": null,
    "website": "http://www.freefood.org/",
    "hours": "Tuesday 9:00am -5:00pmFriday1:00pm - 5:00pmFor more information, please call. \nCounty or Counties Served: Putnam",
    "description": null,
    "requirements": null,
    "scraped_at": "2025-11-02T19:06:20.130591",
    "latitude": 38.4418863,
    "longitude": -81.9861206,
    "geocoded_address": "3545, Teays Valley Road, Englewood Estates, Hurricane, Putnam County, West Virginia, 25526, United States of America"
  },
  {
    "url": "https://www.foodpantries.org/li/five-loaves-two-fish-food-pantry",
    "name": "Five Loaves Two Fish Food Pantry",
    "address": "112 Silver Street",
    "city": "Poca",
    "state": "WV",
    "zip": "25159",
    "phone": "(304) 755-7341",
    "fax": null,
    "email": null,
    "website": "http://www.freefood.org/",
    "hours": "the 2nd and 4th Saturday each month\r\nFor more information, please call.\nCounty or Counties Served: Putnam",
    "description": null,
    "requirements": null,
    "scraped_at": "2025-11-02T19:06:21.963340",
    "latitude": 38.4730544,
    "longitude": -81.8121661,
    "geocoded_address": "112, Silver Street, Silver Valley Estates, Poca, Putnam County, West Virginia, 25159, United States of America"
  },
  {
    "url": "https://www.foodpantries.org/li/slver-run-food-pantry",
    "name": "Silver Run Food Pantry",
    "address": "28601 Silver Run Road",
    "city": "Cheshire",
    "state": "OH",
    "zip": "45620",
    "phone": "(740) 742-7606",
    "fax": null,
    "email": null,
    "website": "http://www.freefood.org/",
    "hours": "Monday 10:00am - 4:00pm   Requirements: Bring photo ID & proof of residency.  For more information, please call.   \nGo To Details Page For More Information",
    "description": null,
    "requirements": "Bring photo ID & proof of residency.  For more information, please call.   \nGo To Details Page For More Information",
    "scraped_at": "2025-11-02T19:06:23.921037",
    "latitude": 38.9450918,
    "longitude": -82.1116529,
    "geocoded_address": "Cheshire, Gallia County, Ohio, 45620, United States of America",
    "note": "Geocoded to city center (exact address not found)"
  },
  {
    "url": "https://www.foodpantries.org/li/grace-food-pantry",
    "name": "Grace Food Pantry",
    "address": "305 Main Street",
    "city": "Huntington",
    "state": "WV",
    "zip": "25702",
    "phone": "(304) 638-1119",
    "fax": null,
    "email": null,
    "website": "http://www.freefood.org/",
    "hours": null,
    "description": null,
    "requirements": "Must be receiving SNAP benefits Provide a copy of the award letter stating the amount you receive With or without SNAP benefits, food can be provided once every 3 months  Additional Services:  Housing Referral Referrals to local shelter\nGo To Details Page For More Information",
    "scraped_at": "2025-11-02T19:06:26.819376",
    "latitude": 38.427513,
    "longitude": -82.389335,
    "geocoded_address": "305, Main Street, Guyandotte, Huntington, Cabell County, West Virginia, 25702, United States of America"
  },
  {
    "url": "https://www.foodpantries.org/li/living-water-resource-center",
    "name": "Living Water Resource Center Pantry",
    "address": "863 Porter Rd",
    "city": "Vinton",
    "state": "OH",
    "zip": "45686",
    "phone": "(740) 388-8980",
    "fax": null,
    "email": null,
    "website": "http://www.freefood.org/",
    "hours": "Monday 10:00am - 4:00pm   Requirements: Bring photo ID & proof of residency.  For more information, please call.   \nGo To Details Page For More Information",
    "description": null,
    "requirements": "Bring photo ID & proof of residency.  For more information, please call.   \nGo To Details Page For More Information",
    "scraped_at": "2025-11-02T19:06:29.124394",
    "latitude": 38.9764655,
    "longitude": -82.3415421,
    "geocoded_address": "Vinton, Gallia County, Ohio, United States of America",
    "note": "Geocoded to city center (exact address not found)"
  },
  {
    "url": "https://www.foodpantries.org/li/tyler_mountain_cross_lanes_community_services_25313",
    "name": "Tyler Mountain Cross Lanes Community Services",
    "address": "5320 Frontier Drive",
    "city": "Cross Lanes",
    "state": "WV",
    "zip": "25313",
    "phone": "(304) 776-5813",
    "fax": null,
    "email": null,
    "website": "http://www.tmclcs.org",
    "hours": "Monday 1:00 pm - 5:00 pmTuesday 8:00 am - 4:00 pmWednesday 8:00 am - 11:00 am\r\n                                    \r\n                                    County or Counties Served: Kanawha",
    "description": null,
    "requirements": null,
    "scraped_at": "2025-11-02T19:06:32.009148",
    "latitude": 38.4235888,
    "longitude": -81.7912172,
    "geocoded_address": "Cross Lanes United Methodist Church, 5320, Frontier Drive, Cross Lanes, Kanawha County, West Virginia, 25313, United States of America"
  },
  {
    "url": "https://www.foodpantries.org/li/the-lunchbox",
    "name": "The Lunchbox",
    "address": "159 Granby Circle",
    "city": "Beaver",
    "state": "WV",
    "zip": "25813",
    "phone": "(304) 860-0314",
    "fax": null,
    "email": null,
    "website": "http://www.freefood.org/",
    "hours": "Saturday 10:00am - 12:00pmNot income based.  Clients may visit once per week.  Must fill out a simple information sheet at each visit.  Located in the School of Harmony Complex.  Look for signs.  Drive around building.  Look for yellow door. For more information, please call. \nCounty or Counties Served: Raleigh",
    "description": null,
    "requirements": null,
    "scraped_at": "2025-11-02T19:06:33.948390",
    "latitude": 37.7462755,
    "longitude": -81.1262474,
    "geocoded_address": "159, Granby Circle, Daniels, Raleigh County, West Virginia, 25813, United States of America"
  },
  {
    "url": "https://www.foodpantries.org/li/wv_beckley_helping-hands-community-resources-food-pantry",
    "name": "Helping Hands Community Resources Food Pantry",
    "address": "106 1st Avenue",
    "city": "Beckley",
    "state": "WV",
    "zip": "25801",
    "phone": "(304) 253-3467",
    "fax": null,
    "email": null,
    "website": "http://www.freefood.org/",
    "hours": "Tuesday to Friday: 9:00 am to 12:00 pm\nCounty or Counties Served: Raleigh",
    "description": null,
    "requirements": null,
    "scraped_at": "2025-11-02T19:06:36.213780",
    "latitude": 37.7750673,
    "longitude": -81.1917321,
    "geocoded_address": "106, 1st Avenue, Beckley, Raleigh County, West Virginia, 25801, United States of America"
  },
  {
    "url": "https://www.foodpantries.org/li/wv_25951_loaves-and-fishes-food-pantry",
    "name": "Loaves and Fishes Food Pantry",
    "address": "207 Temple Street",
    "city": "Hinton",
    "state": "WV",
    "zip": "25951",
    "phone": "(304) 466-2110",
    "fax": null,
    "email": null,
    "website": "http://www.freefood.org/",
    "hours": "Clients are eligible to pick up food every Friday from\u00a010:00 am  3:00 pm.\r\nThey also have a thrift store.",
    "description": null,
    "requirements": null,
    "scraped_at": "2025-11-02T19:06:38.209672",
    "latitude": 37.6741093,
    "longitude": -80.8908308,
    "geocoded_address": "Loaves & Fishes, 207, Temple Street, Hinton Historic District, Hinton, Summers County, West Virginia, 25951, United States of America"
  },
  {
    "url": "https://www.foodpantries.org/li/belle_ministerial_association_food_pantry_25015",
    "name": "JBC Belle - Food Pantry",
    "address": "320 East 8th Street",
    "city": "Belle",
    "state": "WV",
    "zip": "25015",
    "phone": "(304) 949-3126",
    "fax": null,
    "email": null,
    "website": "http://www.freefood.org/",
    "hours": "Monday - Thursday 8:30am - 2:30pm Friday 8:30am - 11:30amFor more information, please call.\nCounty or Counties Served: Kanawha",
    "description": null,
    "requirements": "ID \r\nReferral from the Drop In Center \r\nAdditional Services: \r\nService Center \r\nEmergency \nGo To Details Page For More Information",
    "scraped_at": "2025-11-02T19:06:40.739840",
    "latitude": 38.230192,
    "longitude": -81.5389042,
    "geocoded_address": "320, 8th Street East, Belle, Kanawha County, West Virginia, 25015, United States of America"
  },
  {
    "url": "https://www.foodpantries.org/li/capital_resource_agency_chesapeake_city_hall_25315",
    "name": "Capital Resource Agency - Chesapeake City Hall",
    "address": "12404 MacCorkle Avenue",
    "city": "Chesapeake",
    "state": "WV",
    "zip": "25315",
    "phone": "(304) 949-6077",
    "fax": null,
    "email": null,
    "website": "http://www.freefood.org/",
    "hours": "Mondays through Thursdays 9am - 3pm and Friday: by appointment\r\n                                    \r\n                                                                        \n* Important: Please call the food pantries to confirm that the hours have not changed. We do our best to provide full information and details, but food pantries often change their hours without notifying us. We do not want you to waste your time visiting a pantry that is not open.",
    "description": null,
    "requirements": "ID \r\nReferral from the Drop In Center \r\nAdditional Services: \r\nService Center \r\nEmergency \nGo To Details Page For More Information",
    "scraped_at": "2025-11-02T19:06:43.818336",
    "latitude": 38.223957,
    "longitude": -81.5368139,
    "geocoded_address": "12404, Maccorkle Avenue, Chesapeake, Kanawha County, West Virginia, 25315, United States of America"
  },
  {
    "url": "https://www.foodpantries.org/li/campbells_creek_church_of_the_nazarene_25306",
    "name": "Campbells Creek Church of the Nazarene",
    "address": "543 Campbells Creek Drive",
    "city": "Charleston",
    "state": "WV",
    "zip": "25306",
    "phone": "(304) 925-6430",
    "fax": null,
    "email": null,
    "website": "http://www.freefood.org/",
    "hours": "Monday 10:00am - 12 noonFor more information, please call.\nCounty or Counties Served: Kanawha",
    "description": null,
    "requirements": "ID \r\nReferral from the Drop In Center \r\nAdditional Services: \r\nService Center \r\nEmergency \nGo To Details Page For More Information",
    "scraped_at": "2025-11-02T19:06:46.221604",
    "latitude": 38.3505995,
    "longitude": -81.6332812,
    "geocoded_address": "Charleston, Kanawha County, West Virginia, United States of America",
    "note": "Geocoded to city center (exact address not found)"
  },
  {
    "url": "https://www.foodpantries.org/li/common_grounds_25304",
    "name": "Common Grounds",
    "address": "6600 McCorkle Ave SE",
    "city": "Charleston",
    "state": "WV",
    "zip": "25304",
    "phone": "(304) 720-9690",
    "fax": null,
    "email": null,
    "website": "http://www.freefood.org/",
    "hours": "Tuesday and Thursday10:00 am - 3:00 pmFor more information, please call. \nCounty or Counties Served: Kanawha",
    "description": null,
    "requirements": "ID \r\nReferral from the Drop In Center \r\nAdditional Services: \r\nService Center \r\nEmergency \nGo To Details Page For More Information",
    "scraped_at": "2025-11-02T19:06:51.070187",
    "latitude": 38.3505995,
    "longitude": -81.6332812,
    "geocoded_address": "Charleston, Kanawha County, West Virginia, United States of America",
    "note": "Geocoded to city center (exact address not found)"
  },
  {
    "url": "https://www.foodpantries.org/li/union_mission_family_services_25304",
    "name": "Union Mission - Family Services",
    "address": "700 South Park Road",
    "city": "Charleston",
    "state": "WV",
    "zip": "25304",
    "phone": "(304) 925-0366",
    "fax": null,
    "email": null,
    "website": "http://www.freefood.org/",
    "hours": "Monday - Friday 8:30am to 3:30pmAn appointment to visit the pantry is preferred. Serves Boone, Clay, Kanawha and Putnam counties.Union Mission Outreach distributes food to over sixty hunger-relief programs in forty-six counties of West Virginia.For more information, please call.\nCounty or Counties Served: Kanawha",
    "description": null,
    "requirements": "ID \r\nReferral from the Drop In Center \r\nAdditional Services: \r\nService Center \r\nEmergency \nGo To Details Page For More Information",
    "scraped_at": "2025-11-02T19:06:54.105764",
    "latitude": 38.316491,
    "longitude": -81.6053484,
    "geocoded_address": "700, South Park Road, South Park, Charleston, Kanawha County, West Virginia, 25304, United States of America"
  },
  {
    "url": "https://www.foodpantries.org/li/manna-meal",
    "name": "Manna Meal",
    "address": "1105 Quarrier St",
    "city": "Charleston",
    "state": "WV",
    "zip": "25301",
    "phone": "(304) 345-7121",
    "fax": null,
    "email": null,
    "website": "http://www.freefood.org/",
    "hours": "Monday - Friday 9:00am - 12:00pm",
    "description": null,
    "requirements": "ID \r\nReferral from the Drop In Center \r\nAdditional Services: \r\nService Center \r\nEmergency \nGo To Details Page For More Information",
    "scraped_at": "2025-11-02T19:06:56.459206",
    "latitude": 38.3473379,
    "longitude": -81.6319421,
    "geocoded_address": "1105, Quarrier Street, Charleston, Kanawha County, West Virginia, 25301, United States of America"
  },
  {
    "url": "https://www.foodpantries.org/li/catholic_charities_25312",
    "name": "Catholic Charities",
    "address": "1116 Kanawha Blvd. E",
    "city": "Charleston",
    "state": "WV",
    "zip": "25312",
    "phone": "(304) 345-2103",
    "fax": null,
    "email": null,
    "website": "http://www.ccwva.org",
    "hours": "Monday - Friday 9:00am - 12:00pm",
    "description": null,
    "requirements": "ID \r\nReferral from the Drop In Center \r\nAdditional Services: \r\nService Center \r\nEmergency \nGo To Details Page For More Information",
    "scraped_at": "2025-11-02T19:06:58.332501",
    "latitude": 38.3453803,
    "longitude": -81.6335258,
    "geocoded_address": "1116, Kanawha Boulevard East, Charleston, Kanawha County, West Virginia, 25301, United States of America"
  },
  {
    "url": "https://www.foodpantries.org/li/covenant_house_food_pantry_25301",
    "name": "Covenant House Food Pantry",
    "address": "600 Shrewsbury Street",
    "city": "Charleston",
    "state": "WV",
    "zip": "25301",
    "phone": "(304) 344-8053",
    "fax": null,
    "email": null,
    "website": "http://www.freefood.org/",
    "hours": "Monday - Friday 9:00am - 12:00pm",
    "description": null,
    "requirements": "ID\r\nReferral from the Drop In Center\r\nAdditional Services:\r\nService Center\r\nEmergency Assistance\r\nHousing Assistance\r\nHealth Equity\r\nFor more information, please call.",
    "scraped_at": "2025-11-02T19:07:00.371985",
    "latitude": 38.3515897,
    "longitude": -81.6284043,
    "geocoded_address": "600, Shrewsbury Street, Charleston, Kanawha County, West Virginia, 25301, United States of America"
  },
  {
    "url": "https://www.foodpantries.org/li/saint_vincent_de_paul_society_25411",
    "name": "Saint Vincent De Paul Society",
    "address": "67 Liberty Street",
    "city": "Berkeley Springs",
    "state": "WV",
    "zip": "25411",
    "phone": "(304) 258-1311",
    "fax": null,
    "email": null,
    "website": "http://www.freefood.org/",
    "hours": "Tuesday and Friday 9:00am - 3:00pm  For more information, please call.\u00a0 \nGo To Details Page For More Information",
    "description": null,
    "requirements": "Complete an application Provide a picture ID Be a residen\nGo To Details Page For More Information",
    "scraped_at": "2025-11-02T19:07:02.205464",
    "latitude": 39.6259895,
    "longitude": -78.2275748,
    "geocoded_address": "Saint Vincent de Paul Catholic Church, 67, Liberty Street, Bath, Morgan County, West Virginia, 25411, United States of America"
  },
  {
    "url": "https://www.foodpantries.org/li/berkeley-baptist-church",
    "name": "Berkeley Baptist Church Pantry",
    "address": "172 Winchester Grade Rd",
    "city": "Berkeley Springs",
    "state": "WV",
    "zip": "25411",
    "phone": "(304) 258-4101",
    "fax": null,
    "email": null,
    "website": "http://www.freefood.org/",
    "hours": "11:00am - 1:00pm\n\r\nFor more information, please call. \nCounty or Counties Served: Morgan",
    "description": null,
    "requirements": "Complete an application Provide a picture ID Be a residen\nGo To Details Page For More Information",
    "scraped_at": "2025-11-02T19:07:04.234623",
    "latitude": 39.6267975,
    "longitude": -78.2279514,
    "geocoded_address": "Bath, Morgan County, West Virginia, United States of America",
    "note": "Geocoded to city center (exact address not found)"
  },
  {
    "url": "https://www.foodpantries.org/li/wv_25411_the-gift-of-grace-food-pantry-at-mt-zion",
    "name": "The Gift of Grace Food Pantry at Mt. Zion",
    "address": "5377 Martinsburg Road",
    "city": "Berkeley Springs",
    "state": "WV",
    "zip": "25411",
    "phone": "(304) 240-2819",
    "fax": null,
    "email": null,
    "website": "http://www.freefood.org/",
    "hours": "3rd Saturday of the month 10:30am - 12:00 pmFor more information, please call. \nCounty or Counties Served: Morgan",
    "description": null,
    "requirements": "Complete an application Provide a picture ID Be a residen\nGo To Details Page For More Information",
    "scraped_at": "2025-11-02T19:07:07.149807",
    "latitude": 39.6236991,
    "longitude": -78.2291552,
    "geocoded_address": "Martinsburg Road, Bath, Morgan County, West Virginia, 25411, United States of America"
  },
  {
    "url": "https://www.foodpantries.org/li/berryville_new_life_evangelistic_center_72616",
    "name": "Berryville New Life Evangelistic Center",
    "address": "320 Berry Street",
    "city": "Berryville",
    "state": "AR",
    "zip": "72616",
    "phone": null,
    "fax": null,
    "email": null,
    "website": "http://www.freefood.org/",
    "hours": "Monday:1:00pm - 3:00pm, Tues: 10:00am - 7:00pm, Wednesdays 3:00pm - 5:00pm, Thursday: 10:00am - 2:00pm\r\n                                    \r\n                                                                        \n* Important: Please call the food pantries to confirm that the hours have not changed. We do our best to provide full information and details, but food pantries often change their hours without notifying us. We do not want you to waste your time visiting a pantry that is not open.",
    "description": null,
    "requirements": "Complete an application Provide a picture ID Be a residen\nGo To Details Page For More Information",
    "scraped_at": "2025-11-02T19:07:09.674163",
    "latitude": 36.3704704,
    "longitude": -93.5695551,
    "geocoded_address": "Berryville, Carroll County, Arkansas, 72616, United States of America",
    "note": "Geocoded to city center (exact address not found)"
  },
  {
    "url": "https://www.foodpantries.org/li/morgan_county_emergency_assistance_team_(m.c.e.a.t)_25411",
    "name": "Morgan County Emergency Assistance Team (M.C.E.A.T)",
    "address": "44 Bath Street",
    "city": "Berkley Springs",
    "state": "WV",
    "zip": "25411",
    "phone": "(304) 258-2487",
    "fax": null,
    "email": null,
    "website": "http://www.freefood.org/",
    "hours": "Tuesday and Friday9:00am - 3:00pm For more information, please call.\u00a0 \nCounty or Counties Served: Morgan",
    "description": null,
    "requirements": "Complete an application Provide a picture ID Be a residen\nGo To Details Page For More Information",
    "scraped_at": "2025-11-02T19:07:13.082800"
  },
  {
    "url": "https://www.foodpantries.org/li/snyders_bible_chapel_25427",
    "name": "Snyder's Bible Chapel Food Pantry",
    "address": "10980 Martinsburg Rd",
    "city": "Hedgesville",
    "state": "WV",
    "zip": "25427",
    "phone": "(304) 707-1050",
    "fax": null,
    "email": null,
    "website": "http://www.freefood.org/",
    "hours": "Thursdays 1:00PMThey update their Facebook page frequently with weekly with times and days (check their Facebook page)Notes:People can contact Heather Canby at 304-707-1050 for questions regarding food pantry.The church number is not the best option for information regarding the pantryFor more information, please call.\nCounty or Counties Served: Berkeley",
    "description": null,
    "requirements": "Complete an application Provide a picture ID Be a residen\nGo To Details Page For More Information",
    "scraped_at": "2025-11-02T19:07:16.216290",
    "latitude": 39.5534303,
    "longitude": -77.9949993,
    "geocoded_address": "Hedgesville, Berkeley County, West Virginia, United States of America",
    "note": "Geocoded to city center (exact address not found)"
  },
  {
    "url": "https://www.foodpantries.org/li/interfaith-service-coalition",
    "name": "Interfaith Service Coalition",
    "address": "8 W High St",
    "city": "Hancock",
    "state": "MD",
    "zip": "21750",
    "phone": "(301) 678-7677",
    "fax": null,
    "email": null,
    "website": "http://www.freefood.org/",
    "hours": "Mondays through Fridays 10 am - 4pm. Provides a FOOD CO-OP, S.H.I.P.: A food program where low income individuals and families pay a cost of $5.25 per month to receive approximately $25.-$30 worth of food. Each recipient who is physically able is asked to volunteer assistance in order to maintain their eligibility.",
    "description": null,
    "requirements": "Complete an application Provide a picture ID Be a residen\nGo To Details Page For More Information",
    "scraped_at": "2025-11-02T19:07:19.709241",
    "latitude": 39.7000345,
    "longitude": -78.1787945,
    "geocoded_address": "8, West High Street, Fairview, Hancock, Washington County, Maryland, 21750, United States of America"
  },
  {
    "url": "https://www.foodpantries.org/li/wv_martinsburg_salvation-army-food-pantry",
    "name": "Salvation Army Martinsburg Food Pantry",
    "address": "111 Ellis Street",
    "city": "Martinsburg",
    "state": "WV",
    "zip": "25404",
    "phone": "(304) 267-4612",
    "fax": null,
    "email": null,
    "website": "http://www.freefood.org/",
    "hours": "Monday to Wednesday 9:00 am to 12:00 pmEligibility and Requirements:Complete an applicationProvide a picture IDBe a resident of Berkeley, Jefferson, and Morgan counties\nCounty or Counties Served: Berkeley",
    "description": null,
    "requirements": "Complete an applicationProvide a picture IDBe a resident of Berkeley, Jefferson, and Morgan counties\nCounty or Counties Served: Berkeley",
    "scraped_at": "2025-11-02T19:07:22.267659",
    "latitude": 39.463488,
    "longitude": -77.94522,
    "geocoded_address": "111, Ellis Street, Martinsburg, Berkeley County, West Virginia, 25404, United States of America"
  },
  {
    "url": "https://www.foodpantries.org/li/loaves_and_fishes_25401",
    "name": "Loaves and Fishes",
    "address": "336 South Queen Street",
    "city": "Martinsburg",
    "state": "WV",
    "zip": "25401",
    "phone": "(304) 263-3940",
    "fax": null,
    "email": null,
    "website": "http://www.freefood.org/",
    "hours": "Monday - Friday\r\n10:00 am - 1:00 pm\n\r\nFor more information, please call. Alternate number 304-267-2810\nVolunteering Information:http://berkeleycountyccap.com/ways-to-give/volunteer \nCounty or Counties Served: Berkeley",
    "description": null,
    "requirements": "Complete an application Provide a picture ID Be a residen\nGo To Details Page For More Information",
    "scraped_at": "2025-11-02T19:07:24.200761",
    "latitude": 39.4539612,
    "longitude": -77.9642821,
    "geocoded_address": "Saint Joseph Parish Offices, 336, South Queen Street, Irish Hill, Martinsburg, Berkeley County, West Virginia, 25401, United States of America"
  },
  {
    "url": "https://www.foodpantries.org/li/salvation_army_25401",
    "name": "Salvation Army",
    "address": "111 Ellis Street",
    "city": "Martinsburg",
    "state": "WV",
    "zip": "25401",
    "phone": "(304) 267-4612",
    "fax": null,
    "email": null,
    "website": "http://www.freefood.org/",
    "hours": "Monday through Friday 9:00am - 12:00pm1:00pm - 3:00pmFor more information, please call. \nCounty or Counties Served: Berkeley",
    "description": null,
    "requirements": "Complete an application Provide a picture ID Be a residen\nGo To Details Page For More Information",
    "scraped_at": "2025-11-02T19:07:26.672966",
    "latitude": 39.463488,
    "longitude": -77.94522,
    "geocoded_address": "111, Ellis Street, Martinsburg, Berkeley County, West Virginia, 25404, United States of America"
  },
  {
    "url": "https://www.foodpantries.org/li/healing_hunger_21555",
    "name": "Healing Hunger",
    "address": "19210 Opessa St SE",
    "city": "Oldtown",
    "state": "MD",
    "zip": "21555",
    "phone": null,
    "fax": null,
    "email": null,
    "website": "http://www.freefood.org/",
    "hours": "Tuesdays and Fridays 9am - 2pm\r\n                                    \r\n                                                                        \n* Important: Please call the food pantries to confirm that the hours have not changed. We do our best to provide full information and details, but food pantries often change their hours without notifying us. We do not want you to waste your time visiting a pantry that is not open.",
    "description": null,
    "requirements": null,
    "scraped_at": "2025-11-02T19:07:29.382228",
    "latitude": 39.5414805,
    "longitude": -78.6114037,
    "geocoded_address": "Oldtown, Allegany County, Maryland, 26722, United States of America",
    "note": "Geocoded to city center (exact address not found)"
  },
  {
    "url": "https://www.foodpantries.org/li/welltown_united_methodist_church_22624",
    "name": "Welltown United Methodist Church",
    "address": "1444 Welltown Road",
    "city": "Clearbrook",
    "state": "VA",
    "zip": "22624",
    "phone": null,
    "fax": null,
    "email": null,
    "website": "http://www.freefood.org/",
    "hours": "Thursdays5:30-7:30pm\r\n                                    \r\n                                                                        \n* Important: Please call the food pantries to confirm that the hours have not changed. We do our best to provide full information and details, but food pantries often change their hours without notifying us. We do not want you to waste your time visiting a pantry that is not open.",
    "description": null,
    "requirements": "Proof of residency, ID's or birth certificates for all in household For more information, please call.  \nGo To Details Page For More Information",
    "scraped_at": "2025-11-02T19:07:32.330824",
    "latitude": 39.2545122,
    "longitude": -78.0952687,
    "geocoded_address": "Community Drive, Clear Brook, Frederick County, Virginia, 22624, United States of America",
    "note": "Geocoded to city center (exact address not found)"
  },
  {
    "url": "https://www.foodpantries.org/li/salvation_army_bluefield_24701",
    "name": "Salvation Army - Bluefield",
    "address": "900 Highland Avenue",
    "city": "Bluefield",
    "state": "WV",
    "zip": "24701",
    "phone": "(304) 327-7411",
    "fax": null,
    "email": null,
    "website": "http://www.freefood.org/",
    "hours": "Mondays through Fridays 9am - 5pm, Closed 12pm -1pm\r\n                                    \r\n                                                                        \n* Important: Please call the food pantries to confirm that the hours have not changed. We do our best to provide full information and details, but food pantries often change their hours without notifying us. We do not want you to waste your time visiting a pantry that is not open.",
    "description": null,
    "requirements": null,
    "scraped_at": "2025-11-02T19:07:36.217528",
    "latitude": 37.26434,
    "longitude": -81.234438,
    "geocoded_address": "900, Highland Avenue, Bluefield, Mercer County, West Virginia, 24701, United States of America"
  },
  {
    "url": "https://www.foodpantries.org/li/christ_episcopal_church_24701",
    "name": "Christ Episcopal Church",
    "address": "200 Duhring Street",
    "city": "Bluefield",
    "state": "WV",
    "zip": "24701",
    "phone": "(304) 327-6861",
    "fax": null,
    "email": null,
    "website": "http://www.freefood.org/",
    "hours": "Third Thursday of every month\r\n 9:00am -11:00pm\n\r\nFor more information, please call. \nCounty or Counties Served: Mercer",
    "description": null,
    "requirements": null,
    "scraped_at": "2025-11-02T19:07:38.657988",
    "latitude": 37.268177,
    "longitude": -81.224983,
    "geocoded_address": "200, Duhring Street, Bluefield, Mercer County, West Virginia, 24701, United States of America"
  },
  {
    "url": "https://www.foodpantries.org/li/community_action_of_south_eastern_wv_24701",
    "name": "Community Action of South Eastern WV",
    "address": "307 Federal Street, Suite 323",
    "city": "Bluefield",
    "state": "WV",
    "zip": "24701",
    "phone": "(304) 327-3506",
    "fax": null,
    "email": null,
    "website": "http://www.casewv.org",
    "hours": "Monday-Friday: 8:00 am - 4:30 pm\r\n                                    \r\n                                                                        \n* Important: Please call the food pantries to confirm that the hours have not changed. We do our best to provide full information and details, but food pantries often change their hours without notifying us. We do not want you to waste your time visiting a pantry that is not open.",
    "description": null,
    "requirements": null,
    "scraped_at": "2025-11-02T19:07:40.472633",
    "latitude": 37.2698395,
    "longitude": -81.2223195,
    "geocoded_address": "Bluefield, Mercer County, West Virginia, 24701, United States of America",
    "note": "Geocoded to city center (exact address not found)"
  },
  {
    "url": "https://www.foodpantries.org/li/bluefield_union_mission_24701",
    "name": "Bluefield Union Mission",
    "address": "2203 Bluefield Avenue",
    "city": "Bluefield",
    "state": "WV",
    "zip": "24701",
    "phone": "(304) 327-8167",
    "fax": null,
    "email": null,
    "website": "http://www.freefood.org/",
    "hours": "Monday - Friday 9:00 am - 4:00 pmFor more information, please call.\nCounty or Counties Served: Mercer",
    "description": null,
    "requirements": null,
    "scraped_at": "2025-11-02T19:07:43.391596",
    "latitude": 37.2600623,
    "longitude": -81.2477764,
    "geocoded_address": "2203, Bluefield Avenue, Bluefield, Mercer County, West Virginia, 24701, United States of America"
  },
  {
    "url": "https://www.foodpantries.org/li/sacred-heart-catholic-church",
    "name": "Sacred Heart Catholic Church Food Pantry",
    "address": "1003 Wyoming St",
    "city": "Bluefield",
    "state": "WV",
    "zip": "24701",
    "phone": "(304) 320-0268",
    "fax": null,
    "email": null,
    "website": "http://www.freefood.org/",
    "hours": "Wednesdays from 10:00am \u2013 2:00pm.Food Pantry Contact:Ron Ciccolini304-320-0268rcicolini@comcast.net\nCounty or Counties Served: Mercer",
    "description": null,
    "requirements": null,
    "scraped_at": "2025-11-02T19:07:45.278007",
    "latitude": 37.2708509,
    "longitude": -81.2172386,
    "geocoded_address": "Sacred Heart Catholic Church, 1003, Wyoming Street, Bluefield, Mercer County, West Virginia, 24701, United States of America"
  },
  {
    "url": "https://www.foodpantries.org/li/tender_mercies_ministries_incorporated_24740",
    "name": "Tender Mercies Ministries Incorporated",
    "address": "4001 West Main Street",
    "city": "Princeton",
    "state": "WV",
    "zip": "24740",
    "phone": "(304) 425-2557",
    "fax": null,
    "email": null,
    "website": "http://www.freefood.org/",
    "hours": "Monday through Thursday\r\n 10:00am-12:00pm\r\n 1:15 - 3:00pm\n\r\nFor more information, please call. \nVolunteering Information:http://www.tmmprinceton.com/volunteers.html \nCounty or Counties Served: Mercer",
    "description": null,
    "requirements": null,
    "scraped_at": "2025-11-02T19:07:48.133333",
    "latitude": 37.3669136,
    "longitude": -81.1061235,
    "geocoded_address": "West Main Street, Princeton, Mercer County, West Virginia, 24740, United States of America"
  },
  {
    "url": "https://www.foodpantries.org/li/salvation_army_princeton_24740",
    "name": "Salvation Army - Princeton",
    "address": "300 Princeton Avenue",
    "city": "Princeton",
    "state": "WV",
    "zip": "24740",
    "phone": "(304) 425-2971",
    "fax": null,
    "email": null,
    "website": "http://www.freefood.org/",
    "hours": "Mondays through Fridays 9am - 4pm\r\n                                    \r\n                                                                        \n* Important: Please call the food pantries to confirm that the hours have not changed. We do our best to provide full information and details, but food pantries often change their hours without notifying us. We do not want you to waste your time visiting a pantry that is not open.",
    "description": null,
    "requirements": null,
    "scraped_at": "2025-11-02T19:07:50.514045",
    "latitude": 37.368382,
    "longitude": -81.087309,
    "geocoded_address": "300, Princeton Avenue, Princeton, Mercer County, West Virginia, 24740, United States of America"
  },
  {
    "url": "https://www.foodpantries.org/li/burke_memorial_baptist_church_24740",
    "name": "Burke Memorial Baptist Church",
    "address": "501 Thorn Street",
    "city": "Princeton",
    "state": "WV",
    "zip": "24740",
    "phone": "(304) 425-4945",
    "fax": null,
    "email": null,
    "website": "http://www.freefood.org/",
    "hours": "Tuesday and Thursday: 9:30 -12:30\r\n                                    \r\n                                                                        \n* Important: Please call the food pantries to confirm that the hours have not changed. We do our best to provide full information and details, but food pantries often change their hours without notifying us. We do not want you to waste your time visiting a pantry that is not open.",
    "description": null,
    "requirements": null,
    "scraped_at": "2025-11-02T19:07:52.479005",
    "latitude": 37.3687156,
    "longitude": -81.0777582,
    "geocoded_address": "Princeton Praise & Worship Center, 501, Thorn Street, Princeton, Mercer County, West Virginia, 24740, United States of America"
  },
  {
    "url": "https://www.foodpantries.org/li/labor-of-love-mission",
    "name": "Labor of Love Mission",
    "address": "200 East Riverside Drive",
    "city": "North Tazewell",
    "state": "VA",
    "zip": "24630",
    "phone": "(276) 988-3704",
    "fax": "(276) 988-5869",
    "email": null,
    "website": "http://www.freefood.org/",
    "hours": "Tuesday, Thursday & Friday: 8:00 am to 4:00 pm \nGo To Details Page For More Information",
    "description": null,
    "requirements": null,
    "scraped_at": "2025-11-02T19:07:54.491872",
    "latitude": 37.132893,
    "longitude": -81.5270544,
    "geocoded_address": "North Tazewell, Tazewell, Tazewell County, Virginia, 24651, United States of America",
    "note": "Geocoded to city center (exact address not found)"
  },
  {
    "url": "https://www.foodpantries.org/li/millennium-world-outreach-food-pantry",
    "name": "Millennium World Outreach -  Food Pantry",
    "address": "305 Cassell Road",
    "city": "Wytheville",
    "state": "VA",
    "zip": "24382",
    "phone": "(276) 228-5764",
    "fax": null,
    "email": null,
    "website": "http://www.tmwo.org",
    "hours": "Friday4:00pm - 6:00pmFor more information, please call.\nCounty or Counties Served: Wythe",
    "description": null,
    "requirements": null,
    "scraped_at": "2025-11-02T19:07:57.463610",
    "latitude": 36.9541323,
    "longitude": -81.0639108,
    "geocoded_address": "305, Cassell Road, Wytheville, Wythe County, Virginia, 24382, United States of America"
  },
  {
    "url": "https://www.foodpantries.org/li/agape-food-pantry-wytheville",
    "name": "Agape Food Pantry Wytheville",
    "address": "1355 West Spring Street",
    "city": "Wytheville",
    "state": "VA",
    "zip": "24382",
    "phone": "(276) 228-6889",
    "fax": null,
    "email": null,
    "website": "http://www.freefood.org/",
    "hours": "Friday 4:00pm - 6:00pm For more information, please call. \nGo To Details Page For More Information",
    "description": null,
    "requirements": null,
    "scraped_at": "2025-11-02T19:07:59.525139",
    "latitude": 36.9399146,
    "longitude": -81.0946765,
    "geocoded_address": "1355, West Spring Street, Wytheville, Wythe County, Virginia, 24382, United States of America"
  },
  {
    "url": "https://www.foodpantries.org/li/stoney-fork-community-church-food-pantry",
    "name": "Stoney Fork Community Church - Food Pantry",
    "address": "470 Guillions Fork Road",
    "city": "Wytheville",
    "state": "VA",
    "zip": "24382",
    "phone": "(276) 637-6805",
    "fax": null,
    "email": null,
    "website": "http://www.freefood.org/",
    "hours": "Friday 4:00pm - 6:00pm For more information, please call. \nGo To Details Page For More Information",
    "description": null,
    "requirements": null,
    "scraped_at": "2025-11-02T19:08:01.634371",
    "latitude": 36.9479966,
    "longitude": -81.0869747,
    "geocoded_address": "Wytheville, Wythe County, Virginia, 24382, United States of America",
    "note": "Geocoded to city center (exact address not found)"
  },
  {
    "url": "https://www.foodpantries.org/li/va_24368_katies-free-pantry",
    "name": "Katie's Free Food Pantry",
    "address": "514 S Main Street",
    "city": "Rural Retreat",
    "state": "VA",
    "zip": "24368",
    "phone": "(276) 686-4281",
    "fax": null,
    "email": null,
    "website": "http://www.freefood.org/",
    "hours": "Friday 4:00pm - 6:00pm For more information, please call. \nGo To Details Page For More Information",
    "description": null,
    "requirements": null,
    "scraped_at": "2025-11-02T19:08:06.229825",
    "latitude": 36.8901771,
    "longitude": -81.2762347,
    "geocoded_address": "514, South Main Street, Rural Retreat, Wythe County, Virginia, 24368, United States of America"
  },
  {
    "url": "https://www.foodpantries.org/li/feeding-america-mobile-food-pantry-church-of-jesus-christ-of-latter-day-saints",
    "name": "Feeding America Mobile Food Pantry - Church Of Jesus Christ of Latter Day Saints",
    "address": "1136 Fort Chiswell Rd",
    "city": "Max Meadows",
    "state": "VA",
    "zip": "24360",
    "phone": "(276) 637-6800",
    "fax": null,
    "email": null,
    "website": "http://www.freefood.org/",
    "hours": "Every other Monday from 10:00am to 12:00pm  Pantry Dates and hours varies, please contact the Food Pantry directly for more information   \nGo To Details Page For More Information",
    "description": null,
    "requirements": null,
    "scraped_at": "2025-11-02T19:08:08.695168",
    "latitude": 36.97166,
    "longitude": -80.9503639,
    "geocoded_address": "Max Meadows, Wythe County, Virginia, United States of America",
    "note": "Geocoded to city center (exact address not found)"
  },
  {
    "url": "https://www.foodpantries.org/li/cross_lines_information_and_help_agency_26201",
    "name": "Cross Lines Information and Help Agency",
    "address": "68 College Ave",
    "city": "Buckhannon",
    "state": "WV",
    "zip": "26201",
    "phone": "(304) 472-0743",
    "fax": null,
    "email": null,
    "website": "http://www.freefood.org/",
    "hours": "Monday through Thursday\r\n 9:00am -1:00pm\n\r\nFor more information, please call. \nCounty or Counties Served: Upshur",
    "description": null,
    "requirements": null,
    "scraped_at": "2025-11-02T19:08:12.362396",
    "latitude": 38.9896673,
    "longitude": -80.22136,
    "geocoded_address": "68, College Avenue, South Buckhannon, Buckhannon, Upshur County, West Virginia, 26201, United States of America"
  },
  {
    "url": "https://www.foodpantries.org/li/wv_26201_faith-tabernacle-food-outreach",
    "name": "Faith Tabernacle Food Outreach",
    "address": "2357 Brushy Fork Road",
    "city": "Buckhannon",
    "state": "WV",
    "zip": "26201",
    "phone": "(304) 516-8534",
    "fax": null,
    "email": null,
    "website": "http://www.freefood.org/",
    "hours": "Open daily Monday to Friday from 9:00am to 4:00pm.Monthly food giveaway on the 4th Saturday of each month.Mobile soup kitchen:Every Monday 4:00PM - 5:00PM in the front parking lot at the Buckhannon Fire Department in Buckhannon West Virginia.\nVolunteering Information:We always need volunteers. Go to our website and click on volunteer.",
    "description": null,
    "requirements": null,
    "scraped_at": "2025-11-02T19:08:14.254131",
    "latitude": 38.9941813,
    "longitude": -80.2675849,
    "geocoded_address": "Brushy Fork Road, Buckhannon, Upshur County, West Virginia, 26201, United States of America"
  },
  {
    "url": "https://www.foodpantries.org/li/our_neighbor_26452",
    "name": "Our Neighbor",
    "address": "170 W Second Street",
    "city": "Weston",
    "state": "WV",
    "zip": "26452",
    "phone": "(304) 269-6327",
    "fax": null,
    "email": null,
    "website": "http://www.freefood.org/",
    "hours": "Tuesday, Wednesday and Thursday: 9:00am - 2:00pm\r\n                                    \r\n                                                                        \n* Important: Please call the food pantries to confirm that the hours have not changed. We do our best to provide full information and details, but food pantries often change their hours without notifying us. We do not want you to waste your time visiting a pantry that is not open.",
    "description": null,
    "requirements": null,
    "scraped_at": "2025-11-02T19:08:16.187829",
    "latitude": 39.0384274,
    "longitude": -80.467313,
    "geocoded_address": "Weston, Lewis County, West Virginia, 26452, United States of America",
    "note": "Geocoded to city center (exact address not found)"
  },
  {
    "url": "https://www.foodpantries.org/li/senior_care_of_north_central_wv_-harrison_26301",
    "name": "Senior Care Of North Central WV -Harrison",
    "address": "1412 Buckhannon Pike",
    "city": "Nutter Fort",
    "state": "WV",
    "zip": "26301",
    "phone": "(304) 624-0099",
    "fax": null,
    "email": null,
    "website": "http://www.freefood.org/",
    "hours": "Mondays through Fridays 9am-2pm\r\n                                    \r\n                                                                        \n* Important: Please call the food pantries to confirm that the hours have not changed. We do our best to provide full information and details, but food pantries often change their hours without notifying us. We do not want you to waste your time visiting a pantry that is not open.",
    "description": null,
    "requirements": null,
    "scraped_at": "2025-11-02T19:08:19.842612",
    "latitude": 39.258608,
    "longitude": -80.323049,
    "geocoded_address": "1412, Buckhannon Pike, Nutter Fort, Harrison County, West Virginia, 26301, United States of America"
  },
  {
    "url": "https://www.foodpantries.org/li/destiny_tabernacle_of_praise_26241",
    "name": "DESTINY TABERNACLE OF PRAISE",
    "address": "312 Wilson Street",
    "city": "Elkins",
    "state": "WV",
    "zip": "26241",
    "phone": "(304) 636-9303",
    "fax": null,
    "email": null,
    "website": "http://www.freefood.org/",
    "hours": "Monday - Friday 8:00am - 4:00pm For more information, please call. \nGo To Details Page For More Information",
    "description": null,
    "requirements": null,
    "scraped_at": "2025-11-02T19:08:21.727673",
    "latitude": 38.925179,
    "longitude": -79.85724,
    "geocoded_address": "312, Wilson Street, Elkins, Randolph County, West Virginia, 26241, United States of America"
  },
  {
    "url": "https://www.foodpantries.org/li/salvation_army_harrison_26302",
    "name": "Salvation Army",
    "address": "1010 S Chestnut St",
    "city": "Clarksburg",
    "state": "WV",
    "zip": "26302",
    "phone": "(304) 622-2360",
    "fax": null,
    "email": null,
    "website": "http://www.freefood.org/",
    "hours": "Monday - Friday9:00am - 4:00pm; Closed 12pm -1pm\r\n                                    \r\n                                    County or Counties Served: Harrison",
    "description": null,
    "requirements": null,
    "scraped_at": "2025-11-02T19:08:24.203780",
    "latitude": 39.2692888,
    "longitude": -80.3539059,
    "geocoded_address": "Salvation Army, 1010, South Chestnut Street, Clarksburg Water Board, Clarksburg, Harrison County, West Virginia, 26301, United States of America"
  },
  {
    "url": "https://www.foodpantries.org/li/good_shepherd_ministries_26241",
    "name": "Good Shepherd Ministries",
    "address": "105 First Street",
    "city": "Elkins",
    "state": "WV",
    "zip": "26241",
    "phone": "(304) 636-5449",
    "fax": null,
    "email": null,
    "website": "http://www.freefood.org/",
    "hours": "Monday - Friday 8:00am - 4:00pm For more information, please call. \nGo To Details Page For More Information",
    "description": null,
    "requirements": null,
    "scraped_at": "2025-11-02T19:08:26.432410",
    "latitude": 38.925927,
    "longitude": -79.8466552,
    "geocoded_address": "Elkins, Randolph County, West Virginia, 26241, United States of America",
    "note": "Geocoded to city center (exact address not found)"
  },
  {
    "url": "https://www.foodpantries.org/li/randolph_county_office_ncwvcaa_26241",
    "name": "Randolph County Office NCWVCAA",
    "address": "938 S Davis Ave",
    "city": "Elkins",
    "state": "WV",
    "zip": "26241",
    "phone": "(304) 636-5193",
    "fax": "(304) 637-4718",
    "email": null,
    "website": "http://www.freefood.org/",
    "hours": "Monday - Friday 8:00am - 4:00pmFor more information, please call. \nCounty or Counties Served: Randolph",
    "description": null,
    "requirements": null,
    "scraped_at": "2025-11-02T19:08:29.788455",
    "latitude": 38.9145993,
    "longitude": -79.8542169,
    "geocoded_address": "South Davis Avenue, Elkins, Randolph County, West Virginia, 26241, United States of America"
  },
  {
    "url": "https://www.foodpantries.org/li/catholic_community_service_seneca_mall_26241",
    "name": "Catholic Community Service - Seneca Mall",
    "address": "3rd Street",
    "city": "Elkins",
    "state": "WV",
    "zip": "26241",
    "phone": "(304) 636-2202",
    "fax": null,
    "email": null,
    "website": "http://www.freefood.org/",
    "hours": "Mondays through Fridays 9am - 12pm\r\n                                    \r\n                                                                        \n* Important: Please call the food pantries to confirm that the hours have not changed. We do our best to provide full information and details, but food pantries often change their hours without notifying us. We do not want you to waste your time visiting a pantry that is not open.",
    "description": null,
    "requirements": null,
    "scraped_at": "2025-11-02T19:08:32.188704",
    "latitude": 38.925146,
    "longitude": -79.8481608,
    "geocoded_address": "3rd Street, Elkins, Randolph County, West Virginia, 26241, United States of America"
  },
  {
    "url": "https://www.foodpantries.org/li/emergency_infant_foods_program_wvccap_26302",
    "name": "Emergency Infant Foods Program - WVCCAP",
    "address": "106 Frederick St.",
    "city": "Clarksburg",
    "state": "WV",
    "zip": "26302",
    "phone": "(304) 622-8495",
    "fax": null,
    "email": null,
    "website": "http://www.freefood.org/",
    "hours": "Mondays through Fridays 8:00am -4:00pm\r\n                                    \r\n                                                                        \n* Important: Please call the food pantries to confirm that the hours have not changed. We do our best to provide full information and details, but food pantries often change their hours without notifying us. We do not want you to waste your time visiting a pantry that is not open.",
    "description": null,
    "requirements": null,
    "scraped_at": "2025-11-02T19:08:34.620456",
    "latitude": 39.2719079,
    "longitude": -80.3511769,
    "geocoded_address": "106, Frederick Street, Chestnut Hills, Clarksburg, Harrison County, West Virginia, 26301, United States of America"
  },
  {
    "url": "https://www.foodpantries.org/li/duff_street_united_methodist_church_26301",
    "name": "Duff Street United Methodist Church",
    "address": "400 Duff Ave",
    "city": "Clarksburg",
    "state": "WV",
    "zip": "26301",
    "phone": "(304) 624-7951",
    "fax": null,
    "email": null,
    "website": "http://www.freefood.org/",
    "hours": "Tuesday 9:30am - 1:00pm For more information, please call. \nCounty or Counties Served: Harrison",
    "description": null,
    "requirements": null,
    "scraped_at": "2025-11-02T19:08:36.605459",
    "latitude": 39.279153,
    "longitude": -80.356268,
    "geocoded_address": "400, Duff Avenue, Stealey, Clarksburg, Harrison County, West Virginia, 26301, United States of America"
  },
  {
    "url": "https://www.foodpantries.org/li/wv_26711_amazing-grace-food-pantry",
    "name": "Amazing Grace Food Pantry",
    "address": "1051 Christian Road",
    "city": "Capon Bridge",
    "state": "WV",
    "zip": "26711",
    "phone": "(304) 856-2773",
    "fax": null,
    "email": null,
    "website": "http://www.freefood.org/",
    "hours": "Tuesdays 10:00\u202fam to 12:00 pm \nGo To Details Page For More Information",
    "description": null,
    "requirements": null,
    "scraped_at": "2025-11-02T19:08:38.571421",
    "latitude": 39.2954817,
    "longitude": -78.4301464,
    "geocoded_address": "Christian Church Road, Capon Bridge, Hampshire County, West Virginia, 26711, United States of America"
  },
  {
    "url": "https://www.foodpantries.org/li/va_gore_hayfield-assembly-of-god-food-pantry",
    "name": "Hayfield Assembly of God Food Pantry",
    "address": "5118 Northwestern Pike",
    "city": "Gore",
    "state": "VA",
    "zip": "22637",
    "phone": "(540) 877-1443",
    "fax": null,
    "email": null,
    "website": "http://www.freefood.org/",
    "hours": "Tuesdays 10:00\u202fam to 12:00 pm\nCounty or Counties Served: Frederick",
    "description": null,
    "requirements": "Proof of residency, ID's or birth certificates for all in household For more information, please call.  \nGo To Details Page For More Information",
    "scraped_at": "2025-11-02T19:08:41.619060",
    "latitude": 39.2705337,
    "longitude": -78.3462232,
    "geocoded_address": "Northwestern Pike, Gore, Frederick County, Virginia, 22637, United States of America"
  },
  {
    "url": "https://www.foodpantries.org/li/church_of_christ_mountain_view_22602",
    "name": "Church of Christ Mountain View",
    "address": "4661 Middle Road",
    "city": "Winchester",
    "state": "VA",
    "zip": "22602",
    "phone": null,
    "fax": null,
    "email": null,
    "website": "http://www.freefood.org/",
    "hours": "Wednesday 6-7pm and emergency food boxes\r\n                                    \r\n                                                                        \n* Important: Please call the food pantries to confirm that the hours have not changed. We do our best to provide full information and details, but food pantries often change their hours without notifying us. We do not want you to waste your time visiting a pantry that is not open.",
    "description": null,
    "requirements": null,
    "scraped_at": "2025-11-02T19:08:44.274304",
    "latitude": 39.1608788,
    "longitude": -78.1844991,
    "geocoded_address": "Middle Road, Winchester, Virginia, 22601, United States of America"
  },
  {
    "url": "https://www.foodpantries.org/li/wv_26763_springfield-food-pantry",
    "name": "Springfield Food Pantry",
    "address": "9367 Cumberland Rd",
    "city": "Springfield",
    "state": "WV",
    "zip": "26763",
    "phone": "(304) 822-5759",
    "fax": null,
    "email": null,
    "website": "http://www.freefood.org/",
    "hours": "Tuesday\r\n 10:00am - 1:00pm\n\r\nFor more information, please call.",
    "description": null,
    "requirements": null,
    "scraped_at": "2025-11-02T19:08:46.491613",
    "latitude": 39.4570062,
    "longitude": -78.6975339,
    "geocoded_address": "Cumberland Road, Springfield, Hampshire County, West Virginia, 26763, United States of America"
  },
  {
    "url": "https://www.foodpantries.org/li/victory_church_22601",
    "name": "Victory Church",
    "address": "2870 Middle Road",
    "city": "Winchester",
    "state": "VA",
    "zip": "22601",
    "phone": "(540) 667-9400",
    "fax": null,
    "email": null,
    "website": "http://www.freefood.org/",
    "hours": "Wednesday 1:00am - 2:30pmFor more information, please call. \nCounty or Counties Served: Winchester City",
    "description": null,
    "requirements": "Proof of residency, ID's or birth certificates for all in household For more information, please call.  \nGo To Details Page For More Information",
    "scraped_at": "2025-11-02T19:08:48.782910",
    "latitude": 39.1522671,
    "longitude": -78.1968365,
    "geocoded_address": "Victory Church, 2870, Middle Road, Winchester, Frederick County, Virginia, 22601, United States of America"
  },
  {
    "url": "https://www.foodpantries.org/li/lord-fairfax-area-food-bank",
    "name": "Blue Ridge Area Food Bank - Lord Fairfax Area Branch",
    "address": "1802 Roberts Street",
    "city": "Winchester",
    "state": "VA",
    "zip": "22601",
    "phone": "(540) 665-0770",
    "fax": "(540) 722-4217",
    "email": null,
    "website": "https://www.brafb.org",
    "hours": "Wednesday \r\n 4:00pm - 6:00pm \r\n \r\nFor more information, please call.",
    "description": null,
    "requirements": "Proof of residency, ID's or birth certificates for all in household For more information, please call.  \nGo To Details Page For More Information",
    "scraped_at": "2025-11-02T19:08:50.875756",
    "latitude": 39.1692722,
    "longitude": -78.177254,
    "geocoded_address": "1802, Roberts Street, Winchester, Virginia, 22601, United States of America"
  },
  {
    "url": "https://www.foodpantries.org/li/hope-again-care-center",
    "name": "Hope Again Care Center - Wincog",
    "address": "213 South Braddock Street",
    "city": "Winchester",
    "state": "VA",
    "zip": "22601",
    "phone": "(540) 450-8935",
    "fax": null,
    "email": null,
    "website": "https://wincog.com",
    "hours": "Tuesday and Wednesday\r\n 10:00 am - 2:00 pm \r\n1st - 4th Saturday of the month\r\n9:00 am- 12:00 pm \n\r\nWe are an outreach ministry of Winchester Church of God.  We offer devotion and prayer with every family who comes into hope Again. New clients are welcome during any hours of operation and we offer appointments for  clients to return for assistance once per month.\n\r\nFor more information, please call. \nCounty or Counties Served: Winchester City",
    "description": null,
    "requirements": "Proof of residency, ID's or birth certificates for all in household For more information, please call.  \nGo To Details Page For More Information",
    "scraped_at": "2025-11-02T19:08:54.620586",
    "latitude": 39.1820951,
    "longitude": -78.1683363,
    "geocoded_address": "213, South Braddock Street, Winchester, Virginia, 22601, United States of America"
  },
  {
    "url": "https://www.foodpantries.org/li/celebration_fellowship_22601",
    "name": "Celebration Fellowship",
    "address": "16 North Braddock Street",
    "city": "Winchester",
    "state": "VA",
    "zip": "22601",
    "phone": null,
    "fax": null,
    "email": null,
    "website": "http://www.freefood.org/",
    "hours": "1st and 3rd Saturday every month 9am-noon\r\n                                    \r\n                                                                        \n* Important: Please call the food pantries to confirm that the hours have not changed. We do our best to provide full information and details, but food pantries often change their hours without notifying us. We do not want you to waste your time visiting a pantry that is not open.",
    "description": null,
    "requirements": "Proof of residency, ID's or birth certificates for all in household For more information, please call.  \nGo To Details Page For More Information",
    "scraped_at": "2025-11-02T19:08:57.189672",
    "latitude": 39.184989,
    "longitude": -78.1668192,
    "geocoded_address": "16, North Braddock Street, Old Town Winchester, Winchester, Virginia, 22601, United States of America"
  },
  {
    "url": "https://www.foodpantries.org/li/jubilee_soup_kitchen_at_first_presbyterian_church_22601",
    "name": "Jubilee Soup Kitchen at First Presbyterian Church",
    "address": "116 South Loudoun Street",
    "city": "Winchester",
    "state": "VA",
    "zip": "22601",
    "phone": "(540) 662-3824",
    "fax": "(540) 662-8498",
    "email": null,
    "website": "https://fpcwinc.org",
    "hours": "Saturday 11:30 am - 12:30 pmFor more information, please call. \nCounty or Counties Served: Winchester City",
    "description": null,
    "requirements": "Proof of residency, ID's or birth certificates for all in household For more information, please call.  \nGo To Details Page For More Information",
    "scraped_at": "2025-11-02T19:08:59.324617",
    "latitude": 39.1825976,
    "longitude": -78.1660835,
    "geocoded_address": "116, South Loudoun Street, Old Town Winchester, Winchester, Virginia, 22601, United States of America"
  },
  {
    "url": "https://www.foodpantries.org/li/kitchen-of-hope-market-street-umc",
    "name": "Kitchen of Hope - UMC",
    "address": "131 S. Cameron Street",
    "city": "Winchester",
    "state": "VA",
    "zip": "22601",
    "phone": null,
    "fax": null,
    "email": null,
    "website": "http://www.marketst.org",
    "hours": "Saturday 11:30 am - 12:30 pm  For more information, please call.  \nGo To Details Page For More Information",
    "description": null,
    "requirements": "Proof of residency, ID's or birth certificates for all in household For more information, please call.  \nGo To Details Page For More Information",
    "scraped_at": "2025-11-02T19:09:01.320173",
    "latitude": 39.1824782,
    "longitude": -78.1647603,
    "geocoded_address": "131, South Cameron Street, Winchester, Virginia, 22601, United States of America"
  },
  {
    "url": "https://www.foodpantries.org/li/the-salvation-army-of-logan-food-pantry",
    "name": "The Salvation Army",
    "address": "9 Commerce Park Circle",
    "city": "Chapmanville",
    "state": "WV",
    "zip": "25601",
    "phone": "(304) 688-8789",
    "fax": null,
    "email": null,
    "website": "http://www.freefood.org/",
    "hours": "Tuesday and Thursday 10:00am - 2:00pmRequirements: Must have Photo ID, proof that you receive government assistance such as Food Stamps or SNAP. We are only able to provide one food box per family/individual per month.We also provide other emergency assistance as well as Christmas Assistance with food baskets and Angel Tree.For more information, please call.\nCounty or Counties Served: Logan",
    "description": null,
    "requirements": "Must have Photo ID, proof that you receive government assistance such as Food Stamps or SNAP. We are only able to provide one food box per family/individual per month.We also provide other emergency assistance as well as Christmas Assistance with food baskets and Angel Tree.For more information, please call.\nCounty or Counties Served: Logan",
    "scraped_at": "2025-11-02T19:09:03.498019",
    "latitude": 37.9737114,
    "longitude": -82.0173502,
    "geocoded_address": "Chapmanville, Logan County, West Virginia, United States of America",
    "note": "Geocoded to city center (exact address not found)"
  },
  {
    "url": "https://www.foodpantries.org/li/first_presbyterian_church_logan_25601",
    "name": "First Presbyterian Church Logan",
    "address": "622 Stratton Street",
    "city": "Logan",
    "state": "WV",
    "zip": "25601",
    "phone": "(304) 752-6232",
    "fax": "(304) 752-6252",
    "email": null,
    "website": "http://www.freefood.org/",
    "hours": "2nd Friday of every month\r\n                                    \r\n                                    County or Counties Served: Logan",
    "description": null,
    "requirements": "Must have Photo ID, proof that you receive government assistance such as Food Stamps or SNAP.   We are only able to provide one food box per family/individual per month.We als\nGo To Details Page For More Information",
    "scraped_at": "2025-11-02T19:09:06.807468",
    "latitude": 37.8427902,
    "longitude": -81.9773325,
    "geocoded_address": "Stratton Street, Logan, Logan County, West Virginia, 25601, United States of America"
  },
  {
    "url": "https://www.foodpantries.org/li/morrisvale-helping-hand-inc",
    "name": "Morrisvale Helping Hand, Inc.",
    "address": "30 Silvas Ln",
    "city": "Morrisvale",
    "state": "WV",
    "zip": "25565",
    "phone": "(304) 524-7087",
    "fax": null,
    "email": null,
    "website": "http://www.freefood.org/",
    "hours": "Monday - Friday ( 9 am - 4 pm) \nCounty or Counties Served: Boone & Lincoln \nArea covered: Morrisvale, Woodville, Julian, Alkol, Danville, Madison, Alum Creek, Hamlin\nServices offered: Clothing Distribution, Food Pantry, Disaster Relief, Elderly & Disabled Programs",
    "description": null,
    "requirements": "Must have Photo ID, proof that you receive government assistance such as Food Stamps or SNAP.   We are only able to provide one food box per family/individual per month.We als\nGo To Details Page For More Information",
    "scraped_at": "2025-11-02T19:09:08.859675",
    "latitude": 38.1359312,
    "longitude": -81.9123494,
    "geocoded_address": "Morrisvale, Boone County, West Virginia, 25565, United States of America",
    "note": "Geocoded to city center (exact address not found)"
  },
  {
    "url": "https://www.foodpantries.org/li/lincoln_county_opportunity_company_25523",
    "name": "Lincoln County Opportunity Company",
    "address": "360 Main Street",
    "city": "Hamlin",
    "state": "WV",
    "zip": "25523",
    "phone": "(304) 824-3448",
    "fax": null,
    "email": null,
    "website": "http://www.freefood.org/",
    "hours": "Mondays through Fridays 8:00am - 4:00pm\r\n                                    \r\n                                                                        \n* Important: Please call the food pantries to confirm that the hours have not changed. We do our best to provide full information and details, but food pantries often change their hours without notifying us. We do not want you to waste your time visiting a pantry that is not open.",
    "description": null,
    "requirements": null,
    "scraped_at": "2025-11-02T19:09:11.737960",
    "latitude": 38.2781033,
    "longitude": -82.1057426,
    "geocoded_address": "360, Main Street, New Hamlin, Hamlin, Lincoln County, West Virginia, 25523, United States of America"
  },
  {
    "url": "https://www.foodpantries.org/li/wv_25650_miracle-island-unlimited-food-pantry",
    "name": "Miracle Island Unlimited Food Pantry",
    "address": "777 Paradise Island Road",
    "city": "Verner",
    "state": "WV",
    "zip": "25650",
    "phone": "(304) 583-2825",
    "fax": null,
    "email": null,
    "website": "http://www.freefood.org/",
    "hours": "Saturday of the month, from 11:00AM to 2:00PM  Little Sparrow Food Pantry open their doors to offer assistance through their unique \u201cPick 12\u201d program, this special opportunity allows individuals to select 12 items from the pantry, along with 2 hygiene",
    "description": null,
    "requirements": "Must have Photo ID, proof that you receive government assistance such as Food Stamps or SNAP.   We are only able to provide one food box per family/individual per month.We als\nGo To Details Page For More Information",
    "scraped_at": "2025-11-02T19:09:13.679407",
    "latitude": 37.6634419,
    "longitude": -81.8503954,
    "geocoded_address": "Verner, Mingo County, West Virginia, 25650, United States of America",
    "note": "Geocoded to city center (exact address not found)"
  },
  {
    "url": "https://www.foodpantries.org/li/dunbar-institute_samaritan_center_25064",
    "name": "Dunbar-Institute Samaritan Center",
    "address": "223 16th Street",
    "city": "Dunbar",
    "state": "WV",
    "zip": "25064",
    "phone": "(304) 768-3828",
    "fax": null,
    "email": null,
    "website": "http://www.freefood.org/",
    "hours": "Monday, Wednesday and Friday\r\n10:00am - 12:00pm\n\r\nFor more information, please call. \nCounty or Counties Served: Kanawha",
    "description": null,
    "requirements": null,
    "scraped_at": "2025-11-02T19:09:18.255213",
    "latitude": 38.3586767,
    "longitude": -81.7467885,
    "geocoded_address": "223, 16th Street, Dunbar, Kanawha County, West Virginia, 25064, United States of America"
  },
  {
    "url": "https://www.foodpantries.org/li/wv_south-charleston_heart-and-hand-house-food-pantry",
    "name": "Heart and Hand House Food Pantry",
    "address": "212 D Street",
    "city": "South Charleston",
    "state": "WV",
    "zip": "25303",
    "phone": "(304) 744-6741",
    "fax": null,
    "email": null,
    "website": "http://www.freefood.org/",
    "hours": "Monday to Saturday: 10:00 am to 4:00 pmFood pantry serves people with a South Charleston address.Please bring proof of ID, proof of income, and proof of address. Documentation Required: Picture ID. Additional Services:Social ServicesThrift StoreChristmas ProgramCommunity Room Classes\nVolunteering Information:https://hhomwv.org/become-a-volunteer/\r\nEmail volunteers@hhomwv.org \nCounty or Counties Served: Kanawha",
    "description": null,
    "requirements": "ID \r\nReferral from the Drop In Center \r\nAdditional Services: \r\nService Center \r\nEmergency \nGo To Details Page For More Information",
    "scraped_at": "2025-11-02T19:09:20.245161",
    "latitude": 38.3647322,
    "longitude": -81.6935291,
    "geocoded_address": "212, D Street, South Charleston, Kanawha County, West Virginia, 25303, United States of America"
  },
  {
    "url": "https://www.foodpantries.org/li/wv_25302_st-paul-ame-church",
    "name": "St. Paul AME Church",
    "address": "1108 2nd Avenue",
    "city": "Charleston",
    "state": "WV",
    "zip": "25302",
    "phone": "(304) 343-3085",
    "fax": null,
    "email": null,
    "website": "https://stpaulamewv.org",
    "hours": "Wednesday 5:30pm to 7:00pm  Free to the public.  All are welcomed. For more information, please call. \nCounty or Counties Served: Kanawha",
    "description": null,
    "requirements": "ID \r\nReferral from the Drop In Center \r\nAdditional Services: \r\nService Center \r\nEmergency \nGo To Details Page For More Information",
    "scraped_at": "2025-11-02T19:09:23.114652",
    "latitude": 38.3640917,
    "longitude": -81.6583396,
    "geocoded_address": "1108, 2nd Avenue, West Side, Charleston, Kanawha County, West Virginia, 25302, United States of America"
  },
  {
    "url": "https://www.foodpantries.org/li/jefferson-county-community-ministries",
    "name": "Jefferson County Community Ministries",
    "address": "238 Washington Street",
    "city": "Charles Town",
    "state": "WV",
    "zip": "25414",
    "phone": "(304) 725-3186",
    "fax": "(304) 724-6380",
    "email": null,
    "website": "http://www.jccm.us",
    "hours": "Monday through Friday 9:00am to 12:00pmLast Saturday of the month9:00am to 12:00pm For information, please call. \nCounty or Counties Served: Jefferson",
    "description": null,
    "requirements": "Complete an application Provide a picture ID Be a residen\nGo To Details Page For More Information",
    "scraped_at": "2025-11-02T19:09:25.918907",
    "latitude": 39.2885548,
    "longitude": -77.8623769,
    "geocoded_address": "Jefferson County Community Ministries, 238, West Washington Street, Charles Town, Jefferson County, West Virginia, 25414, United States of America"
  },
  {
    "url": "https://www.foodpantries.org/li/jefferson-county-community-ministries-charles-town",
    "name": "Jefferson County Community Ministries Charles Town",
    "address": "238 W. Washington St.",
    "city": "Charles Town",
    "state": "WV",
    "zip": "25414",
    "phone": "(304) 725-3186",
    "fax": "(304) 724-6380",
    "email": null,
    "website": "http://www.jccm.us",
    "hours": "Typically the 4th Thursday of each month (Nov & Dec is the 3rd Thursday)4:00 pm - 5:30 pm  \nGo To Details Page For More Information",
    "description": null,
    "requirements": "Complete an application Provide a picture ID Be a residen\nGo To Details Page For More Information",
    "scraped_at": "2025-11-02T19:09:29.272849",
    "latitude": 39.2885548,
    "longitude": -77.8623769,
    "geocoded_address": "Jefferson County Community Ministries, 238, West Washington Street, Charles Town, Jefferson County, West Virginia, 25414, United States of America"
  },
  {
    "url": "https://www.foodpantries.org/li/wv_25443_food-pantry-covenant",
    "name": "Food Pantry at Covenant Church",
    "address": "7485 Shepherdstown Pike",
    "city": "Shepherdstown",
    "state": "WV",
    "zip": "25443",
    "phone": "(304) 876-2212",
    "fax": null,
    "email": null,
    "website": "http://www.freefood.org/",
    "hours": "Typically the 4th Thursday of each month (Nov & Dec is the 3rd Thursday)4:00 pm - 5:30 pm\nVolunteering Information:email pantry@covenant-mail.com \nCounty or Counties Served: Jefferson",
    "description": null,
    "requirements": "Complete an application Provide a picture ID Be a residen\nGo To Details Page For More Information",
    "scraped_at": "2025-11-02T19:09:31.642950",
    "latitude": 39.4114908,
    "longitude": -77.809669,
    "geocoded_address": "Covenant Baptist Church, 7485, Shepherdstown Pike, Shepherdstown, Jefferson County, West Virginia, 25443, United States of America"
  },
  {
    "url": "https://www.foodpantries.org/li/fish_of_clarke_county_22611",
    "name": "FISH of Clarke County Food Pantry",
    "address": "36 East Main Street",
    "city": "Berryville",
    "state": "VA",
    "zip": "22611",
    "phone": "(540) 955-1823",
    "fax": null,
    "email": null,
    "website": "http://www.freefood.org/",
    "hours": "Tuesday or Wednesday mornings, 8:00-10:00 am.Donations:Accepted any time they are open, DO NOT donate expired food items.For more information, please call.\nMission Statement\r\n               Our mission is to make sure everyone in Clarke County has access to the food, clothing, and support they need.\r\n            \nCounty or Counties Served: Clarke",
    "description": null,
    "requirements": "Proof of residency, ID's or birth certificates for all in household For more information, please call.  \nGo To Details Page For More Information",
    "scraped_at": "2025-11-02T19:09:33.604385",
    "latitude": 39.1459688,
    "longitude": -77.9655562,
    "geocoded_address": "East Main Street, Battletown, Berryville, Clarke County, Virginia, 22611, United States of America"
  },
  {
    "url": "https://www.foodpantries.org/li/va_20141_round-hill-united-methodist-church-food-pantry",
    "name": "Round Hill United Methodist Church Food Pantry",
    "address": "11 West Loudoun Street",
    "city": "Round Hill",
    "state": "VA",
    "zip": "20141",
    "phone": "(540) 338-4445",
    "fax": null,
    "email": null,
    "website": "http://roundhillumc.org",
    "hours": "Sunday at 3:00pm.",
    "description": null,
    "requirements": null,
    "scraped_at": "2025-11-02T19:09:35.608445",
    "latitude": 39.1327367,
    "longitude": -77.7703417,
    "geocoded_address": "11, West Loudoun Street, Round Hill, Loudoun County, Virginia, 20141, United States of America"
  },
  {
    "url": "https://www.foodpantries.org/li/va_20180_western-loudoun-food-pantry",
    "name": "Western Loudoun Food Pantry",
    "address": "12942 Lutheran Church Road",
    "city": "Lovettsville",
    "state": "VA",
    "zip": "20180",
    "phone": "(540) 822-5576",
    "fax": null,
    "email": null,
    "website": "http://www.freefood.org/",
    "hours": "March 13, April 17, and May 15 10:00 am to 11:00 am  Registration: Required through school liaisons or the number above.Volunteer: Email the above address and ask to get a callback from NancyFor more information, please call.\nCounty or Counties Served: Loudoun",
    "description": null,
    "requirements": null,
    "scraped_at": "2025-11-02T19:09:37.543085",
    "latitude": 39.2613175,
    "longitude": -77.6440423,
    "geocoded_address": "Lutheran Church Road, Lovettsville, Loudoun County, Virginia, 20180, United States of America"
  },
  {
    "url": "https://www.foodpantries.org/li/brunswick-food-bankbethany-house",
    "name": "Brunswick Food Bank - Beacon",
    "address": "601 E Potomac Street",
    "city": "Brunswick",
    "state": "MD",
    "zip": "21716",
    "phone": "(301) 834-9718",
    "fax": null,
    "email": null,
    "website": "http://www.freefood.org/",
    "hours": "Thursday 6:30pm - 8:30pmThe 1st Saturday of the month10:30am - 12:00pmFor more information, please call. \nCounty or Counties Served: Frederick",
    "description": null,
    "requirements": null,
    "scraped_at": "2025-11-02T19:09:39.570164",
    "latitude": 39.311558,
    "longitude": -77.6229918,
    "geocoded_address": "East Potomac Street, Brunswick, Frederick County, Maryland, 21712, United States of America"
  },
  {
    "url": "https://www.foodpantries.org/li/betteralife-food-pantry",
    "name": "BetterALife - Food Pantry",
    "address": "201 N Maple Street",
    "city": "Purcellville",
    "state": "VA",
    "zip": "20132",
    "phone": "(703) 727-8974",
    "fax": null,
    "email": null,
    "website": "http://www.freefood.org/",
    "hours": "Sunday at 3:00pm. \r\nAll other days are by appointment only as families are also provided food by appointment.",
    "description": null,
    "requirements": null,
    "scraped_at": "2025-11-02T19:09:42.436005",
    "latitude": 39.1366223,
    "longitude": -77.7145945,
    "geocoded_address": "Purcellville, Loudoun County, Virginia, United States of America",
    "note": "Geocoded to city center (exact address not found)"
  },
  {
    "url": "https://www.foodpantries.org/li/salvation_army_charleston_25302",
    "name": "Salvation Army - Charleston",
    "address": "301 Tennessee Avenue",
    "city": "Charleston",
    "state": "WV",
    "zip": "25302",
    "phone": "(304) 343-4548",
    "fax": null,
    "email": null,
    "website": "http://www.freefood.org/",
    "hours": "Monday - Friday 8:00am -11:30amFor more information, please call. \nCounty or Counties Served: Kanawha",
    "description": null,
    "requirements": "ID \r\nReferral from the Drop In Center \r\nAdditional Services: \r\nService Center \r\nEmergency \nGo To Details Page For More Information",
    "scraped_at": "2025-11-02T19:09:45.252832",
    "latitude": 38.35915,
    "longitude": -81.645114,
    "geocoded_address": "301, Tennessee Avenue, Fort Hill, East Side, Charleston, Kanawha County, West Virginia, 25302, United States of America"
  },
  {
    "url": "https://www.foodpantries.org/li/canaan_united_methodist_church_25302",
    "name": "Canaan United Methodist Church Food Pantry",
    "address": "401 Roane Street",
    "city": "Charleston",
    "state": "WV",
    "zip": "25302",
    "phone": "(304) 342-6553",
    "fax": null,
    "email": null,
    "website": "http://www.freefood.org/",
    "hours": "Monday and Thursday 1:00pm - 3:00pm\r\nFor more information, please call.",
    "description": null,
    "requirements": "ID \r\nReferral from the Drop In Center \r\nAdditional Services: \r\nService Center \r\nEmergency \nGo To Details Page For More Information",
    "scraped_at": "2025-11-02T19:09:47.129162",
    "latitude": 38.362217,
    "longitude": -81.64533,
    "geocoded_address": "401, Roane Street, West Side, East Side, Charleston, Kanawha County, West Virginia, 25302, United States of America"
  },
  {
    "url": "https://www.foodpantries.org/li/fishers-of-men-center",
    "name": "Fishers Of Men Center",
    "address": "847 Woodward Drive",
    "city": "Charleston",
    "state": "WV",
    "zip": "25387",
    "phone": "(304) 946-7292",
    "fax": null,
    "email": null,
    "website": "http://www.freefood.org/",
    "hours": "Wednesday 1:00pm - 4:00pm  We offer:1. Hygiene closet first Wednesday of every month2. Food Pantry every Wednesday 3. Annual backpack giveaway for back to school grades K-124. Annual free Thanksgiving dinners to go5. A monthly senior citizen box which includes 40lbs of food and a block of Government cheese (must be 60+)6. Awanas Ministry for all ages7. Puppet MinistryFor more information, please call. \nCounty or Counties Served: Kanawha",
    "description": null,
    "requirements": "ID \r\nReferral from the Drop In Center \r\nAdditional Services: \r\nService Center \r\nEmergency \nGo To Details Page For More Information",
    "scraped_at": "2025-11-02T19:09:49.091858",
    "latitude": 38.378795,
    "longitude": -81.6762964,
    "geocoded_address": "847, Woodward Drive, North Charleston, Charleston, Kanawha County, West Virginia, 25387, United States of America"
  },
  {
    "url": "https://www.foodpantries.org/li/mountain_mission_25312",
    "name": "Mountain Mission",
    "address": "1620 7th Avenue",
    "city": "Charleston",
    "state": "WV",
    "zip": "25312",
    "phone": "(304) 344-3407",
    "fax": null,
    "email": null,
    "website": "http://www.freefood.org/",
    "hours": "Monday through Friday 8:00am - 5:00pmFor more information, please call.\nCounty or Counties Served: Kanawha",
    "description": null,
    "requirements": "ID \r\nReferral from the Drop In Center \r\nAdditional Services: \r\nService Center \r\nEmergency \nGo To Details Page For More Information",
    "scraped_at": "2025-11-02T19:09:51.376508",
    "latitude": 38.3717075,
    "longitude": -81.6631614,
    "geocoded_address": "1620, 7th Avenue, West Side, Charleston, Kanawha County, West Virginia, 25387, United States of America"
  },
  {
    "url": "https://www.foodpantries.org/li/wv_25302_hissom-inter-city-mission-spring-street-food-pantry",
    "name": "Hissom Inter-City Mission Spring Street Food Pantry",
    "address": "1305 Pennsylvania Ave",
    "city": "Charleston",
    "state": "WV",
    "zip": "25302",
    "phone": "(681) 265-1747",
    "fax": null,
    "email": null,
    "website": "http://www.freefood.org/",
    "hours": "Every Tuesday from 1:00PM to 4:00 PM \r\nFree lunches service hours:\r\nMonday - Friday 12:00PM - 2:00 PM at the church.\r\nClothes Closet Hours:\r\nOpen in the church 12:00-2:00 PM.",
    "description": null,
    "requirements": "ID \r\nReferral from the Drop In Center \r\nAdditional Services: \r\nService Center \r\nEmergency \nGo To Details Page For More Information",
    "scraped_at": "2025-11-02T19:09:53.660204",
    "latitude": 38.3598649,
    "longitude": -81.6272366,
    "geocoded_address": "1305, Pennsylvania Avenue, Charleston, Kanawha County, West Virginia, 25302, United States of America"
  },
  {
    "url": "https://www.foodpantries.org/li/the-lords-pantry-shinnston",
    "name": "The Lord's Pantry",
    "address": "PO Box 64",
    "city": "Shinnston",
    "state": "WV",
    "zip": "26431",
    "phone": null,
    "fax": null,
    "email": null,
    "website": "http://www.freefood.org/",
    "hours": "Tuesday 9:30am - 1:00pm  For more information, please call.  \nGo To Details Page For More Information",
    "description": null,
    "requirements": null,
    "scraped_at": "2025-11-02T19:09:56.218143",
    "latitude": 39.3953654,
    "longitude": -80.3008402,
    "geocoded_address": "Shinnston, Harrison County, West Virginia, United States of America",
    "note": "Geocoded to city center (exact address not found)"
  },
  {
    "url": "https://www.foodpantries.org/li/soup-opera",
    "name": "Soup Opera",
    "address": "425 Quincy St.",
    "city": "Fairmont",
    "state": "WV",
    "zip": "26554",
    "phone": "(304) 367-1098",
    "fax": null,
    "email": null,
    "website": "http://www.freefood.org/",
    "hours": "Monday - Friday \r\n 8:00am - 4:00pm \r\n \r\nFor more information, please call.",
    "description": null,
    "requirements": null,
    "scraped_at": "2025-11-02T19:09:59.092836",
    "latitude": 39.4861083,
    "longitude": -80.1405297,
    "geocoded_address": "425, Quincy Street, Palatine, Fairmont, Marion County, West Virginia, 26554, United States of America"
  },
  {
    "url": "https://www.foodpantries.org/li/north_central_wv_community_action_county_of_marion_26554",
    "name": "North Central WV Community Action - County of Marion",
    "address": "1304 Goose Run Road",
    "city": "Fairmont",
    "state": "WV",
    "zip": "26554",
    "phone": "(304) 363-2170",
    "fax": "(304) 366-8846",
    "email": null,
    "website": "https://ncwvcaacorp.net",
    "hours": "Monday - Friday\r\n 8:00am - 4:00pm\n\r\nFor more information, please call. \nCounty or Counties Served: Marion",
    "description": null,
    "requirements": null,
    "scraped_at": "2025-11-02T19:10:01.130070",
    "latitude": 39.4796406,
    "longitude": -80.1769386,
    "geocoded_address": "Goose Run Road, Edgemont, Fairmont, Marion County, West Virginia, 26554, United States of America"
  },
  {
    "url": "https://www.foodpantries.org/li/wv_mannington_mannington-food-pantry",
    "name": "Mannington Food Pantry",
    "address": "811 E Main Street",
    "city": "Mannington",
    "state": "WV",
    "zip": "26582",
    "phone": "(304) 986-2147",
    "fax": null,
    "email": null,
    "website": "http://www.freefood.org/",
    "hours": "Wednesday: 9:00 am to 12:00 pmEligibility:Serving: Marion County  Notes:May only receive assistance one time per month\nCounty or Counties Served: Marion",
    "description": null,
    "requirements": null,
    "scraped_at": "2025-11-02T19:10:04.187752",
    "latitude": 39.5253572,
    "longitude": -80.3362233,
    "geocoded_address": "811, East Main Street, Homewood, Mannington, Marion County, West Virginia, 26582, United States of America"
  },
  {
    "url": "https://www.foodpantries.org/li/wv_26354_taylor-county-family-resources",
    "name": "Taylor County Family Resources",
    "address": "105 Beech Street",
    "city": "Grafton",
    "state": "WV",
    "zip": "26354",
    "phone": "(304) 365-6838",
    "fax": null,
    "email": null,
    "website": "http://www.freefood.org/",
    "hours": "Monday - Friday\r\n8:00am -4:00pm\r\nClosed most holidays. \n\r\nFor more information, please call .\nVolunteering Information:Volunteer by reaching out by phone or email and asking to speak with Cathy or Lisa. \nCounty or Counties Served: Taylor",
    "description": null,
    "requirements": null,
    "scraped_at": "2025-11-02T19:10:06.710489",
    "latitude": 39.3377494,
    "longitude": -80.0256714,
    "geocoded_address": "105, Beech Street, West Grafton, Grafton, Taylor County, West Virginia, 26354, United States of America"
  },
  {
    "url": "https://www.foodpantries.org/li/fairmont_marion_county_food_pantry_26554",
    "name": "Fairmont Marion County Food Pantry",
    "address": "107 Jefferson Street",
    "city": "Fairmont",
    "state": "WV",
    "zip": "26554",
    "phone": "(304) 363-7150",
    "fax": null,
    "email": null,
    "website": "http://www.freefood.org/",
    "hours": "Wednesday:\r\n9:00am - 12:00pm\n\r\nFor more information, please call.\r\n                                    \r\n                                    County or Counties Served: Marion",
    "description": null,
    "requirements": null,
    "scraped_at": "2025-11-02T19:10:08.875398",
    "latitude": 39.4834242,
    "longitude": -80.1418843,
    "geocoded_address": "107, Jefferson Street, Palatine, Fairmont, Marion County, West Virginia, 26554, United States of America"
  },
  {
    "url": "https://www.foodpantries.org/li/hillview_baptist_church_food_pantry_26554",
    "name": "Hillview Baptist Church Food Pantry",
    "address": "Rt 8 Box 394-C",
    "city": "Fairmont",
    "state": "WV",
    "zip": "26554",
    "phone": "(304) 363-0530",
    "fax": null,
    "email": null,
    "website": "http://www.freefood.org/",
    "hours": "Third Thursday of the month\r\n                                    \r\n                                                                        \n* Important: Please call the food pantries to confirm that the hours have not changed. We do our best to provide full information and details, but food pantries often change their hours without notifying us. We do not want you to waste your time visiting a pantry that is not open.",
    "description": null,
    "requirements": null,
    "scraped_at": "2025-11-02T19:10:10.902343",
    "latitude": 39.4850848,
    "longitude": -80.1425781,
    "geocoded_address": "Fairmont, Marion County, West Virginia, 26554, United States of America",
    "note": "Geocoded to city center (exact address not found)"
  },
  {
    "url": "https://www.foodpantries.org/li/wv_24426_south-covington-united-methodist",
    "name": "South Covington United Methodist",
    "address": "1911 S. Kadel Ave.",
    "city": "Covington",
    "state": "WV",
    "zip": "24426",
    "phone": "(540) 962-6377",
    "fax": null,
    "email": null,
    "website": "http://www.freefood.org/",
    "hours": "2nd Monday every month 2-4pm\nGo To Details Page For More Information",
    "description": null,
    "requirements": null,
    "scraped_at": "2025-11-02T19:10:13.928569",
    "latitude": 37.9443355,
    "longitude": -80.0784858,
    "geocoded_address": "Huntersville & Covington Turnpike, Greenbrier County, West Virginia, United States of America",
    "note": "Geocoded to city center (exact address not found)"
  },
  {
    "url": "https://www.foodpantries.org/li/starting_points_wayne_county_25669",
    "name": "Starting Points - Wayne County",
    "address": "One School Rd. and Rt. 52",
    "city": "Crum",
    "state": "WV",
    "zip": "25669",
    "phone": "(304) 393-3886",
    "fax": null,
    "email": null,
    "website": "http://www.freefood.org/",
    "hours": "Monday-Friday: 8:00am - 4:00pm\r\n                                    \r\n                                                                        \n* Important: Please call the food pantries to confirm that the hours have not changed. We do our best to provide full information and details, but food pantries often change their hours without notifying us. We do not want you to waste your time visiting a pantry that is not open.",
    "description": null,
    "requirements": null,
    "scraped_at": "2025-11-02T19:10:16.953104",
    "latitude": 37.90565,
    "longitude": -82.4459823,
    "geocoded_address": "Crum, Wayne County, West Virginia, 25669, United States of America",
    "note": "Geocoded to city center (exact address not found)"
  },
  {
    "url": "https://www.foodpantries.org/li/appalachia_r-Inez-41224",
    "name": "Appalachia Reach Out",
    "address": "2596 Rockcastle Road",
    "city": "Inez",
    "state": "KY",
    "zip": "41224",
    "phone": "(606) 298-7470",
    "fax": null,
    "email": null,
    "website": "http://www.freefood.org/",
    "hours": "Wednesday 10:00am - 2:00pmFor more information, please call.\nCounty or Counties Served: Martin",
    "description": null,
    "requirements": null,
    "scraped_at": "2025-11-02T19:10:19.801204",
    "latitude": 37.8664833,
    "longitude": -82.5387633,
    "geocoded_address": "Inez, Martin County, Kentucky, 41224, United States of America",
    "note": "Geocoded to city center (exact address not found)"
  },
  {
    "url": "https://www.foodpantries.org/li/wayne_county_community_services_organization_25570",
    "name": "Wayne County Community Services Organization",
    "address": "8604 Vancouver Street",
    "city": "Fort Gay",
    "state": "WV",
    "zip": "25514",
    "phone": "(304) 648-5112",
    "fax": null,
    "email": null,
    "website": "http://www.wccso.org",
    "hours": "Monday-Friday: 8:00am - 4:00pm\nGo To Details Page For More Information",
    "description": null,
    "requirements": "Must be receiving SNAP benefits Provide a copy of the award letter stating the amount you receive With or without SNAP benefits, food can be provided once every 3 months  Additional Services:  Housing Referral Referrals to local shelter\nGo To Details Page For More Information",
    "scraped_at": "2025-11-02T19:10:23.182309",
    "latitude": 38.1167834,
    "longitude": -82.5943306,
    "geocoded_address": "Vancouver Street, Fort Gay, Wayne County, West Virginia, 25514, United States of America"
  },
  {
    "url": "https://www.foodpantries.org/li/wv-christs-kitchen",
    "name": "Christ's Kitchen",
    "address": "405 B Street",
    "city": "Saint Albans",
    "state": "WV",
    "zip": "25177",
    "phone": "(304) 932-9406",
    "fax": null,
    "email": null,
    "website": "http://www.freefood.org/",
    "hours": "Tuesday and Thursday9:30am - 11:00amFor more information, please call.\nCounty or Counties Served: Kanawha",
    "description": null,
    "requirements": null,
    "scraped_at": "2025-11-02T19:10:25.148627",
    "latitude": 38.3891693,
    "longitude": -81.8384147,
    "geocoded_address": "405, B Street, St. Albans, Kanawha County, West Virginia, 25177, United States of America"
  },
  {
    "url": "https://www.foodpantries.org/li/manna_ministries_25177",
    "name": "Manna Ministries",
    "address": "114 West Main Street",
    "city": "St Albans",
    "state": "WV",
    "zip": "25177",
    "phone": "(304) 727-6520",
    "fax": null,
    "email": null,
    "website": "http://www.freefood.org/",
    "hours": "Tuesday and Thursday 9:30am - 11:00am For more information, please call. \nGo To Details Page For More Information",
    "description": null,
    "requirements": null,
    "scraped_at": "2025-11-02T19:10:29.472950",
    "latitude": 38.3856488,
    "longitude": -81.836241,
    "geocoded_address": "St. Albans, Kanawha County, West Virginia, 25177, United States of America",
    "note": "Geocoded to city center (exact address not found)"
  },
  {
    "url": "https://www.foodpantries.org/li/north_central_wv_community_action_county_of_tucker_26287",
    "name": "North Central WV Community Action - County of Tucker",
    "address": "215 First St",
    "city": "Parsons",
    "state": "WV",
    "zip": "26287",
    "phone": "(304) 478-3536",
    "fax": null,
    "email": null,
    "website": "http://www.freefood.org/",
    "hours": "Monday-Wednesdays 8:00am - 4:00pm\r\n                                    \r\n                                                                        \n* Important: Please call the food pantries to confirm that the hours have not changed. We do our best to provide full information and details, but food pantries often change their hours without notifying us. We do not want you to waste your time visiting a pantry that is not open.",
    "description": null,
    "requirements": null,
    "scraped_at": "2025-11-02T19:10:32.418970",
    "latitude": 39.0968695,
    "longitude": -79.6809332,
    "geocoded_address": "Parsons, Tucker County, West Virginia, 26287, United States of America",
    "note": "Geocoded to city center (exact address not found)"
  },
  {
    "url": "https://www.foodpantries.org/li/shepherds-love-food-pantry",
    "name": "Shepherd's Love Food Pantry",
    "address": "101 Jasper Street",
    "city": "Rivesville",
    "state": "WV",
    "zip": "26588",
    "phone": "(304) 816-6046",
    "fax": null,
    "email": null,
    "website": "http://www.freefood.org/",
    "hours": "2nd and 3rd Saturday of each month 10:00 am - 11:30 amLocated at the Rivesville United Methodist Church, corner of Second St. and Jasper St. For more information, please call. Alternate number 304-278-7969\nCounty or Counties Served: Marion",
    "description": null,
    "requirements": null,
    "scraped_at": "2025-11-02T19:10:35.901684",
    "latitude": 39.5306007,
    "longitude": -80.1191452,
    "geocoded_address": "Jasper Street, Rivesville, Marion County, West Virginia, 26554, United States of America"
  },
  {
    "url": "https://www.foodpantries.org/li/starting_points_family_resource_center_waitman_barbe_eleme_26501",
    "name": "Starting Points Family Resource Center - Waitman Barbe Eleme",
    "address": "1702 River Rd",
    "city": "Morgantown",
    "state": "WV",
    "zip": "26501",
    "phone": "(304) 983-2432",
    "fax": null,
    "email": null,
    "website": "http://www.freefood.org/",
    "hours": "Monday-Friday: 9:00am - 12:00pm.\nGo To Details Page For More Information",
    "description": null,
    "requirements": null,
    "scraped_at": "2025-11-02T19:10:37.837115",
    "latitude": 39.5855052,
    "longitude": -80.0364361,
    "geocoded_address": "National Church of God, 1702, River Road, Delmar, Morgantown, Monongalia County, West Virginia, 26502, United States of America"
  },
  {
    "url": "https://www.foodpantries.org/li/north_central_wv_community_action_county_of_monongalia_26505",
    "name": "Monongalia County Starting Points Food Pantry",
    "address": "901 Mylan Park Lane",
    "city": "Morgantown",
    "state": "WV",
    "zip": "26501",
    "phone": "(304) 983-2432",
    "fax": null,
    "email": null,
    "website": "http://www.freefood.org/",
    "hours": "Monday-Friday8:00am - 4:00pmFor more information, please call.\nCounty or Counties Served: Monongalia",
    "description": null,
    "requirements": null,
    "scraped_at": "2025-11-02T19:10:40.269960",
    "latitude": 39.6296809,
    "longitude": -79.9559437,
    "geocoded_address": "Morgantown, Monongalia County, West Virginia, United States of America",
    "note": "Geocoded to city center (exact address not found)"
  },
  {
    "url": "https://www.foodpantries.org/li/catholic_community_services_morgantown_26505",
    "name": "Catholic Charities of WV",
    "address": "827 Fairmont Rd, Suite 203",
    "city": "Morgantown",
    "state": "WV",
    "zip": "26501",
    "phone": "(304) 292-6597",
    "fax": null,
    "email": null,
    "website": "http://www.freefood.org/",
    "hours": "Monday-Friday: 9:00am - 12:00pm.\r\n                                    \r\n                                                                        \n* Important: Please call the food pantries to confirm that the hours have not changed. We do our best to provide full information and details, but food pantries often change their hours without notifying us. We do not want you to waste your time visiting a pantry that is not open.",
    "description": null,
    "requirements": null,
    "scraped_at": "2025-11-02T19:10:43.151018",
    "latitude": 39.6296809,
    "longitude": -79.9559437,
    "geocoded_address": "Morgantown, Monongalia County, West Virginia, United States of America",
    "note": "Geocoded to city center (exact address not found)"
  },
  {
    "url": "https://www.foodpantries.org/li/food-pantry-catholic-community-services-morgantown",
    "name": "Food Pantry - Catholic Community Services - Morgantown",
    "address": "827 Fairmont Rd",
    "city": "Morgantown",
    "state": "WV",
    "zip": "26505",
    "phone": "(304) 292-6597",
    "fax": null,
    "email": null,
    "website": "http://www.freefood.org/",
    "hours": "Monday-Friday: 9:00am - 12:00pm.\nGo To Details Page For More Information",
    "description": null,
    "requirements": null,
    "scraped_at": "2025-11-02T19:10:46.137421",
    "latitude": 39.6296809,
    "longitude": -79.9559437,
    "geocoded_address": "Morgantown, Monongalia County, West Virginia, United States of America",
    "note": "Geocoded to city center (exact address not found)"
  },
  {
    "url": "https://www.foodpantries.org/li/scotts-run-settlement-house",
    "name": "Scott's Run Settlement House",
    "address": "41 Lady Bug Rd.",
    "city": "Osage",
    "state": "WV",
    "zip": "26543",
    "phone": null,
    "fax": null,
    "email": null,
    "website": "http://www.srsh.org/",
    "hours": "1st & 3rd Wednesday of the month 9:30 am - 12:30 pm  For more information, please call.  \nGo To Details Page For More Information",
    "description": null,
    "requirements": null,
    "scraped_at": "2025-11-02T19:10:48.997938",
    "latitude": 39.6587212,
    "longitude": -80.0075586,
    "geocoded_address": "Osage, Monongalia County, West Virginia, 26543, United States of America",
    "note": "Geocoded to city center (exact address not found)"
  },
  {
    "url": "https://www.foodpantries.org/li/huntington-area-food-bank",
    "name": "Facing Hunger FoodBank",
    "address": "1327 7th Ave.",
    "city": "Huntington",
    "state": "WV",
    "zip": "25701",
    "phone": "(304) 523-6029",
    "fax": "(304) 523-6086",
    "email": null,
    "website": "http://www.freefood.org/",
    "hours": "Last 2 Wednesday of the month 10:00am - 2:00pm Grace Food Pantry is located in Huntington WV ,as you know, needy families and individuals in our community go without proper food, due to a variety of factors including Veterans coming back home, low wages, educational level, job loss, injuries,\nGo To Details Page For More Information",
    "description": null,
    "requirements": "Must be receiving SNAP benefits Provide a copy of the award letter stating the amount you receive With or without SNAP benefits, food can be provided once every 3 months  Additional Services:  Housing Referral Referrals to local shelter\nGo To Details Page For More Information",
    "scraped_at": "2025-11-02T19:10:51.846434",
    "latitude": 38.4153691,
    "longitude": -82.4504856,
    "geocoded_address": "7th Avenue, Huntington, Cabell County, West Virginia, 25701, United States of America"
  },
  {
    "url": "https://www.foodpantries.org/li/ky_ashland_cares-food-pantry",
    "name": "Cares Food Pantry Assignment",
    "address": "2516 Carter Avenue",
    "city": "Ashland",
    "state": "KY",
    "zip": "41101",
    "phone": "(606) 324-2949",
    "fax": "(606) 324-6729",
    "email": null,
    "website": "http://www.freefood.org/",
    "hours": "The 4th Thursday of the month 11:00 am - 12:00 pm  For more information, please call.  \nGo To Details Page For More Information",
    "description": null,
    "requirements": "Must be receiving SNAP benefitsProvide a copy of the award letter stating the amount you receiveWith or without SNAP benefits, food can be provided once every 3 monthsAdditional Services:Housing ReferralReferrals to local sheltersUtility AssistanceRent AssistancePrescription AssistanceBirth Certificates & ID CardsBaby Care Items\nCounty or Counties Served: Boyd",
    "scraped_at": "2025-11-02T19:10:54.162555",
    "latitude": 38.4718549,
    "longitude": -82.628825,
    "geocoded_address": "2516, Carter Avenue, Geigers Crossing, Ashland, Boyd County, Kentucky, 41101, United States of America"
  },
  {
    "url": "https://www.foodpantries.org/li/cares",
    "name": "CARES Community Assistance & Referral Service, Inc.",
    "address": "2516 Carter Ave.",
    "city": "Ashland",
    "state": "KY",
    "zip": "41105",
    "phone": "(606) 324-2949",
    "fax": "(606) 324-6729",
    "email": null,
    "website": "http://www.freefood.org/",
    "hours": "The 4th Thursday of the month 11:00 am - 12:00 pm  For more information, please call.  \nGo To Details Page For More Information",
    "description": null,
    "requirements": "- Picture ID for everyone 18 and older in the household- Proof of income for everyone in the household (Either a months worth of pay stubs or current government letter stating amount received)- Last 2 bank statements (if applicable)- Social Security Numbers for everyone in the householdFor more information, please call. \nVolunteering Information:https://boydcountycares.org/volunteer \nCounty or Counties Served: Boyd",
    "scraped_at": "2025-11-02T19:10:56.367228",
    "latitude": 38.4718549,
    "longitude": -82.628825,
    "geocoded_address": "2516, Carter Avenue, Geigers Crossing, Ashland, Boyd County, Kentucky, 41101, United States of America"
  },
  {
    "url": "https://www.foodpantries.org/li/oh_45638_st-paul-lutheran-church",
    "name": "St. Paul Lutheran Church",
    "address": "101 S 6th Street",
    "city": "Ironton",
    "state": "OH",
    "zip": "45638",
    "phone": "(740) 532-4727",
    "fax": null,
    "email": null,
    "website": "http://www.freefood.org/",
    "hours": "The 4th Thursday of the month11:00 am - 12:00 pmFor more information, please call.\nCounty or Counties Served: Lawrence",
    "description": null,
    "requirements": "- Picture \nGo To Details Page For More Information",
    "scraped_at": "2025-11-02T19:10:58.818647",
    "latitude": 38.537064,
    "longitude": -82.682314,
    "geocoded_address": "101, South 6th Street, Fifth and Lawrence Streets Residential Historic District, Ironton, Lawrence County, Ohio, 45638, United States of America"
  },
  {
    "url": "https://www.foodpantries.org/li/harvest-for-the-hungry",
    "name": "Harvest for the Hungry Food Pantry",
    "address": "120 N. 5th Street",
    "city": "Ironton",
    "state": "OH",
    "zip": "45638",
    "phone": "(740) 532-9918",
    "fax": null,
    "email": null,
    "website": "http://www.freefood.org/",
    "hours": "Monday and Wednesday 9:00am - 12:00pmFor more information, please call.",
    "description": null,
    "requirements": "- Picture \nGo To Details Page For More Information",
    "scraped_at": "2025-11-02T19:11:01.142702",
    "latitude": 38.5370725,
    "longitude": -82.6840338,
    "geocoded_address": "120, North 5th Street, Fifth and Lawrence Streets Residential Historic District, Ironton, Lawrence County, Ohio, 45638, United States of America"
  },
  {
    "url": "https://www.foodpantries.org/li/mountaineer-food-bank",
    "name": "Mountaineer Food Bank",
    "address": "484 Enterprise Drive",
    "city": "Gassaway",
    "state": "WV",
    "zip": "26624",
    "phone": "(304) 364-5518",
    "fax": null,
    "email": null,
    "website": "http://www.freefood.org/",
    "hours": "Monday-Friday 0800 - 1600\nGo To Details Page For More Information",
    "description": null,
    "requirements": null,
    "scraped_at": "2025-11-02T19:11:03.285043",
    "latitude": 38.6732278,
    "longitude": -80.7746622,
    "geocoded_address": "Gassaway, Braxton County, West Virginia, 26624, United States of America",
    "note": "Geocoded to city center (exact address not found)"
  },
  {
    "url": "https://www.foodpantries.org/li/mountain_cap_of_wv_a_cdc_braxton_office_26601",
    "name": "Mountain CAP of WV, a CDC - Braxton Office",
    "address": "105 Jerry Burton Drive",
    "city": "Sutton",
    "state": "WV",
    "zip": "26601",
    "phone": "(304) 765-7738",
    "fax": null,
    "email": null,
    "website": "http://www.freefood.org/",
    "hours": "Monday-Friday 0800 - 1600\r\n                                    \r\n                                                                        \n* Important: Please call the food pantries to confirm that the hours have not changed. We do our best to provide full information and details, but food pantries often change their hours without notifying us. We do not want you to waste your time visiting a pantry that is not open.",
    "description": null,
    "requirements": null,
    "scraped_at": "2025-11-02T19:11:06.685472",
    "latitude": 38.6641653,
    "longitude": -80.7093066,
    "geocoded_address": "Sutton, Braxton County, West Virginia, United States of America",
    "note": "Geocoded to city center (exact address not found)"
  },
  {
    "url": "https://www.foodpantries.org/li/wv-little-birch-southern-baptist-food-pantry",
    "name": "Little Birch Southern Baptist - Food Pantry",
    "address": "4857 Old Turnpike Rd.",
    "city": "Little Birch",
    "state": "WV",
    "zip": "26629",
    "phone": "(304) 765-7023",
    "fax": null,
    "email": null,
    "website": "http://www.freefood.org/",
    "hours": "Monday-Friday 0800 - 1600\nGo To Details Page For More Information",
    "description": null,
    "requirements": null,
    "scraped_at": "2025-11-02T19:11:09.792344",
    "latitude": 38.5756791,
    "longitude": -80.7024324,
    "geocoded_address": "Old Turnpike Road, Little Birch, Braxton County, West Virginia, 26629, United States of America"
  },
  {
    "url": "https://www.foodpantries.org/li/community_resources_gilmer_county_26351",
    "name": "Community Resources - Gilmer County",
    "address": "102 E Main Street",
    "city": "Glenville",
    "state": "WV",
    "zip": "26351",
    "phone": "(304) 462-8698",
    "fax": null,
    "email": null,
    "website": "https://cricap.org",
    "hours": "Monday - Friday\r\n 8:00am - 4:00pm (Closed Holidays)",
    "description": null,
    "requirements": null,
    "scraped_at": "2025-11-02T19:11:12.015443",
    "latitude": 38.9336422,
    "longitude": -80.8369603,
    "geocoded_address": "102, East Main Street, Pine Manor, Glenville, Gilmer County, West Virginia, 26351, United States of America"
  },
  {
    "url": "https://www.foodpantries.org/li/risen_lord_catholic_church_25133",
    "name": "Risen Lord Catholic Church",
    "address": "67 Wallback Road",
    "city": "Maysel",
    "state": "WV",
    "zip": "25133",
    "phone": "(304) 587-4740",
    "fax": null,
    "email": null,
    "website": "http://www.freefood.org/",
    "hours": "Fourth Thursday of the month: 9am - 12pm\r\n                                    \r\n                                                                        \n* Important: Please call the food pantries to confirm that the hours have not changed. We do our best to provide full information and details, but food pantries often change their hours without notifying us. We do not want you to waste your time visiting a pantry that is not open.",
    "description": null,
    "requirements": null,
    "scraped_at": "2025-11-02T19:11:14.244803",
    "latitude": 38.4859334,
    "longitude": -81.1126102,
    "geocoded_address": "Maysel, Clay County, West Virginia, 25133, United States of America",
    "note": "Geocoded to city center (exact address not found)"
  },
  {
    "url": "https://www.foodpantries.org/li/community_resources_calhoun_county_26147",
    "name": "Community Resources - Calhoun County",
    "address": "258 Court Street",
    "city": "Grantsville",
    "state": "WV",
    "zip": "26147",
    "phone": "(304) 354-9265",
    "fax": null,
    "email": null,
    "website": "http://www.freefood.org/",
    "hours": "Monday - Friday\r\n 8:00am - 4:30pm\n\r\nFor more information, please call. \nCounty or Counties Served: Calhoun",
    "description": null,
    "requirements": null,
    "scraped_at": "2025-11-02T19:11:17.126087",
    "latitude": 38.9247308,
    "longitude": -81.0965847,
    "geocoded_address": "258, Court Street, Grantsville, Calhoun County, West Virginia, 26147, United States of America"
  },
  {
    "url": "https://www.foodpantries.org/li/community_resources_ritchie_county_26346",
    "name": "Community Resources - Ritchie County",
    "address": "633 S Spring Street",
    "city": "Harrisville",
    "state": "WV",
    "zip": "26362",
    "phone": "(304) 643-2332",
    "fax": null,
    "email": null,
    "website": "http://www.freefood.org/",
    "hours": "Monday - Friday\r\n 8:00am - 4:00pm\r\n (Closed Holidays)\n\r\nFor more information,please call. \nCounty or Counties Served: Ritchie",
    "description": null,
    "requirements": null,
    "scraped_at": "2025-11-02T19:11:19.292880",
    "latitude": 39.2000186,
    "longitude": -81.0434954,
    "geocoded_address": "Spring Street, Harrisville, Ritchie County, West Virginia, 26362, United States of America"
  },
  {
    "url": "https://www.foodpantries.org/li/valley_food_pantry_26542",
    "name": "Valley Food Pantry - The Masontown United Methodist Church",
    "address": "Rt 1 Box  266",
    "city": "Masontown",
    "state": "WV",
    "zip": "26542",
    "phone": "(304) 864-5515",
    "fax": null,
    "email": null,
    "website": "http://www.freefood.org/",
    "hours": "The 1st Saturday of the month8:00am - 2:00pmRequirements: State issued picture IDFor more information, please call. \nCounty or Counties Served: Preston",
    "description": null,
    "requirements": "State issued picture IDFor more information, please call. \nCounty or Counties Served: Preston",
    "scraped_at": "2025-11-02T19:11:22.467896",
    "latitude": 39.552306,
    "longitude": -79.7978358,
    "geocoded_address": "Masontown, Preston County, West Virginia, United States of America",
    "note": "Geocoded to city center (exact address not found)"
  },
  {
    "url": "https://www.foodpantries.org/li/food-pantry-we-care-food-share",
    "name": "Food Pantry-We Care Food Share",
    "address": "107 W Beverly St",
    "city": "Kingwood",
    "state": "WV",
    "zip": "26537",
    "phone": "(304) 329-2381",
    "fax": null,
    "email": null,
    "website": "http://www.freefood.org/",
    "hours": "Monday-Friday: 8:00am - 4:00pm\nGo To Details Page For More Information",
    "description": null,
    "requirements": "State issued picture ID  For more information, please call.  \nGo To Details Page For More Information",
    "scraped_at": "2025-11-02T19:11:25.368927",
    "latitude": 39.468502,
    "longitude": -79.6992503,
    "geocoded_address": "107, West Beverly Street, Kingwood, Preston County, West Virginia, 26537, United States of America"
  },
  {
    "url": "https://www.foodpantries.org/li/community_resources_roane_county_25276",
    "name": "Roane County Comm Resources",
    "address": "811 Madison Ave.",
    "city": "Spencer",
    "state": "WV",
    "zip": "25276",
    "phone": "(304) 927-4632",
    "fax": null,
    "email": null,
    "website": "http://www.freefood.org/",
    "hours": "Monday - Friday\r\n 800am - 4:30pm\r\nClosed Holidays\n\r\nFor more information, please call. \nCounty or Counties Served: Roane",
    "description": null,
    "requirements": null,
    "scraped_at": "2025-11-02T19:11:27.877341",
    "latitude": 38.794329,
    "longitude": -81.3546206,
    "geocoded_address": "811, Madison Avenue, Holswade Addition, Spencer, Roane County, West Virginia, 25276, United States of America"
  },
  {
    "url": "https://www.foodpantries.org/li/community_resources_pleasants_county_26170",
    "name": "Community Resources - Pleasants County",
    "address": "212 Second Street",
    "city": "St. Marys",
    "state": "WV",
    "zip": "26170",
    "phone": "(304) 684-3461",
    "fax": null,
    "email": null,
    "website": "http://www.freefood.org/",
    "hours": "Monday-Friday\r\n 8:30am - 4:30pm (Closed Holidays)\n\r\nFor more information, please call.",
    "description": null,
    "requirements": "Photo ID Proof of residency\nGo To Details Page For More Information",
    "scraped_at": "2025-11-02T19:11:29.782873",
    "latitude": 39.391742,
    "longitude": -81.2051132,
    "geocoded_address": "St. Marys, Pleasants County, West Virginia, 26170, United States of America",
    "note": "Geocoded to city center (exact address not found)"
  },
  {
    "url": "https://www.foodpantries.org/li/wv_union_monroe-county-coalition-for-children-and-fami",
    "name": "Monroe County Coalition for Children and Families - Food Pantry",
    "address": "60 Shanklin Avenue",
    "city": "Union",
    "state": "WV",
    "zip": "24983",
    "phone": "(304) 772-5960",
    "fax": null,
    "email": null,
    "website": "http://www.freefood.org/",
    "hours": "Monday-Friday \r\n8:00am - 4:00pm \r\n \r\nFor more information, please call.",
    "description": null,
    "requirements": null,
    "scraped_at": "2025-11-02T19:11:33.027698",
    "latitude": 37.5907532,
    "longitude": -80.5412942,
    "geocoded_address": "60, Shanklin Avenue, Union, Monroe County, West Virginia, 24983, United States of America"
  },
  {
    "url": "https://www.foodpantries.org/li/new-river-community-action-giles-food-bank",
    "name": "New River Community Action - Giles Food Bank",
    "address": "516 B Wenonah Ave",
    "city": "Pearisburg",
    "state": "VA",
    "zip": "24134",
    "phone": "(540) 921-2146",
    "fax": "(540) 921-1723",
    "email": null,
    "website": "http://www.freefood.org/",
    "hours": "Monday to Friday: 11:00 am to 12:30pm \nGo To Details Page For More Information",
    "description": null,
    "requirements": null,
    "scraped_at": "2025-11-02T19:11:34.968571",
    "latitude": 37.3265408,
    "longitude": -80.7063109,
    "geocoded_address": "Wenonah Avenue, Pearisburg, Giles County, Virginia, 24134, United States of America"
  },
  {
    "url": "https://www.foodpantries.org/li/wv_24844_rock-springs-ministries-inc-little-sparrow-food-pantry",
    "name": "Rock Springs Ministries, Inc & Little Sparrow Food Pantry",
    "address": "201 West Virginia Ave",
    "city": "Iaeger",
    "state": "WV",
    "zip": "24844",
    "phone": "(304) 784-7659",
    "fax": null,
    "email": null,
    "website": "https://rsmiwv.com/",
    "hours": null,
    "description": null,
    "requirements": null,
    "scraped_at": "2025-11-02T19:11:37.655747",
    "latitude": 37.462987,
    "longitude": -81.815957,
    "geocoded_address": "201, West Virginia Avenue, Nacols, Iaeger, McDowell County, West Virginia, 24844, United States of America"
  },
  {
    "url": "https://www.foodpantries.org/li/va_richlands_good-samaritan-food-pantry",
    "name": "Good Samaritan Food Pantry in Richlands, Virginia",
    "address": "106 Veteran's Drive",
    "city": "Richlands",
    "state": "VA",
    "zip": "24641",
    "phone": "(276) 963-9197",
    "fax": null,
    "email": null,
    "website": "http://www.freefood.org/",
    "hours": "Tuesday, Thursday & Friday: 8:00 am to 4:00 pm\nCounty or Counties Served: Tazewell",
    "description": null,
    "requirements": null,
    "scraped_at": "2025-11-02T19:11:39.577554",
    "latitude": 37.0877898,
    "longitude": -81.8073454,
    "geocoded_address": "106, Veteran's Drive, Richlands, Tazewell County, Virginia, 24641, United States of America"
  },
  {
    "url": "https://www.foodpantries.org/li/north_central_wv_community_action_county_of_preston_26537",
    "name": "North Central WV Community Action - County of Preston",
    "address": "109 E Main St",
    "city": "Kingwood",
    "state": "WV",
    "zip": "26537",
    "phone": "(304) 329-1028",
    "fax": null,
    "email": null,
    "website": "http://www.freefood.org/",
    "hours": "Monday-Friday: 8:00am - 4:00pm\r\n                                    \r\n                                                                        \n* Important: Please call the food pantries to confirm that the hours have not changed. We do our best to provide full information and details, but food pantries often change their hours without notifying us. We do not want you to waste your time visiting a pantry that is not open.",
    "description": null,
    "requirements": "State issued picture ID  For more information, please call.  \nGo To Details Page For More Information",
    "scraped_at": "2025-11-02T19:11:43.975721",
    "latitude": 39.4678836,
    "longitude": -79.6685802,
    "geocoded_address": "109, East Main Street, Kingwood, Preston County, West Virginia, 26537, United States of America"
  },
  {
    "url": "https://www.foodpantries.org/li/community_action-preston_26537",
    "name": "Community Action-Preston",
    "address": "428 Morgantown Street",
    "city": "Kingwood",
    "state": "WV",
    "zip": "26537",
    "phone": "(304) 329-1028",
    "fax": "(304) 329-1170",
    "email": null,
    "website": "http://www.ncwvcaa.org",
    "hours": "Monday - Friday 8:00am - 4:00pmFor more information, please call.\nCounty or Counties Served: Preston",
    "description": null,
    "requirements": "State issued picture ID  For more information, please call.  \nGo To Details Page For More Information",
    "scraped_at": "2025-11-02T19:11:46.168608",
    "latitude": 39.4773835,
    "longitude": -79.7021654,
    "geocoded_address": "428, Morgantown Street, Kingwood, Preston County, West Virginia, 26537, United States of America"
  },
  {
    "url": "https://www.foodpantries.org/li/covenant_evangelical_methodist_food_pantry_26505",
    "name": "Covenant Evangelical Methodist Food Pantry",
    "address": "802 Greenbag Rd",
    "city": "Morgantown",
    "state": "WV",
    "zip": "26505",
    "phone": "(304) 292-6050",
    "fax": null,
    "email": null,
    "website": "http://www.freefood.org/",
    "hours": "Monday-Friday: 9:00am - 12:00pm.\nGo To Details Page For More Information",
    "description": null,
    "requirements": "State issued picture ID  For more information, please call.  \nGo To Details Page For More Information",
    "scraped_at": "2025-11-02T19:11:48.112352",
    "latitude": 39.6081967,
    "longitude": -79.9437279,
    "geocoded_address": "802, Greenbag Road, West Sabraton, Morgantown, Monongalia County, West Virginia, 26501, United States of America"
  },
  {
    "url": "https://www.foodpantries.org/li/wv-christian-help-inc",
    "name": "Christian Help",
    "address": "219 Walnut Street",
    "city": "Morgantown",
    "state": "WV",
    "zip": "26505",
    "phone": "(304) 296-0221",
    "fax": "(304) 225-3445",
    "email": null,
    "website": "http://www.freefood.org/",
    "hours": "Monday-Friday: 9:00am - 12:00pm.\nGo To Details Page For More Information",
    "description": null,
    "requirements": "State issued picture ID  For more information, please call.  \nGo To Details Page For More Information",
    "scraped_at": "2025-11-02T19:11:50.224105",
    "latitude": 39.6296188,
    "longitude": -79.9554144,
    "geocoded_address": "Christian Help, 219, Walnut Street, Greenmont, Morgantown, Monongalia County, West Virginia, 26505, United States of America"
  },
  {
    "url": "https://www.foodpantries.org/li/wv_26505_christian-and-missionary-alliance-church",
    "name": "Christian and Missionary Alliance Church",
    "address": "308 Elmhurst Street",
    "city": "Morgantown",
    "state": "WV",
    "zip": "26505",
    "phone": "(304) 599-4549",
    "fax": "(304) 599-3714",
    "email": null,
    "website": "http://www.freefood.org/",
    "hours": "The last Monday of each month 9:00 am to 12:00pmFor more information, please call. \nCounty or Counties Served: Monongalia",
    "description": null,
    "requirements": null,
    "scraped_at": "2025-11-02T19:11:52.435154",
    "latitude": 39.6503986,
    "longitude": -79.9738736,
    "geocoded_address": "Christian Missionary & Alliance Church, 308, Elmhurst Street, Suncrest, Morgantown, Monongalia County, West Virginia, 26505, United States of America"
  },
  {
    "url": "https://www.foodpantries.org/li/pa_15474_point-marion-united-methodist-church",
    "name": "Point Marion United Methodist Church",
    "address": "502 Morgantown Road",
    "city": "Point Marion",
    "state": "PA",
    "zip": "15474",
    "phone": "(724) 725-3366",
    "fax": null,
    "email": null,
    "website": "http://www.freefood.org/",
    "hours": "The Second Tuesday of the month12:00 pm to 1:00 pmFor more information, please call. \nCounty or Counties Served: Fayette",
    "description": null,
    "requirements": null,
    "scraped_at": "2025-11-02T19:11:54.318944",
    "latitude": 39.7318129,
    "longitude": -79.9022642,
    "geocoded_address": "Morgantown Road, McKinley Hill, Point Marion, Fayette County, Pennsylvania, 15474, United States of America"
  },
  {
    "url": "https://www.foodpantries.org/li/north_central_wv_community_action_county_of_pocahontas_24954",
    "name": "North Central WV Community Action - County of Pocahontas",
    "address": "806 9th Ave.",
    "city": "Marlinton",
    "state": "WV",
    "zip": "24954",
    "phone": "(304) 799-4082",
    "fax": null,
    "email": null,
    "website": "https://ncwvcaacorp.net",
    "hours": "Monday-Friday 8:00am - 4:00pmFor more information, please call. \nCounty or Counties Served: Pocahontas",
    "description": null,
    "requirements": null,
    "scraped_at": "2025-11-02T19:11:56.625584",
    "latitude": 38.219443,
    "longitude": -80.0889029,
    "geocoded_address": "806, 9th Avenue, Marlinton, Pocahontas County, West Virginia, 24954, United States of America"
  },
  {
    "url": "https://www.foodpantries.org/li/wv_26150_mt-pleasant-food-pantry",
    "name": "Shared Blessings Food Pantry",
    "address": "62 Turkey Foot Road",
    "city": "Mineral Wells",
    "state": "WV",
    "zip": "26150",
    "phone": "(304) 489-1965",
    "fax": null,
    "email": null,
    "website": "http://www.freefood.org/",
    "hours": "Monday, Tuesday and Friday \r\n12:00pm to 4:00pm \r\n \r\nFree clothing 3rd Tuesday every month.",
    "description": null,
    "requirements": "-Photo ID \r\n-Proof of current address on it \r\n \r\nFor more information, please call.",
    "scraped_at": "2025-11-02T19:11:58.549777",
    "latitude": 39.1904082,
    "longitude": -81.5320773,
    "geocoded_address": "Mineral Wells, Wood County, West Virginia, 26150, United States of America",
    "note": "Geocoded to city center (exact address not found)"
  },
  {
    "url": "https://www.foodpantries.org/li/old-man-rivers",
    "name": "Old Man Rivers Mission",
    "address": "703 Pike Street",
    "city": "Parkersburg",
    "state": "WV",
    "zip": "26101",
    "phone": "(304) 428-6677",
    "fax": null,
    "email": null,
    "website": "http://www.freefood.org/",
    "hours": "Monday, Tuesday and Friday\r\n12:00pm to 4:00pm \n\r\nFree clothing 3rd Tuesday every month.",
    "description": null,
    "requirements": "-Photo ID\r\n-Proof of current address on it\n\r\nFor more information, please call.",
    "scraped_at": "2025-11-02T19:12:01.825247",
    "latitude": 39.2512878,
    "longitude": -81.5452329,
    "geocoded_address": "703, Pike Street, Tavennersville, South Parkersburg, Parkersburg, Wood County, West Virginia, 26101, United States of America"
  },
  {
    "url": "https://www.foodpantries.org/li/wv_26101_-southside-neighborhood-pantry-box",
    "name": "Southside Neighborhood Pantry Box",
    "address": "4007 11th Ave",
    "city": "Parkersburg",
    "state": "WV",
    "zip": "26101",
    "phone": "(615) 973-8145",
    "fax": null,
    "email": null,
    "website": "http://www.freefood.org/",
    "hours": "Monday, Tuesday and Friday \r\n12:00pm to 4:00pm \r\n \r\nFree clothing 3rd Tuesday every month.",
    "description": null,
    "requirements": "-Photo ID \r\n-Proof of current address on it \r\n \r\nFor more information, please call.",
    "scraped_at": "2025-11-02T19:12:04.225329",
    "latitude": 39.2408065,
    "longitude": -81.5356926,
    "geocoded_address": "4007, 11th Avenue, South Parkersburg, Parkersburg, Wood County, West Virginia, 26101, United States of America"
  },
  {
    "url": "https://www.foodpantries.org/li/salvation_army_26101",
    "name": "Salvation Army",
    "address": "534 Fifth Street",
    "city": "Parkersburg",
    "state": "WV",
    "zip": "26101",
    "phone": "(304) 485-4529",
    "fax": null,
    "email": null,
    "website": "http://www.freefood.org/",
    "hours": "Monday through Friday 8:30am - 4:30pmFor more information, please call. \nCounty or Counties Served: Wood",
    "description": null,
    "requirements": "Photo ID Proof of residency\nGo To Details Page For More Information",
    "scraped_at": "2025-11-02T19:12:06.463078",
    "latitude": 39.2667309,
    "longitude": -81.5620755,
    "geocoded_address": "Parkersburg, Wood County, West Virginia, United States of America",
    "note": "Geocoded to city center (exact address not found)"
  },
  {
    "url": "https://www.foodpantries.org/li/community_resources_central_office_and_county_number_26101",
    "name": "Community Resources Central Office and County Number",
    "address": "601 Avery Street, Suite 200",
    "city": "Parkersburg",
    "state": "WV",
    "zip": "26101",
    "phone": "(304) 485-5525",
    "fax": null,
    "email": null,
    "website": "http://www.freefood.org/",
    "hours": "Mondays through Fridays 8:00 am - 4:00 pm\r\n                                    \r\n                                                                        \n* Important: Please call the food pantries to confirm that the hours have not changed. We do our best to provide full information and details, but food pantries often change their hours without notifying us. We do not want you to waste your time visiting a pantry that is not open.",
    "description": null,
    "requirements": "Photo ID Proof of residency\nGo To Details Page For More Information",
    "scraped_at": "2025-11-02T19:12:09.424251",
    "latitude": 39.2667309,
    "longitude": -81.5620755,
    "geocoded_address": "Parkersburg, Wood County, West Virginia, United States of America",
    "note": "Geocoded to city center (exact address not found)"
  },
  {
    "url": "https://www.foodpantries.org/li/wood_co._senior_citizens_association_(nutrition_program)_26101",
    "name": "Wood County Senior Citizens Association (Nutrition Program)",
    "address": "914 Market Street",
    "city": "Parkersburg",
    "state": "WV",
    "zip": "26101",
    "phone": "(304) 485-6748",
    "fax": null,
    "email": null,
    "website": "http://wcscwv.org",
    "hours": "9:00am - 1:00pmFor more information, please call. \nVolunteering Information:http://wcscwv.org/volunteer \nCounty or Counties Served: Wood",
    "description": null,
    "requirements": "Photo ID Proof of residency\nGo To Details Page For More Information",
    "scraped_at": "2025-11-02T19:12:12.204760",
    "latitude": 39.2680833,
    "longitude": -81.5559099,
    "geocoded_address": "914, Market Street, Julia-Ann Square Historic District, Parkersburg, Wood County, West Virginia, 26101, United States of America"
  },
  {
    "url": "https://www.foodpantries.org/li/wv_parkersburg_first-lutheran-church-food-pantry",
    "name": "First Lutheran Church Food Pantry",
    "address": "1701 19th Street",
    "city": "Parkersburg",
    "state": "WV",
    "zip": "26101",
    "phone": "(304) 428-6174",
    "fax": null,
    "email": null,
    "website": "http://www.freefood.org/",
    "hours": "Tuesday and Wednesday 9:30 AM - 11:30 AMRequirements:Photo IDProof of residency\r\n                                    Volunteering Information:For volunteering or to make a donation, call Amanda Whitlatch at 304-428-6174. \nCounty or Counties Served: Wood",
    "description": null,
    "requirements": "Photo IDProof of residency\r\n                                    Volunteering Information:For volunteering or to make a donation, call Amanda Whitlatch at 304-428-6174. \nCounty or Counties Served: Wood",
    "scraped_at": "2025-11-02T19:12:14.375771",
    "latitude": 39.272788,
    "longitude": -81.53717,
    "geocoded_address": "1701, 19th Street, Parkersburg, Wood County, West Virginia, 26101, United States of America"
  },
  {
    "url": "https://www.foodpantries.org/li/right_from_the_start_childrens_home_society_of_west_virgi_26101",
    "name": "Children's Home Society of West Virginia - Mid Town Family Resource Center",
    "address": "1717 St Marys Avenue",
    "city": "Parkersburg",
    "state": "WV",
    "zip": "26101",
    "phone": "(304) 485-0650",
    "fax": null,
    "email": null,
    "website": "http://www.freefood.org/",
    "hours": "Monday - Friday 8:30 am - 4:00 pmFor more information, please call. \nVolunteering Information:http://www.childhswv.org/volunteer \nCounty or Counties Served: Wood",
    "description": null,
    "requirements": "Photo ID Proof of residency\nGo To Details Page For More Information",
    "scraped_at": "2025-11-02T19:12:16.341596",
    "latitude": 39.2741951,
    "longitude": -81.5452931,
    "geocoded_address": "1717, Saint Marys Avenue, North Parkersburg, Parkersburg, Wood County, West Virginia, 26101, United States of America"
  },
  {
    "url": "https://www.foodpantries.org/li/community_resources_weatherization_26101",
    "name": "Community Resources - Weatherization",
    "address": "113 Ann Street",
    "city": "Parkersburg",
    "state": "WV",
    "zip": "26101",
    "phone": "(304) 485-5525",
    "fax": null,
    "email": null,
    "website": "http://www.freefood.org/",
    "hours": "Monday through Thursday 7:00am - 5:00pmFor more information, please call. \nCounty or Counties Served: Wood",
    "description": null,
    "requirements": "Photo ID Proof of residency\nGo To Details Page For More Information",
    "scraped_at": "2025-11-02T19:12:18.343840",
    "latitude": 39.265598,
    "longitude": -81.5666735,
    "geocoded_address": "Visit Greater Parkersburg, 113, Ann Street, Parkersburg, Wood County, West Virginia, 26101, United States of America"
  },
  {
    "url": "https://www.foodpantries.org/li/ko-co_st_pauls_united_methodist_church_26101",
    "name": "KO-CO - St Pauls United Methodist Church",
    "address": "219 11th Street",
    "city": "Parkersburg",
    "state": "WV",
    "zip": "26101",
    "phone": "(304) 422-2552",
    "fax": null,
    "email": null,
    "website": "http://www.freefood.org/",
    "hours": "Tuesdays 9:30am - 10:30 am\r\n                                    \r\n                                                                        \n* Important: Please call the food pantries to confirm that the hours have not changed. We do our best to provide full information and details, but food pantries often change their hours without notifying us. We do not want you to waste your time visiting a pantry that is not open.",
    "description": null,
    "requirements": "Photo ID Proof of residency\nGo To Details Page For More Information",
    "scraped_at": "2025-11-02T19:12:21.946897",
    "latitude": 39.2710003,
    "longitude": -81.5548376,
    "geocoded_address": "219, 11th Street, Julia-Ann Square Historic District, Parkersburg, Wood County, West Virginia, 26101, United States of America"
  },
  {
    "url": "https://www.foodpantries.org/li/st-ursulas-food-pantry-and-outreach",
    "name": "St. Ursula's Food Pantry and Outreach",
    "address": "87 Pursglove Rd.",
    "city": "Morgantown",
    "state": "WV",
    "zip": "26501",
    "phone": "(304) 599-3822",
    "fax": null,
    "email": null,
    "website": "http://www.freefood.org/",
    "hours": "1st & 3rd Wednesday of the month9:30 am - 12:30 pmFor more information, please call.\nCounty or Counties Served: Monongalia",
    "description": null,
    "requirements": null,
    "scraped_at": "2025-11-02T19:12:23.856902",
    "latitude": 39.6296809,
    "longitude": -79.9559437,
    "geocoded_address": "Morgantown, Monongalia County, West Virginia, United States of America",
    "note": "Geocoded to city center (exact address not found)"
  },
  {
    "url": "https://www.foodpantries.org/li/wv_26159_second-harvest-food-pantry",
    "name": "Second Harvest Food Pantry",
    "address": "130 S. 4th. Street",
    "city": "Paden City",
    "state": "WV",
    "zip": "26159",
    "phone": "(304) 337-9145",
    "fax": null,
    "email": null,
    "website": "http://www.freefood.org/",
    "hours": "Tuesday10:00 am - 1:00 pmWe provide services once a month for people living in Paden City, WV. For more information, please call. \nVolunteering Information:Contact the church office at 304-336-9145 to help make the world a little brighter. \nCounty or Counties Served: Wetzel",
    "description": null,
    "requirements": null,
    "scraped_at": "2025-11-02T19:12:26.719379",
    "latitude": 39.6036324,
    "longitude": -80.9343057,
    "geocoded_address": "Paden City, Wetzel County, West Virginia, 26159, United States of America",
    "note": "Geocoded to city center (exact address not found)"
  },
  {
    "url": "https://www.foodpantries.org/li/community_resources_tyler_county_26175",
    "name": "Community Resources - Tyler County",
    "address": "712 North Wells Street",
    "city": "Sistersville",
    "state": "WV",
    "zip": "26175",
    "phone": "(304) 758-0696",
    "fax": null,
    "email": null,
    "website": "http://www.freefood.org/",
    "hours": "Monday-Friday 8:00am -4:00pm (Closed Holidays)For more information, please call. \nCounty or Counties Served: Tyler",
    "description": null,
    "requirements": null,
    "scraped_at": "2025-11-02T19:12:29.954084",
    "latitude": 39.5666035,
    "longitude": -80.9916979,
    "geocoded_address": "North Wells Street, Sistersville Historic District, Sistersville, Tyler County, West Virginia, 26175, United States of America"
  },
  {
    "url": "https://www.foodpantries.org/li/christ_united_methodist_26101",
    "name": "Christ United Methodist",
    "address": "715 16th Street",
    "city": "Parkersburg",
    "state": "WV",
    "zip": "26101",
    "phone": "(304) 422-3016",
    "fax": null,
    "email": null,
    "website": "http://www.freefood.org/",
    "hours": "Tuesday and Thursday: 9:30 am - 11:00 am\r\n                                    \r\n                                                                        \n* Important: Please call the food pantries to confirm that the hours have not changed. We do our best to provide full information and details, but food pantries often change their hours without notifying us. We do not want you to waste your time visiting a pantry that is not open.",
    "description": null,
    "requirements": "Photo ID Proof of residency\nGo To Details Page For More Information",
    "scraped_at": "2025-11-02T19:12:31.980010",
    "latitude": 39.2729525,
    "longitude": -81.5464039,
    "geocoded_address": "715, 16th Street, Julia-Ann Square Historic District, Parkersburg, Wood County, West Virginia, 26101, United States of America"
  },
  {
    "url": "https://www.foodpantries.org/li/new-river-community-action-pulaski-food-bank",
    "name": "New River Community Action - Pulaski Food Bank",
    "address": "412 N Jefferson Ave",
    "city": "Pulaski",
    "state": "VA",
    "zip": "24301",
    "phone": "(540) 980-5525",
    "fax": "(540) 994-9334",
    "email": null,
    "website": "http://www.freefood.org/",
    "hours": "Monday to Friday: 11:00 am to 12:30pm \nGo To Details Page For More Information",
    "description": null,
    "requirements": null,
    "scraped_at": "2025-11-02T19:12:33.981800",
    "latitude": 37.0500734,
    "longitude": -80.7821833,
    "geocoded_address": "412, Jefferson Avenue North, Pulaski Historic Commercial District, Pulaski, Pulaski County, Virginia, 24301, United States of America"
  },
  {
    "url": "https://www.foodpantries.org/li/no-hunger-food-pantry",
    "name": "No Hunger Food Pantry",
    "address": "231 Walnut Street",
    "city": "Ravenswood",
    "state": "WV",
    "zip": "26164",
    "phone": "(304) 512-7309",
    "fax": null,
    "email": null,
    "website": "http://www.freefood.org/",
    "hours": "Tuesday - Friday 1:00pm to 4:00pmExcept holidays Volunteers and donations are welcomed during business hours. Also, No Hunger is the only pantry in Ravenswood.For more information, please call. \nCounty or Counties Served: Jackson",
    "description": null,
    "requirements": "-Photo ID \r\n-Proof of current address on it \r\n \r\nFor more information, please call.",
    "scraped_at": "2025-11-02T19:12:36.419434",
    "latitude": 38.9481613,
    "longitude": -81.7604226,
    "geocoded_address": "231, Walnut Street, Ravenswood, Jackson County, West Virginia, 26164, United States of America"
  },
  {
    "url": "https://www.foodpantries.org/li/community-resources-inc-jackson-county",
    "name": "Community Resources, Inc. - Jackson County",
    "address": "107 Ann Street",
    "city": "Ravenswood",
    "state": "WV",
    "zip": "26164",
    "phone": "(304) 273-5539",
    "fax": null,
    "email": null,
    "website": "http://www.freefood.org/",
    "hours": "Monday - Friday 8:00am - 4:00pm Closed 12:00 - 1:00 for LunchFor more inforamtion, pleasea call. \nCounty or Counties Served: Jackson",
    "description": null,
    "requirements": "-Photo ID \r\n-Proof of current address on it \r\n \r\nFor more information, please call.",
    "scraped_at": "2025-11-02T19:12:38.416435",
    "latitude": 38.947854,
    "longitude": -81.7585064,
    "geocoded_address": "107, Ann Street, Ravenswood, Jackson County, West Virginia, 26164, United States of America"
  },
  {
    "url": "https://www.foodpantries.org/li/oh_45772_golden-harvest-reedsville",
    "name": "Golden Harvest Reedsville",
    "address": "64956 State Route 124",
    "city": "Reedsville",
    "state": "OH",
    "zip": "45772",
    "phone": "(740) 378-6286",
    "fax": null,
    "email": null,
    "website": "http://www.freefood.org/",
    "hours": "Thursday 10:00am - 12:00pmFor more information, please call. \nCounty or Counties Served: Meigs",
    "description": null,
    "requirements": "-Photo ID \r\n-Proof of current address on it \r\n \r\nFor more information, please call.",
    "scraped_at": "2025-11-02T19:12:40.771584",
    "latitude": 39.1214666,
    "longitude": -81.7476314,
    "geocoded_address": "Reedsville, Meigs County, Ohio, 26133, United States of America",
    "note": "Geocoded to city center (exact address not found)"
  },
  {
    "url": "https://www.foodpantries.org/li/oh_45769_lutheran-social-services-mobile-pantry-pomeroy",
    "name": "Lutheran Social Services Mobile Pantry Pomeroy",
    "address": "161 Mulberry Ave",
    "city": "Pomeroy",
    "state": "OH",
    "zip": "45769",
    "phone": null,
    "fax": null,
    "email": null,
    "website": "http://www.freefood.org/",
    "hours": "Tuesday - Friday 1:00pm to 4:00pm Except holidays  Volunteers and donations are welcomed during business hours. Also, No Hunger is the only pantry in Ravenswood.  For more information, please call.  \nGo To Details Page For More Information",
    "description": null,
    "requirements": "Bring photo ID & proof of residency.  For more information, please call.   \nGo To Details Page For More Information",
    "scraped_at": "2025-11-02T19:12:43.559561",
    "latitude": 39.0295003,
    "longitude": -82.037177,
    "geocoded_address": "161, Mulberry Avenue, Pomeroy Historic District, Pomeroy, Meigs County, Ohio, 45769, United States of America"
  },
  {
    "url": "https://www.foodpantries.org/li/oh_45723_coolville-fire-department",
    "name": "Coolville Fire Department",
    "address": "2770 6th Street",
    "city": "Coolville",
    "state": "OH",
    "zip": "45723",
    "phone": "(740) 667-3343",
    "fax": null,
    "email": null,
    "website": "http://www.freefood.org/",
    "hours": "The 4th Monday of the month11:00 am - 12:00 pmFor more information, please call.\nCounty or Counties Served: Athens",
    "description": null,
    "requirements": null,
    "scraped_at": "2025-11-02T19:12:45.492561",
    "latitude": 39.2220935,
    "longitude": -81.7953965,
    "geocoded_address": "2770, 6th Street, Coolville, Troy Township, Athens County, Ohio, 45723, United States of America"
  },
  {
    "url": "https://www.foodpantries.org/li/wv_26181_gods-bounty-food-pantry",
    "name": "God's Bounty Food Pantry",
    "address": "10468 Dupont Rd.",
    "city": "Washington",
    "state": "WV",
    "zip": "26181",
    "phone": "(304) 863-6203",
    "fax": null,
    "email": null,
    "website": "http://www.freefood.org/",
    "hours": "The third Saturday of each month 9:00 AM to 12 00 PM Due to COVID, we will meet you in the parking lot, you choose from a check sheet of our inventory, your order is packed and carried back to your vehicle. For more information, please call.\nCounty or Counties Served: Wood",
    "description": null,
    "requirements": "-Photo ID \r\n-Proof of current address on it \r\n \r\nFor more information, please call.",
    "scraped_at": "2025-11-02T19:12:47.401207",
    "latitude": 39.2639588,
    "longitude": -81.6689247,
    "geocoded_address": "Dupont Road, Somervilla, Washington, Wood County, West Virginia, 26181, United States of America"
  },
  {
    "url": "https://www.foodpantries.org/li/friends-and-neighbors",
    "name": "Friends and Neighbors Community Choice Food Center",
    "address": "2715 Lottridge Rd",
    "city": "Coolville",
    "state": "OH",
    "zip": "45723",
    "phone": "(740) 667-0684",
    "fax": null,
    "email": null,
    "website": "http://www.freefood.org/",
    "hours": "The 4th Monday of the month 11:00 am - 12:00 pm  For more information, please call.  \nGo To Details Page For More Information",
    "description": null,
    "requirements": null,
    "scraped_at": "2025-11-02T19:12:49.628665",
    "latitude": 39.2217427,
    "longitude": -81.7973557,
    "geocoded_address": "Coolville, Troy Township, Athens County, Ohio, United States of America",
    "note": "Geocoded to city center (exact address not found)"
  },
  {
    "url": "https://www.foodpantries.org/li/north_central_west_virginia_community_action_county_of_gre_24970",
    "name": "North Central West Virginia Community Action - County of Greenbier",
    "address": "22 Red Oakes Shopping Center",
    "city": "Ronceverte",
    "state": "WV",
    "zip": "24970",
    "phone": "(304) 645-9090",
    "fax": null,
    "email": null,
    "website": "http://www.freefood.org/",
    "hours": "Monday-Friday\r\n8:00am - 4:00pm\n\r\nFor more information, please call.\nCounty or Counties Served: Greenbrier",
    "description": null,
    "requirements": null,
    "scraped_at": "2025-11-02T19:12:52.915372",
    "latitude": 37.7497542,
    "longitude": -80.4628391,
    "geocoded_address": "Ronceverte, Greenbrier County, West Virginia, 24970, United States of America",
    "note": "Geocoded to city center (exact address not found)"
  },
  {
    "url": "https://www.foodpantries.org/li/white_sulphur_springs_community_food_pantry",
    "name": "White Sulphur Springs Community Food Pantry",
    "address": "136 Tressel Street",
    "city": "White Sulphur Springs",
    "state": "WV",
    "zip": "24986",
    "phone": "(304) 536-8022",
    "fax": null,
    "email": null,
    "website": "http://www.freefood.org/",
    "hours": "Monday-Friday \r\n8:00am - 4:00pm \r\n \r\nFor more information, please call.",
    "description": null,
    "requirements": null,
    "scraped_at": "2025-11-02T19:12:55.774451",
    "latitude": 37.7929101,
    "longitude": -80.3002087,
    "geocoded_address": "136, Tressel Street, White Sulphur Springs, Greenbrier County, West Virginia, 24986, United States of America"
  },
  {
    "url": "https://www.foodpantries.org/li/middletown-food-bank",
    "name": "Middletown Valley Food Bank",
    "address": "301 W Main Street",
    "city": "Middletown",
    "state": "MD",
    "zip": "21769",
    "phone": "(301) 371-3182",
    "fax": null,
    "email": null,
    "website": "http://www.freefood.org/",
    "hours": "Wednesday1:00 pm - 3:00 pmSaturday9:00 am - 12:00 pmAngry in the Greater Middletown area with a variety of nutritious food while treating our clients with dignity and respect. This food will always be of the highest of standards ensuring that the food given will provide augmentation to their monthly needs. For more information, please call.\nCounty or Counties Served: Frederick",
    "description": null,
    "requirements": null,
    "scraped_at": "2025-11-02T19:12:57.984379",
    "latitude": 39.4447337,
    "longitude": -77.553443,
    "geocoded_address": "West Main Street, Middletown, Frederick County, Maryland, 21769, United States of America"
  },
  {
    "url": "https://www.foodpantries.org/li/st-mark-food-bank",
    "name": "St. Mark's Lutheran Church - Food Bank",
    "address": "601 Washington Avenue",
    "city": "Hagerstown",
    "state": "MD",
    "zip": "21740",
    "phone": "(301) 733-7550",
    "fax": "(301) 733-7556",
    "email": null,
    "website": "http://www.freefood.org/",
    "hours": "Monday thru Friday 1:00pm - 3:00pm.The Food Pantry is a non-profit organization that relies on contributions from local churches and individuals in the community:Donations May be sent to St. Mark's Community Food Bank at 601 Washington Avenue, Hagerstown, MD 21740.To volunteer: contact St. Mark's at 301-733-7550.For more information, please call. \nCounty or Counties Served: Washington",
    "description": null,
    "requirements": null,
    "scraped_at": "2025-11-02T19:13:02.049214",
    "latitude": 39.646552,
    "longitude": -77.730007,
    "geocoded_address": "601, Washington Avenue, Hagerstown, Washington County, Maryland, 21740, United States of America"
  },
  {
    "url": "https://www.foodpantries.org/li/cumberland_church_of_god_21502",
    "name": "Cumberland Church of God",
    "address": "401 Industrial Blvd",
    "city": "Cumberland",
    "state": "MD",
    "zip": "21502",
    "phone": null,
    "fax": null,
    "email": null,
    "website": "http://www.freefood.org/",
    "hours": "Mondays through Fridays 10am-1pm; 4- 6pm\r\n                                    \r\n                                                                        \n* Important: Please call the food pantries to confirm that the hours have not changed. We do our best to provide full information and details, but food pantries often change their hours without notifying us. We do not want you to waste your time visiting a pantry that is not open.",
    "description": null,
    "requirements": null,
    "scraped_at": "2025-11-02T19:13:03.975998",
    "latitude": 39.631923,
    "longitude": -78.760544,
    "geocoded_address": "401, West Industrial Boulevard, South Cumberland, Cumberland, Allegany County, Maryland, 21502, United States of America"
  },
  {
    "url": "https://www.foodpantries.org/li/salvation_army_21502",
    "name": "Salvation Army",
    "address": "701 E. First St",
    "city": "Cumberland",
    "state": "MD",
    "zip": "21502",
    "phone": null,
    "fax": null,
    "email": null,
    "website": "http://www.freefood.org/",
    "hours": "Mondays through Fridays 8am - 4pm\r\n                                    \r\n                                                                        \n* Important: Please call the food pantries to confirm that the hours have not changed. We do our best to provide full information and details, but food pantries often change their hours without notifying us. We do not want you to waste your time visiting a pantry that is not open.",
    "description": null,
    "requirements": null,
    "scraped_at": "2025-11-02T19:13:06.963699",
    "latitude": 39.6526498,
    "longitude": -78.762383,
    "geocoded_address": "Cumberland, Allegany County, Maryland, 21502, United States of America",
    "note": "Geocoded to city center (exact address not found)"
  },
  {
    "url": "https://www.foodpantries.org/li/christ_umc_21502",
    "name": "Christ UMC",
    "address": "4th and Race St.",
    "city": "Cumberland",
    "state": "MD",
    "zip": "21502",
    "phone": null,
    "fax": null,
    "email": null,
    "website": "http://www.freefood.org/",
    "hours": "Mondays through Fridays 8am - 4pm\r\n                                    \r\n                                                                        \n* Important: Please call the food pantries to confirm that the hours have not changed. We do our best to provide full information and details, but food pantries often change their hours without notifying us. We do not want you to waste your time visiting a pantry that is not open.",
    "description": null,
    "requirements": null,
    "scraped_at": "2025-11-02T19:13:10.666809",
    "latitude": 39.6526498,
    "longitude": -78.762383,
    "geocoded_address": "Cumberland, Allegany County, Maryland, 21502, United States of America",
    "note": "Geocoded to city center (exact address not found)"
  },
  {
    "url": "https://www.foodpantries.org/li/hope_station_21502",
    "name": "Hope Station",
    "address": "632 North Centre Street",
    "city": "Cumberland",
    "state": "MD",
    "zip": "21502",
    "phone": "(240) 362-7168",
    "fax": "(240) 362-7170",
    "email": null,
    "website": "http://www.freefood.org/",
    "hours": "Monday through Friday\r\n 9:00am - 3:00pm\n\r\nFor more information, please call. \nCounty or Counties Served: Allegany",
    "description": null,
    "requirements": null,
    "scraped_at": "2025-11-02T19:13:13.712035",
    "latitude": 39.6586117,
    "longitude": -78.7725833,
    "geocoded_address": "632, North Centre Street, Olde North End, Cumberland, Allegany County, Maryland, 21502, United States of America"
  },
  {
    "url": "https://www.foodpantries.org/li/lavale_umc_21502",
    "name": "LaVale United Methodist Church UMC Food Pantry",
    "address": "565 National Highway",
    "city": "Lavandale",
    "state": "MD",
    "zip": "21502",
    "phone": "(301) 722-6800",
    "fax": null,
    "email": null,
    "website": "http://www.freefood.org/",
    "hours": "Tuesdays 1:00 pm - 2:30 pm and 5:00 pm - 6:00 pmThursdays 1:00 pm to 2:30 pm\nCounty or Counties Served: Allegany",
    "description": null,
    "requirements": null,
    "scraped_at": "2025-11-02T19:13:15.989633"
  },
  {
    "url": "https://www.foodpantries.org/li/interfaith_pantry_21502",
    "name": "Interfaith  Community Pantry",
    "address": "301 Cumberland Street",
    "city": "Cumberland",
    "state": "MD",
    "zip": "21502",
    "phone": "(301) 777-7882",
    "fax": null,
    "email": null,
    "website": "http://www.freefood.org/",
    "hours": "Monday - Friday 9:00am - 2:00pm\r\n                                    \r\n                                    County or Counties Served: Allegany",
    "description": null,
    "requirements": null,
    "scraped_at": "2025-11-02T19:13:20.561483",
    "latitude": 39.6518449,
    "longitude": -78.7656614,
    "geocoded_address": "Cumberland Street, Downtown, Cumberland, Allegany County, Maryland, 21502, United States of America"
  },
  {
    "url": "https://www.foodpantries.org/li/lavale_assembly_church_21502",
    "name": "Lavale Assembly Church",
    "address": "525 National Highway",
    "city": "Lavale",
    "state": "MD",
    "zip": "21502",
    "phone": null,
    "fax": null,
    "email": null,
    "website": "http://www.freefood.org/",
    "hours": "Mondays through Fridays 10 - 11am\r\n                                    \r\n                                                                        \n* Important: Please call the food pantries to confirm that the hours have not changed. We do our best to provide full information and details, but food pantries often change their hours without notifying us. We do not want you to waste your time visiting a pantry that is not open.",
    "description": null,
    "requirements": null,
    "scraped_at": "2025-11-02T19:13:27.470731",
    "latitude": 39.6521163,
    "longitude": -78.8154138,
    "geocoded_address": "North Lavale Street, La Vale, Allegany County, Maryland, 21502, United States of America",
    "note": "Geocoded to city center (exact address not found)"
  },
  {
    "url": "https://www.foodpantries.org/li/md_frostburg_food-pantry-interfaith-food-pantry",
    "name": "Frostburg Area Inter-Faith Food Pantry",
    "address": "44 W Main Street",
    "city": "Frostburg",
    "state": "MD",
    "zip": "21532",
    "phone": "(301) 687-1728",
    "fax": null,
    "email": null,
    "website": "http://www.freefood.org/",
    "hours": "Tuesday & Thursday: 9:00 am to 10:30 am\r\n                                    \r\n                                    County or Counties Served: Allegany",
    "description": null,
    "requirements": null,
    "scraped_at": "2025-11-02T19:13:31.081239",
    "latitude": 39.6576149,
    "longitude": -78.9284566,
    "geocoded_address": "West Main Street, Frostburg, Allegany County, Maryland, 21532, United States of America"
  },
  {
    "url": "https://www.foodpantries.org/li/blacksburg-interfaith-food-pantry",
    "name": "Blacksburg Interfaith Food Pantry",
    "address": "706 Harding Ave.",
    "city": "Blacksburg",
    "state": "VA",
    "zip": "24060",
    "phone": "(540) 951-8134",
    "fax": null,
    "email": null,
    "website": "http://www.freefood.org/",
    "hours": "Monday\r\n4:00pm - 6:00pm\r\nTuesday, Wednesday, Thursday, Friday\r\n10:00am - 12:00pm\n\r\nFor more information, please call.",
    "description": null,
    "requirements": null,
    "scraped_at": "2025-11-02T19:13:33.262810",
    "latitude": 37.2366617,
    "longitude": -80.4064047,
    "geocoded_address": "edges, 706, Harding Avenue, Windsor Hills, Blacksburg, Montgomery County, Virginia, 24060, United States of America"
  },
  {
    "url": "https://www.foodpantries.org/li/wv_weirton_community-bread-basket-food-pantry",
    "name": "Community Bread Basket Food Pantry",
    "address": "3501 West Street",
    "city": "Weirton",
    "state": "WV",
    "zip": "26062",
    "phone": "(304) 748-7595",
    "fax": null,
    "email": null,
    "website": "http://www.cbbinc.org/",
    "hours": "Monday to Friday 9:00am - 11:00am",
    "description": null,
    "requirements": null,
    "scraped_at": "2025-11-02T19:13:36.432796",
    "latitude": 40.400951,
    "longitude": -80.591157,
    "geocoded_address": "3501, West Street, Holidays Cove, Weirton, Clay District, Hancock County, West Virginia, 26062, United States of America"
  },
  {
    "url": "https://www.foodpantries.org/li/urban-mission-ministries",
    "name": "Urban Mission Ministries",
    "address": "301 North 5th Street",
    "city": "Steubenville",
    "state": "OH",
    "zip": "43952",
    "phone": "(740) 282-8010",
    "fax": "(740) 282-8514",
    "email": null,
    "website": "http://www.freefood.org/",
    "hours": "Wednesday, Thursday and Friday\r\n8:;30am - 12:00pm; 1:00pm 2:30pm\r\nFamilies have designated week based off their name\n\r\nSenior Food Hours:\r\nFourth Tuesday of the month\r\n8:00am - 10:00am\n\r\nMeals Hours:\r\nMonday, Tuesday and Wednesday\r\n12:00pm\n\r\nFor more information, please call.",
    "description": null,
    "requirements": "Must be a resident of West Virginia Proof of income Proof of person(s) in home Must fall in the guidelines by the WV-Donated Foods Program  Notes:  To pick up food prior to Friday call the office Clients can come in once \nGo To Details Page For More Information",
    "scraped_at": "2025-11-02T19:13:38.397613",
    "latitude": 40.363949,
    "longitude": -80.614739,
    "geocoded_address": "301, North 5th Street, North Street Historic District, Steubenville, Jefferson County, Ohio, 43952, United States of America"
  },
  {
    "url": "https://www.foodpantries.org/li/oh_steubenville_bell-chapel-united-methodist-food-pantry",
    "name": "Bell Chapel United Methodist Food Pantry",
    "address": "3419 State Route 213",
    "city": "Steubenville",
    "state": "OH",
    "zip": "43952",
    "phone": "(740) 283-2239",
    "fax": "(740) 283-2692",
    "email": null,
    "website": "http://www.freefood.org/",
    "hours": "Friday: 8:00 am to 11:30 am  Requirements:  Must be a resident of West Virginia Proof of income Proof of person(s) in home Must fall in the guidelines by the WV-Donated Foods Program  Notes:  To pick up food prior to Friday call the office Clients can come in once \nGo To Details Page For More Information",
    "description": null,
    "requirements": "Must be a resident of West Virginia Proof of income Proof of person(s) in home Must fall in the guidelines by the WV-Donated Foods Program  Notes:  To pick up food prior to Friday call the office Clients can come in once \nGo To Details Page For More Information",
    "scraped_at": "2025-11-02T19:13:40.265329",
    "latitude": 40.3600714,
    "longitude": -80.6151034,
    "geocoded_address": "Steubenville, Jefferson County, Ohio, 43952, United States of America",
    "note": "Geocoded to city center (exact address not found)"
  },
  {
    "url": "https://www.foodpantries.org/li/pa_atlasburg_burgettstown-area-food-pantry",
    "name": "Burgettstown Area Food Pantry",
    "address": "1616 Smith Township State Road",
    "city": "Atlasburg",
    "state": "PA",
    "zip": "15004",
    "phone": "(724) 215-9109",
    "fax": null,
    "email": null,
    "website": "http://www.freefood.org/",
    "hours": "Monday to Friday 9:00am - 11:00am\r\n                                    \r\n                                    County or Counties Served: Washington",
    "description": null,
    "requirements": "Must be a resident of West Virginia Proof of income Proof of person(s) in home Must fall in the guidelines by the WV-Donated Foods Program  Notes:  To pick up food prior to Friday call the office Clients can come in once \nGo To Details Page For More Information",
    "scraped_at": "2025-11-02T19:13:43.168333",
    "latitude": 40.3408454,
    "longitude": -80.3856875,
    "geocoded_address": "1616, Smith Township State Road, Atlasburg, Smith Township, Washington County, Pennsylvania, 15004, United States of America"
  },
  {
    "url": "https://www.foodpantries.org/li/oh_43920_fish-food-bank",
    "name": "Fish Food Bank",
    "address": "213 W 4th Street",
    "city": "East Liverpool",
    "state": "OH",
    "zip": "43920",
    "phone": "(330) 385-4457",
    "fax": null,
    "email": null,
    "website": "http://www.freefood.org/",
    "hours": "Monday - Friday 10:00am to 12:00pm\r\nWalk-ins are welcome, no appointment is needed.\n\r\nFor more information, please call.",
    "description": null,
    "requirements": "Must be a resident of West Virginia Proof of income Proof of person(s) in home Must fall in the guidelines by the WV-Donated Foods Program  Notes:  To pick up food prior to Friday call the office Clients can come in once \nGo To Details Page For More Information",
    "scraped_at": "2025-11-02T19:13:45.049720",
    "latitude": 40.6192727,
    "longitude": -80.5825871,
    "geocoded_address": "213, West 4th Street, Sunnyside, Jethro, East Liverpool, Columbiana County, Ohio, 43920, United States of America"
  },
  {
    "url": "https://www.foodpantries.org/li/weba_food_pantry",
    "name": "W.E.B.A. Food Pantry",
    "address": "348 N Main Street",
    "city": "Amsterdam",
    "state": "OH",
    "zip": "43903",
    "phone": "(740) 543-3227",
    "fax": null,
    "email": null,
    "website": "http://www.freefood.org/",
    "hours": "Tuesday & Friday: 8:30\u202fam to 12:30\u202fpm \nGo To Details Page For More Information",
    "description": null,
    "requirements": "Must be a resident of West Virginia Proof of income Proof of person(s) in home Must fall in the guidelines by the WV-Donated Foods Program  Notes:  To pick up food prior to Friday call the office Clients can come in once \nGo To Details Page For More Information",
    "scraped_at": "2025-11-02T19:13:47.910173",
    "latitude": 40.4763908,
    "longitude": -80.9231621,
    "geocoded_address": "348, North Main Street, Amsterdam, Jefferson County, Ohio, 43903, United States of America"
  },
  {
    "url": "https://www.foodpantries.org/li/northeast-jefferson-food-pantry",
    "name": "Northeast Jefferson Food Pantry",
    "address": "11182 Amsterdam Rd.",
    "city": "Salineville",
    "state": "OH",
    "zip": "43945",
    "phone": "(330) 627-4080",
    "fax": null,
    "email": null,
    "website": "http://www.freefood.org/",
    "hours": "Monday - Friday 10:00am to 12:00pm \r\nWalk-ins are welcome, no appointment is needed. \r\n \r\nFor more information, please call.",
    "description": null,
    "requirements": "Must be a resident of West Virginia Proof of income Proof of person(s) in home Must fall in the guidelines by the WV-Donated Foods Program  Notes:  To pick up food prior to Friday call the office Clients can come in once \nGo To Details Page For More Information",
    "scraped_at": "2025-11-02T19:13:51.413681",
    "latitude": 40.6225623,
    "longitude": -80.8378609,
    "geocoded_address": "Salineville, Columbiana County, Ohio, 43945, United States of America",
    "note": "Geocoded to city center (exact address not found)"
  },
  {
    "url": "https://www.foodpantries.org/li/pa_15143_sewickley-community-center-food-pantry",
    "name": "Sewickley Community Center Food Pantry",
    "address": "15 Chadwick Street",
    "city": "Sewickley",
    "state": "PA",
    "zip": "15143",
    "phone": "(412) 741-5430",
    "fax": null,
    "email": null,
    "website": "http://www.freefood.org/",
    "hours": "2nd and 4th Wednesdays of the Month from 11:30am - 1:00pm ETNotes:You may pick up food at the pantry once or twice a month.Donations:Carts are out from 9:00am - 11:30 am on the 2nd and 4th Wednesdays of each month.\nVolunteering Information:Always looking for volunteers. Contact us for more information. \nCounty or Counties Served: Allegheny",
    "description": null,
    "requirements": null,
    "scraped_at": "2025-11-02T19:13:54.225914",
    "latitude": 40.5415098,
    "longitude": -80.1919293,
    "geocoded_address": "15, Chadwick Street, Sewickley, Allegheny County, Pennsylvania, 15143, United States of America"
  },
  {
    "url": "https://www.foodpantries.org/li/daily-bread-center-43935",
    "name": "Daily Bread Center Food Pantry",
    "address": "100 N. Zane Highway",
    "city": "Martins Ferry",
    "state": "OH",
    "zip": "43935",
    "phone": "(740) 609-3063",
    "fax": null,
    "email": null,
    "website": "http://www.freefood.org/",
    "hours": "Wednesdays 10:00am - 5:00pm\nCounty or Counties Served: Belmont",
    "description": null,
    "requirements": "Must be a resident of West Virginia Proof of income Proof of person(s) in home Must fall in the guidelines by the WV-Donated Foods Program  Notes:  To pick up food prior to Friday call the office Clients can come in once \nGo To Details Page For More Information",
    "scraped_at": "2025-11-02T19:13:56.266504",
    "latitude": 40.0977104,
    "longitude": -80.7246844,
    "geocoded_address": "North Zane Highway, Martins Ferry, Belmont County, Ohio, 43935, United States of America"
  },
  {
    "url": "https://www.foodpantries.org/li/concilio-pentecostal-church-of-the-truth-pantry",
    "name": "Concilio Pentecostal Church of the Truth Pantry",
    "address": "544 Broadway Street",
    "city": "Bethlehem",
    "state": "PA",
    "zip": "18015",
    "phone": "(484) 554-5722",
    "fax": null,
    "email": null,
    "website": "http://www.freefood.org/",
    "hours": "Wednesdays 10:00am - 5:00pm \nGo To Details Page For More Information",
    "description": null,
    "requirements": "Must be a resident of West Virginia Proof of income Proof of person(s) in home Must fall in the guidelines by the WV-Donated Foods Program  Notes:  To pick up food prior to Friday call the office Clients can come in once \nGo To Details Page For More Information",
    "scraped_at": "2025-11-02T19:13:58.609535",
    "latitude": 40.6178915,
    "longitude": -75.3786521,
    "geocoded_address": "Bethlehem, Northampton County, Pennsylvania, United States of America",
    "note": "Geocoded to city center (exact address not found)"
  },
  {
    "url": "https://www.foodpantries.org/li/fourth_street_united_methodist_church_26003",
    "name": "Fourth Street United Methodist Church",
    "address": "1060 Chapline Street",
    "city": "Wheeling",
    "state": "WV",
    "zip": "26003",
    "phone": "(304) 232-3980",
    "fax": null,
    "email": null,
    "website": "http://www.freefood.org/",
    "hours": "Friday 1:00pm - 3:00pmFor more information, please call. \nCounty or Counties Served: Ohio",
    "description": null,
    "requirements": "Must be a resident of West Virginia Proof of income Proof of person(s) in home Must fall in the guidelines by the WV-Donated Foods Program  Notes:  To pick up food prior to Friday call the office Clients can come in once \nGo To Details Page For More Information",
    "scraped_at": "2025-11-02T19:14:01.938833",
    "latitude": 40.0693235,
    "longitude": -80.7215356,
    "geocoded_address": "1060, Chapline Street, Downtown Wheeling Historic District, Vineyard Hills, Wheeling, Ohio County, West Virginia, 26003, United States of America"
  },
  {
    "url": "https://www.foodpantries.org/li/house_of_carpenter_wheeling_26003",
    "name": "House of Carpenter",
    "address": "200 South Front Street",
    "city": "Wheeling",
    "state": "WV",
    "zip": "26003",
    "phone": "(304) 233-4640",
    "fax": "(304) 233-7596",
    "email": null,
    "website": "http://www.freefood.org/",
    "hours": "Monday-Friday 8:00am - 4:00pm\r\n                                    \r\n                                    County or Counties Served: Ohio",
    "description": null,
    "requirements": "Must be a resident of West Virginia Proof of income Proof of person(s) in home Must fall in the guidelines by the WV-Donated Foods Program  Notes:  To pick up food prior to Friday call the office Clients can come in once \nGo To Details Page For More Information",
    "scraped_at": "2025-11-02T19:14:05.463276",
    "latitude": 40.068965,
    "longitude": -80.72905,
    "geocoded_address": "200, South Front Street, Wheeling Island Historic District, South Island, Wheeling, Ohio County, West Virginia, 26003, United States of America"
  },
  {
    "url": "https://www.foodpantries.org/li/st-james-evangelical-lutheran-church",
    "name": "St. James Evangelical Lutheran Church",
    "address": "1409 Chapline Street",
    "city": "Wheeling",
    "state": "WV",
    "zip": "26003",
    "phone": null,
    "fax": null,
    "email": null,
    "website": "http://www.freefood.org/",
    "hours": "FOURTH Tuesday of each month from 10:00am to 12:00pm.Providing an allotment of non-perishable AND perishable food items to residents of Ohio County (WV), Marshall County (WV), and Belmont County (OH)No income limit; households with 5+ members receive double allotment\r\n                                    \r\n                                    County or Counties Served: Ohio\nArea covered: Ohio County (WV), Marshall County (WV), Belmont County (OH)",
    "description": null,
    "requirements": "Must be a resident of West Virginia Proof of income Proof of person(s) in home Must fall in the guidelines by the WV-Donated Foods Program  Notes:  To pick up food prior to Friday call the office Clients can come in once \nGo To Details Page For More Information",
    "scraped_at": "2025-11-02T19:14:08.447900",
    "latitude": 40.065541,
    "longitude": -80.7211492,
    "geocoded_address": "1409, Chapline Street, Downtown Wheeling Historic District, Vineyard Hills, Wheeling, Ohio County, West Virginia, 26003, United States of America"
  },
  {
    "url": "https://www.foodpantries.org/li/house-of-the-carpenter",
    "name": "House of the Carpenter",
    "address": "200 S Front Street",
    "city": "Wheeling",
    "state": "WV",
    "zip": "26003",
    "phone": null,
    "fax": null,
    "email": null,
    "website": "http://www.freefood.org/",
    "hours": "Friday 1:00pm - 3:00pm For more information, please call. \nGo To Details Page For More Information",
    "description": null,
    "requirements": "Must be a resident of West Virginia Proof of income Proof of person(s) in home Must fall in the guidelines by the WV-Donated Foods Program  Notes:  To pick up food prior to Friday call the office Clients can come in once \nGo To Details Page For More Information",
    "scraped_at": "2025-11-02T19:14:10.316911",
    "latitude": 40.068965,
    "longitude": -80.72905,
    "geocoded_address": "200, South Front Street, Wheeling Island Historic District, South Island, Wheeling, Ohio County, West Virginia, 26003, United States of America"
  },
  {
    "url": "https://www.foodpantries.org/li/wv_26003_st-matthews-food-pantry-and-charlies-closet",
    "name": "St. Matthew's Food Pantry and Charlie's Closet",
    "address": "1410 Chapline Street",
    "city": "Wheeling",
    "state": "WV",
    "zip": "26003",
    "phone": "(304) 233-0133",
    "fax": null,
    "email": null,
    "website": "https://stmatts.com",
    "hours": "FOURTH Tuesday of each month from 10:00am to 12:00pm. Providing an allotment of non-perishable AND perishable food items to residents of Ohio County (WV), Marshall County (WV), and Belmont County (OH) No income limit; households with 5+ members receive double allotment\nGo To Details Page For More Information",
    "description": null,
    "requirements": "Must be a resident of West Virginia Proof of income Proof of person(s) in home Must fall in the guidelines by the WV-Donated Foods Program  Notes:  To pick up food prior to Friday call the office Clients can come in once \nGo To Details Page For More Information",
    "scraped_at": "2025-11-02T19:14:12.670624",
    "latitude": 40.0655516,
    "longitude": -80.7209345,
    "geocoded_address": "1410, Chapline Street, Downtown Wheeling Historic District, Vineyard Hills, Wheeling, Ohio County, West Virginia, 26003, United States of America"
  },
  {
    "url": "https://www.foodpantries.org/li/wv_wheeling_catholic-charities-west-virginia-food-pantry",
    "name": "Catholic Charities Neighborhood Center Food Pantry",
    "address": "125 18th St",
    "city": "Wheeling",
    "state": "WV",
    "zip": "26003",
    "phone": "(304) 232-7157",
    "fax": null,
    "email": null,
    "website": "http://www.freefood.org/",
    "hours": "Every Tuesday and Thursday from 11:30am to 1:00pmOther services:Breakfast 9:00 am and Dinner 4:30 pm. Laundry from 9:30am  2:00pm.Showers available by requestDiapersCase ManagementSNAP EnrollmentUtilitiesCleaning Supplies Wednesday from 1:00 to 2:30Eye CareDelivered Meals for the HomeboundHelp Obtaining Official DocumentsHospitality House\nCounty or Counties Served: Ohio",
    "description": null,
    "requirements": "Must be a resident of West Virginia Proof of income Proof of person(s) in home Must fall in the guidelines by the WV-Donated Foods Program  Notes:  To pick up food prior to Friday call the office Clients can come in once \nGo To Details Page For More Information",
    "scraped_at": "2025-11-02T19:14:14.602267",
    "latitude": 40.062779,
    "longitude": -80.7159919,
    "geocoded_address": "125, 18th Street, East Wheeling Historic District, Wheeling, Ohio County, West Virginia, 26003, United States of America"
  },
  {
    "url": "https://www.foodpantries.org/li/tap-food-bank",
    "name": "Total Action for Progress & Food Bank",
    "address": "118 S Lexington Ave",
    "city": "Covington",
    "state": "VA",
    "zip": "24426",
    "phone": "(540) 962-6328",
    "fax": null,
    "email": null,
    "website": "http://www.freefood.org/",
    "hours": "2nd Monday every month 2-4pm\nGo To Details Page For More Information",
    "description": null,
    "requirements": null,
    "scraped_at": "2025-11-02T19:14:17.142672",
    "latitude": 37.7885685,
    "longitude": -79.9961898,
    "geocoded_address": "118, South Lexington Avenue, Covington, Virginia, 24426, United States of America"
  },
  {
    "url": "https://www.foodpantries.org/li/williamstown_welfare_league_food_pantry_26187",
    "name": "Williamstown Welfare League Food Pantry",
    "address": "211 4th Street",
    "city": "Williamstown",
    "state": "WV",
    "zip": "26187",
    "phone": "(304) 375-3995",
    "fax": null,
    "email": null,
    "website": "http://www.freefood.org/",
    "hours": "The 3rd Saturday every month\r\n 8:30am - 9:30am\n\r\nFor more information, please call.\nCounty or Counties Served: Wood",
    "description": null,
    "requirements": "Photo ID Proof of residency\nGo To Details Page For More Information",
    "scraped_at": "2025-11-02T19:14:19.493785",
    "latitude": 39.4017755,
    "longitude": -81.4422507,
    "geocoded_address": "211, East 4th Street, Williamstown, Wood County, West Virginia, 26187, United States of America"
  },
  {
    "url": "https://www.foodpantries.org/li/western-washington-county-food-pantry",
    "name": "Western Washington County Food Pantry",
    "address": "18 High Street",
    "city": "Vincent",
    "state": "OH",
    "zip": "45784",
    "phone": null,
    "fax": null,
    "email": null,
    "website": "http://www.freefood.org/",
    "hours": "The third Saturday of each month 9:00 AM to 12 00 PM Due to COVID, we will meet you in the parking lot, you choose from a check sheet of our inventory, your order is packed and carried back to your vehicle. For more information, please call. \nGo To Details Page For More Information",
    "description": null,
    "requirements": "Photo ID Proof of residency\nGo To Details Page For More Information",
    "scraped_at": "2025-11-02T19:14:21.837581",
    "latitude": 39.3750771,
    "longitude": -81.6707535,
    "geocoded_address": "18, High Street, Vincent, Washington County, Ohio, 45784, United States of America"
  }
]